<?xml version="1.0" encoding="UTF-8"?><markers>
<marker id="635150336" label="Mur Shatraug Overseer" category="71" did="1879419609" parentZoneId="1879410822" longitude="-73.56567" latitude="50.325176"/>
<marker id="635150337" label="Mur Shatraug Protector" category="71" did="1879419614" parentZoneId="1879410822" longitude="-73.56567" latitude="50.325176"/>
<marker id="635150338" label="Biting Winds" category="71" did="1879419607" parentZoneId="1879410822" longitude="-73.56567" latitude="50.325176"/>
<marker id="635150339" label="Mur Shatraug Rune-keeper" category="71" did="1879419626" parentZoneId="1879410822" longitude="-73.56567" latitude="50.325176"/>
<marker id="635150340" label="Tur Fuar Keeper" category="71" did="1879419627" parentZoneId="1879410822" longitude="-73.56567" latitude="50.325176"/>
<marker id="635150341" label="Tur Fuar Sentryl" category="71" did="1879419624" parentZoneId="1879410822" longitude="-73.56567" latitude="50.325176"/>
<marker id="635150342" label="Scree-crawler" category="71" did="1879419625" parentZoneId="1879410822" longitude="-73.56567" latitude="50.325176"/>
<marker id="635150343" label="Mur Shatraug Prospector" category="71" did="1879419619" parentZoneId="1879410822" longitude="-73.56567" latitude="50.325176"/>
<marker id="635150344" label="Lone Peak-stalker" category="71" did="1879419622" parentZoneId="1879410822" longitude="-73.56567" latitude="50.325176"/>
<marker id="635150345" label="Keen-eye Scavenger" category="71" did="1879419621" parentZoneId="1879410822" longitude="-73.56567" latitude="50.325176"/>
<marker id="635150348" label="Heavy Langflood Branches" category="50" did="1879406850" parentZoneId="1879410822" longitude="-73.51559" latitude="50.34047"/>
<marker id="635150349" label="Langflood Skarn Deposit" category="50" did="1879406848" parentZoneId="1879410822" longitude="-73.51559" latitude="50.34047"/>
<marker id="635150350" label="Langflood Branches" category="50" did="1879406846" parentZoneId="1879410822" longitude="-73.51559" latitude="50.34047"/>
<marker id="635150351" label="Rich Langflood Skarn Deposit" category="50" did="1879406845" parentZoneId="1879410822" longitude="-73.51559" latitude="50.34047"/>
<marker id="635150358" label="Mur Shatraug Overseer" category="71" did="1879419609" parentZoneId="1879410822" longitude="-73.30295" latitude="50.406307"/>
<marker id="635150359" label="Car Branoch Rock-thrower" category="71" did="1879419611" parentZoneId="1879410822" longitude="-73.30295" latitude="50.406307"/>
<marker id="635150360" label="Tur Fuar Consul" category="71" did="1879419613" parentZoneId="1879410822" longitude="-73.30295" latitude="50.406307"/>
<marker id="635150361" label="Tur Fuar Gloom-caller" category="71" did="1879419615" parentZoneId="1879410822" longitude="-73.30295" latitude="50.406307"/>
<marker id="635150362" label="Mur Shatraug Protector" category="71" did="1879419614" parentZoneId="1879410822" longitude="-73.30295" latitude="50.406307"/>
<marker id="635150363" label="Waning Limrafne" category="71" did="1879419605" parentZoneId="1879410822" longitude="-73.30295" latitude="50.406307"/>
<marker id="635150364" label="Biting Winds" category="71" did="1879419607" parentZoneId="1879410822" longitude="-73.30295" latitude="50.406307"/>
<marker id="635150365" label="Mur Shatraug Rune-keeper" category="71" did="1879419626" parentZoneId="1879410822" longitude="-73.30295" latitude="50.406307"/>
<marker id="635150366" label="Tur Fuar Keeper" category="71" did="1879419627" parentZoneId="1879410822" longitude="-73.30295" latitude="50.406307"/>
<marker id="635150367" label="Tur Fuar Sentryl" category="71" did="1879419624" parentZoneId="1879410822" longitude="-73.30295" latitude="50.406307"/>
<marker id="635150368" label="Scree-crawler" category="71" did="1879419625" parentZoneId="1879410822" longitude="-73.30295" latitude="50.406307"/>
<marker id="635150369" label="Car Branoch Brawler" category="71" did="1879419618" parentZoneId="1879410822" longitude="-73.30295" latitude="50.406307"/>
<marker id="635150370" label="Mur Shatraug Prospector" category="71" did="1879419619" parentZoneId="1879410822" longitude="-73.30295" latitude="50.406307"/>
<marker id="635150371" label="Tur Fuar Gloom-caller" category="71" did="1879419616" parentZoneId="1879410822" longitude="-73.30295" latitude="50.406307"/>
<marker id="635150372" label="Car Branoch Smasher" category="71" did="1879419617" parentZoneId="1879410822" longitude="-73.30295" latitude="50.406307"/>
<marker id="635150373" label="Lone Peak-stalker" category="71" did="1879419622" parentZoneId="1879410822" longitude="-73.30295" latitude="50.406307"/>
<marker id="635150374" label="Frost-guarded Ram" category="71" did="1879419620" parentZoneId="1879410822" longitude="-73.30295" latitude="50.406307"/>
<marker id="635150375" label="Keen-eye Scavenger" category="71" did="1879419621" parentZoneId="1879410822" longitude="-73.30295" latitude="50.406307"/>
<marker id="635150376" label="Mur Shatraug Overseer" category="71" did="1879419609" parentZoneId="1879410822" longitude="-73.30558" latitude="50.242558"/>
<marker id="635150377" label="Car Branoch Rock-thrower" category="71" did="1879419611" parentZoneId="1879410822" longitude="-73.30558" latitude="50.242558"/>
<marker id="635150378" label="Tur Fuar Consul" category="71" did="1879419613" parentZoneId="1879410822" longitude="-73.30558" latitude="50.242558"/>
<marker id="635150379" label="Tur Fuar Gloom-caller" category="71" did="1879419615" parentZoneId="1879410822" longitude="-73.30558" latitude="50.242558"/>
<marker id="635150380" label="Mur Shatraug Protector" category="71" did="1879419614" parentZoneId="1879410822" longitude="-73.30558" latitude="50.242558"/>
<marker id="635150381" label="Waning Limrafne" category="71" did="1879419605" parentZoneId="1879410822" longitude="-73.30558" latitude="50.242558"/>
<marker id="635150382" label="Biting Winds" category="71" did="1879419607" parentZoneId="1879410822" longitude="-73.30558" latitude="50.242558"/>
<marker id="635150383" label="Mur Shatraug Rune-keeper" category="71" did="1879419626" parentZoneId="1879410822" longitude="-73.30558" latitude="50.242558"/>
<marker id="635150384" label="Tur Fuar Keeper" category="71" did="1879419627" parentZoneId="1879410822" longitude="-73.30558" latitude="50.242558"/>
<marker id="635150385" label="Tur Fuar Sentryl" category="71" did="1879419624" parentZoneId="1879410822" longitude="-73.30558" latitude="50.242558"/>
<marker id="635150386" label="Scree-crawler" category="71" did="1879419625" parentZoneId="1879410822" longitude="-73.30558" latitude="50.242558"/>
<marker id="635150387" label="Car Branoch Brawler" category="71" did="1879419618" parentZoneId="1879410822" longitude="-73.30558" latitude="50.242558"/>
<marker id="635150388" label="Mur Shatraug Prospector" category="71" did="1879419619" parentZoneId="1879410822" longitude="-73.30558" latitude="50.242558"/>
<marker id="635150389" label="Tur Fuar Gloom-caller" category="71" did="1879419616" parentZoneId="1879410822" longitude="-73.30558" latitude="50.242558"/>
<marker id="635150390" label="Car Branoch Smasher" category="71" did="1879419617" parentZoneId="1879410822" longitude="-73.30558" latitude="50.242558"/>
<marker id="635150391" label="Lone Peak-stalker" category="71" did="1879419622" parentZoneId="1879410822" longitude="-73.30558" latitude="50.242558"/>
<marker id="635150392" label="Frost-guarded Ram" category="71" did="1879419620" parentZoneId="1879410822" longitude="-73.30558" latitude="50.242558"/>
<marker id="635150393" label="Keen-eye Scavenger" category="71" did="1879419621" parentZoneId="1879410822" longitude="-73.30558" latitude="50.242558"/>
<marker id="635150394" label="Mur Shatraug Overseer" category="71" did="1879419609" parentZoneId="1879410822" longitude="-73.49991" latitude="50.284607"/>
<marker id="635150395" label="Car Branoch Rock-thrower" category="71" did="1879419611" parentZoneId="1879410822" longitude="-73.49991" latitude="50.284607"/>
<marker id="635150396" label="Tur Fuar Consul" category="71" did="1879419613" parentZoneId="1879410822" longitude="-73.49991" latitude="50.284607"/>
<marker id="635150397" label="Tur Fuar Gloom-caller" category="71" did="1879419615" parentZoneId="1879410822" longitude="-73.49991" latitude="50.284607"/>
<marker id="635150398" label="Mur Shatraug Protector" category="71" did="1879419614" parentZoneId="1879410822" longitude="-73.49991" latitude="50.284607"/>
<marker id="635150399" label="Waning Limrafne" category="71" did="1879419605" parentZoneId="1879410822" longitude="-73.49991" latitude="50.284607"/>
<marker id="635150400" label="Biting Winds" category="71" did="1879419607" parentZoneId="1879410822" longitude="-73.49991" latitude="50.284607"/>
<marker id="635150401" label="Mur Shatraug Rune-keeper" category="71" did="1879419626" parentZoneId="1879410822" longitude="-73.49991" latitude="50.284607"/>
<marker id="635150402" label="Tur Fuar Keeper" category="71" did="1879419627" parentZoneId="1879410822" longitude="-73.49991" latitude="50.284607"/>
<marker id="635150403" label="Tur Fuar Sentryl" category="71" did="1879419624" parentZoneId="1879410822" longitude="-73.49991" latitude="50.284607"/>
<marker id="635150404" label="Scree-crawler" category="71" did="1879419625" parentZoneId="1879410822" longitude="-73.49991" latitude="50.284607"/>
<marker id="635150405" label="Car Branoch Brawler" category="71" did="1879419618" parentZoneId="1879410822" longitude="-73.49991" latitude="50.284607"/>
<marker id="635150406" label="Mur Shatraug Prospector" category="71" did="1879419619" parentZoneId="1879410822" longitude="-73.49991" latitude="50.284607"/>
<marker id="635150407" label="Tur Fuar Gloom-caller" category="71" did="1879419616" parentZoneId="1879410822" longitude="-73.49991" latitude="50.284607"/>
<marker id="635150408" label="Car Branoch Smasher" category="71" did="1879419617" parentZoneId="1879410822" longitude="-73.49991" latitude="50.284607"/>
<marker id="635150409" label="Lone Peak-stalker" category="71" did="1879419622" parentZoneId="1879410822" longitude="-73.49991" latitude="50.284607"/>
<marker id="635150410" label="Frost-guarded Ram" category="71" did="1879419620" parentZoneId="1879410822" longitude="-73.49991" latitude="50.284607"/>
<marker id="635150411" label="Keen-eye Scavenger" category="71" did="1879419621" parentZoneId="1879410822" longitude="-73.49991" latitude="50.284607"/>
<marker id="635150412" label="Mur Shatraug Overseer" category="71" did="1879419609" parentZoneId="1879410822" longitude="-73.60234" latitude="50.345352"/>
<marker id="635150413" label="Car Branoch Rock-thrower" category="71" did="1879419611" parentZoneId="1879410822" longitude="-73.60234" latitude="50.345352"/>
<marker id="635150414" label="Tur Fuar Consul" category="71" did="1879419613" parentZoneId="1879410822" longitude="-73.60234" latitude="50.345352"/>
<marker id="635150415" label="Tur Fuar Gloom-caller" category="71" did="1879419615" parentZoneId="1879410822" longitude="-73.60234" latitude="50.345352"/>
<marker id="635150416" label="Mur Shatraug Protector" category="71" did="1879419614" parentZoneId="1879410822" longitude="-73.60234" latitude="50.345352"/>
<marker id="635150417" label="Waning Limrafne" category="71" did="1879419605" parentZoneId="1879410822" longitude="-73.60234" latitude="50.345352"/>
<marker id="635150418" label="Biting Winds" category="71" did="1879419607" parentZoneId="1879410822" longitude="-73.60234" latitude="50.345352"/>
<marker id="635150419" label="Mur Shatraug Rune-keeper" category="71" did="1879419626" parentZoneId="1879410822" longitude="-73.60234" latitude="50.345352"/>
<marker id="635150420" label="Tur Fuar Keeper" category="71" did="1879419627" parentZoneId="1879410822" longitude="-73.60234" latitude="50.345352"/>
<marker id="635150421" label="Tur Fuar Sentryl" category="71" did="1879419624" parentZoneId="1879410822" longitude="-73.60234" latitude="50.345352"/>
<marker id="635150422" label="Scree-crawler" category="71" did="1879419625" parentZoneId="1879410822" longitude="-73.60234" latitude="50.345352"/>
<marker id="635150423" label="Car Branoch Brawler" category="71" did="1879419618" parentZoneId="1879410822" longitude="-73.60234" latitude="50.345352"/>
<marker id="635150424" label="Mur Shatraug Prospector" category="71" did="1879419619" parentZoneId="1879410822" longitude="-73.60234" latitude="50.345352"/>
<marker id="635150425" label="Tur Fuar Gloom-caller" category="71" did="1879419616" parentZoneId="1879410822" longitude="-73.60234" latitude="50.345352"/>
<marker id="635150426" label="Car Branoch Smasher" category="71" did="1879419617" parentZoneId="1879410822" longitude="-73.60234" latitude="50.345352"/>
<marker id="635150427" label="Lone Peak-stalker" category="71" did="1879419622" parentZoneId="1879410822" longitude="-73.60234" latitude="50.345352"/>
<marker id="635150428" label="Frost-guarded Ram" category="71" did="1879419620" parentZoneId="1879410822" longitude="-73.60234" latitude="50.345352"/>
<marker id="635150429" label="Keen-eye Scavenger" category="71" did="1879419621" parentZoneId="1879410822" longitude="-73.60234" latitude="50.345352"/>
<marker id="635150430" label="Mur Shatraug Overseer" category="71" did="1879419609" parentZoneId="1879410822" longitude="-73.80587" latitude="50.34912"/>
<marker id="635150431" label="Car Branoch Rock-thrower" category="71" did="1879419611" parentZoneId="1879410822" longitude="-73.80587" latitude="50.34912"/>
<marker id="635150432" label="Tur Fuar Consul" category="71" did="1879419613" parentZoneId="1879410822" longitude="-73.80587" latitude="50.34912"/>
<marker id="635150433" label="Tur Fuar Gloom-caller" category="71" did="1879419615" parentZoneId="1879410822" longitude="-73.80587" latitude="50.34912"/>
<marker id="635150434" label="Mur Shatraug Protector" category="71" did="1879419614" parentZoneId="1879410822" longitude="-73.80587" latitude="50.34912"/>
<marker id="635150435" label="Waning Limrafne" category="71" did="1879419605" parentZoneId="1879410822" longitude="-73.80587" latitude="50.34912"/>
<marker id="635150436" label="Biting Winds" category="71" did="1879419607" parentZoneId="1879410822" longitude="-73.80587" latitude="50.34912"/>
<marker id="635150437" label="Mur Shatraug Rune-keeper" category="71" did="1879419626" parentZoneId="1879410822" longitude="-73.80587" latitude="50.34912"/>
<marker id="635150438" label="Tur Fuar Keeper" category="71" did="1879419627" parentZoneId="1879410822" longitude="-73.80587" latitude="50.34912"/>
<marker id="635150439" label="Tur Fuar Sentryl" category="71" did="1879419624" parentZoneId="1879410822" longitude="-73.80587" latitude="50.34912"/>
<marker id="635150440" label="Scree-crawler" category="71" did="1879419625" parentZoneId="1879410822" longitude="-73.80587" latitude="50.34912"/>
<marker id="635150441" label="Car Branoch Brawler" category="71" did="1879419618" parentZoneId="1879410822" longitude="-73.80587" latitude="50.34912"/>
<marker id="635150442" label="Mur Shatraug Prospector" category="71" did="1879419619" parentZoneId="1879410822" longitude="-73.80587" latitude="50.34912"/>
<marker id="635150443" label="Tur Fuar Gloom-caller" category="71" did="1879419616" parentZoneId="1879410822" longitude="-73.80587" latitude="50.34912"/>
<marker id="635150444" label="Car Branoch Smasher" category="71" did="1879419617" parentZoneId="1879410822" longitude="-73.80587" latitude="50.34912"/>
<marker id="635150445" label="Lone Peak-stalker" category="71" did="1879419622" parentZoneId="1879410822" longitude="-73.80587" latitude="50.34912"/>
<marker id="635150446" label="Frost-guarded Ram" category="71" did="1879419620" parentZoneId="1879410822" longitude="-73.80587" latitude="50.34912"/>
<marker id="635150447" label="Keen-eye Scavenger" category="71" did="1879419621" parentZoneId="1879410822" longitude="-73.80587" latitude="50.34912"/>
<marker id="635150448" label="Mur Shatraug Overseer" category="71" did="1879419609" parentZoneId="1879410822" longitude="-73.95311" latitude="50.29121"/>
<marker id="635150449" label="Car Branoch Rock-thrower" category="71" did="1879419611" parentZoneId="1879410822" longitude="-73.95311" latitude="50.29121"/>
<marker id="635150450" label="Tur Fuar Consul" category="71" did="1879419613" parentZoneId="1879410822" longitude="-73.95311" latitude="50.29121"/>
<marker id="635150451" label="Tur Fuar Gloom-caller" category="71" did="1879419615" parentZoneId="1879410822" longitude="-73.95311" latitude="50.29121"/>
<marker id="635150452" label="Mur Shatraug Protector" category="71" did="1879419614" parentZoneId="1879410822" longitude="-73.95311" latitude="50.29121"/>
<marker id="635150453" label="Waning Limrafne" category="71" did="1879419605" parentZoneId="1879410822" longitude="-73.95311" latitude="50.29121"/>
<marker id="635150454" label="Biting Winds" category="71" did="1879419607" parentZoneId="1879410822" longitude="-73.95311" latitude="50.29121"/>
<marker id="635150455" label="Mur Shatraug Rune-keeper" category="71" did="1879419626" parentZoneId="1879410822" longitude="-73.95311" latitude="50.29121"/>
<marker id="635150456" label="Tur Fuar Keeper" category="71" did="1879419627" parentZoneId="1879410822" longitude="-73.95311" latitude="50.29121"/>
<marker id="635150457" label="Tur Fuar Sentryl" category="71" did="1879419624" parentZoneId="1879410822" longitude="-73.95311" latitude="50.29121"/>
<marker id="635150458" label="Scree-crawler" category="71" did="1879419625" parentZoneId="1879410822" longitude="-73.95311" latitude="50.29121"/>
<marker id="635150459" label="Car Branoch Brawler" category="71" did="1879419618" parentZoneId="1879410822" longitude="-73.95311" latitude="50.29121"/>
<marker id="635150460" label="Mur Shatraug Prospector" category="71" did="1879419619" parentZoneId="1879410822" longitude="-73.95311" latitude="50.29121"/>
<marker id="635150461" label="Tur Fuar Gloom-caller" category="71" did="1879419616" parentZoneId="1879410822" longitude="-73.95311" latitude="50.29121"/>
<marker id="635150462" label="Car Branoch Smasher" category="71" did="1879419617" parentZoneId="1879410822" longitude="-73.95311" latitude="50.29121"/>
<marker id="635150463" label="Lone Peak-stalker" category="71" did="1879419622" parentZoneId="1879410822" longitude="-73.95311" latitude="50.29121"/>
<marker id="635150464" label="Frost-guarded Ram" category="71" did="1879419620" parentZoneId="1879410822" longitude="-73.95311" latitude="50.29121"/>
<marker id="635150465" label="Keen-eye Scavenger" category="71" did="1879419621" parentZoneId="1879410822" longitude="-73.95311" latitude="50.29121"/>
<marker id="635150466" label="Mur Shatraug Overseer" category="71" did="1879419609" parentZoneId="1879410822" longitude="-73.91699" latitude="50.38078"/>
<marker id="635150467" label="Car Branoch Rock-thrower" category="71" did="1879419611" parentZoneId="1879410822" longitude="-73.91699" latitude="50.38078"/>
<marker id="635150468" label="Tur Fuar Consul" category="71" did="1879419613" parentZoneId="1879410822" longitude="-73.91699" latitude="50.38078"/>
<marker id="635150469" label="Tur Fuar Gloom-caller" category="71" did="1879419615" parentZoneId="1879410822" longitude="-73.91699" latitude="50.38078"/>
<marker id="635150470" label="Mur Shatraug Protector" category="71" did="1879419614" parentZoneId="1879410822" longitude="-73.91699" latitude="50.38078"/>
<marker id="635150471" label="Waning Limrafne" category="71" did="1879419605" parentZoneId="1879410822" longitude="-73.91699" latitude="50.38078"/>
<marker id="635150472" label="Biting Winds" category="71" did="1879419607" parentZoneId="1879410822" longitude="-73.91699" latitude="50.38078"/>
<marker id="635150473" label="Mur Shatraug Rune-keeper" category="71" did="1879419626" parentZoneId="1879410822" longitude="-73.91699" latitude="50.38078"/>
<marker id="635150474" label="Tur Fuar Keeper" category="71" did="1879419627" parentZoneId="1879410822" longitude="-73.91699" latitude="50.38078"/>
<marker id="635150475" label="Tur Fuar Sentryl" category="71" did="1879419624" parentZoneId="1879410822" longitude="-73.91699" latitude="50.38078"/>
<marker id="635150476" label="Scree-crawler" category="71" did="1879419625" parentZoneId="1879410822" longitude="-73.91699" latitude="50.38078"/>
<marker id="635150477" label="Car Branoch Brawler" category="71" did="1879419618" parentZoneId="1879410822" longitude="-73.91699" latitude="50.38078"/>
<marker id="635150478" label="Mur Shatraug Prospector" category="71" did="1879419619" parentZoneId="1879410822" longitude="-73.91699" latitude="50.38078"/>
<marker id="635150479" label="Tur Fuar Gloom-caller" category="71" did="1879419616" parentZoneId="1879410822" longitude="-73.91699" latitude="50.38078"/>
<marker id="635150480" label="Car Branoch Smasher" category="71" did="1879419617" parentZoneId="1879410822" longitude="-73.91699" latitude="50.38078"/>
<marker id="635150481" label="Lone Peak-stalker" category="71" did="1879419622" parentZoneId="1879410822" longitude="-73.91699" latitude="50.38078"/>
<marker id="635150482" label="Frost-guarded Ram" category="71" did="1879419620" parentZoneId="1879410822" longitude="-73.91699" latitude="50.38078"/>
<marker id="635150483" label="Keen-eye Scavenger" category="71" did="1879419621" parentZoneId="1879410822" longitude="-73.91699" latitude="50.38078"/>
<marker id="635150484" label="Mountain Goat" category="78" did="1879419337" parentZoneId="1879410822" longitude="-73.27127" latitude="50.272755"/>
<marker id="635150485" label="Lizard" category="78" did="1879419332" parentZoneId="1879410822" longitude="-73.27127" latitude="50.272755"/>
<marker id="635150486" label="Grey Hawk" category="78" did="1879419333" parentZoneId="1879410822" longitude="-73.27127" latitude="50.272755"/>
<marker id="635150487" label="Mountain Goat" category="78" did="1879419337" parentZoneId="1879410822" longitude="-73.27801" latitude="50.49453"/>
<marker id="635150488" label="Lizard" category="78" did="1879419332" parentZoneId="1879410822" longitude="-73.27801" latitude="50.49453"/>
<marker id="635150489" label="Grey Hawk" category="78" did="1879419333" parentZoneId="1879410822" longitude="-73.27801" latitude="50.49453"/>
<marker id="635150490" label="Mountain Goat" category="78" did="1879419337" parentZoneId="1879410822" longitude="-73.586494" latitude="50.371426"/>
<marker id="635150491" label="Lizard" category="78" did="1879419332" parentZoneId="1879410822" longitude="-73.586494" latitude="50.371426"/>
<marker id="635150492" label="Grey Hawk" category="78" did="1879419333" parentZoneId="1879410822" longitude="-73.586494" latitude="50.371426"/>
<marker id="635150493" label="Mountain Goat" category="78" did="1879419337" parentZoneId="1879410822" longitude="-73.78652" latitude="50.33701"/>
<marker id="635150494" label="Lizard" category="78" did="1879419332" parentZoneId="1879410822" longitude="-73.78652" latitude="50.33701"/>
<marker id="635150495" label="Grey Hawk" category="78" did="1879419333" parentZoneId="1879410822" longitude="-73.78652" latitude="50.33701"/>
<marker id="635150496" label="Mountain Goat" category="78" did="1879419337" parentZoneId="1879410822" longitude="-73.93054" latitude="50.35795"/>
<marker id="635150497" label="Lizard" category="78" did="1879419332" parentZoneId="1879410822" longitude="-73.93054" latitude="50.35795"/>
<marker id="635150498" label="Grey Hawk" category="78" did="1879419333" parentZoneId="1879410822" longitude="-73.93054" latitude="50.35795"/>
<marker id="635150499" label="Mountain Goat" category="78" did="1879419337" parentZoneId="1879410822" longitude="-73.95718" latitude="50.34955"/>
<marker id="635150500" label="Lizard" category="78" did="1879419332" parentZoneId="1879410822" longitude="-73.95718" latitude="50.34955"/>
<marker id="635150501" label="Grey Hawk" category="78" did="1879419333" parentZoneId="1879410822" longitude="-73.95718" latitude="50.34955"/>
<marker id="635150502" label="Mountain Goat" category="78" did="1879419337" parentZoneId="1879410822" longitude="-73.455055" latitude="50.71701"/>
<marker id="635150503" label="Lizard" category="78" did="1879419332" parentZoneId="1879410822" longitude="-73.455055" latitude="50.71701"/>
<marker id="635150504" label="Grey Hawk" category="78" did="1879419333" parentZoneId="1879410822" longitude="-73.455055" latitude="50.71701"/>
<marker id="635150505" label="Mountain Goat" category="78" did="1879419337" parentZoneId="1879410822" longitude="-73.78177" latitude="50.682068"/>
<marker id="635150506" label="Lizard" category="78" did="1879419332" parentZoneId="1879410822" longitude="-73.78177" latitude="50.682068"/>
<marker id="635150507" label="Grey Hawk" category="78" did="1879419333" parentZoneId="1879410822" longitude="-73.78177" latitude="50.682068"/>
<marker id="635150508" label="Mountain Goat" category="78" did="1879419337" parentZoneId="1879410822" longitude="-73.856804" latitude="50.73318"/>
<marker id="635150509" label="Lizard" category="78" did="1879419332" parentZoneId="1879410822" longitude="-73.856804" latitude="50.73318"/>
<marker id="635150510" label="Grey Hawk" category="78" did="1879419333" parentZoneId="1879410822" longitude="-73.856804" latitude="50.73318"/>
<marker id="635150511" label="Mountain Goat" category="78" did="1879419337" parentZoneId="1879410822" longitude="-73.9333" latitude="50.595467"/>
<marker id="635150512" label="Lizard" category="78" did="1879419332" parentZoneId="1879410822" longitude="-73.9333" latitude="50.595467"/>
<marker id="635150513" label="Grey Hawk" category="78" did="1879419333" parentZoneId="1879410822" longitude="-73.9333" latitude="50.595467"/>
<marker id="635150514" label="Heavy Langflood Branches" category="50" did="1879406850" parentZoneId="1879410822" longitude="-73.21455" latitude="50.429157"/>
<marker id="635150515" label="Langflood Branches" category="50" did="1879406846" parentZoneId="1879410822" longitude="-73.21455" latitude="50.429157"/>
<marker id="635150516" label="Langflood Skarn Deposit" category="50" did="1879406848" parentZoneId="1879410822" longitude="-73.21455" latitude="50.429157"/>
<marker id="635150517" label="Rich Langflood Skarn Deposit" category="50" did="1879406845" parentZoneId="1879410822" longitude="-73.21455" latitude="50.429157"/>
<marker id="635150518" label="Heavy Langflood Branches" category="50" did="1879406850" parentZoneId="1879410822" longitude="-73.25621" latitude="50.492107"/>
<marker id="635150519" label="Langflood Branches" category="50" did="1879406846" parentZoneId="1879410822" longitude="-73.25621" latitude="50.492107"/>
<marker id="635150520" label="Langflood Skarn Deposit" category="50" did="1879406848" parentZoneId="1879410822" longitude="-73.25621" latitude="50.492107"/>
<marker id="635150521" label="Rich Langflood Skarn Deposit" category="50" did="1879406845" parentZoneId="1879410822" longitude="-73.25621" latitude="50.492107"/>
<marker id="635150522" label="Heavy Langflood Branches" category="50" did="1879406850" parentZoneId="1879410822" longitude="-73.34016" latitude="50.408085"/>
<marker id="635150523" label="Langflood Branches" category="50" did="1879406846" parentZoneId="1879410822" longitude="-73.34016" latitude="50.408085"/>
<marker id="635150524" label="Langflood Skarn Deposit" category="50" did="1879406848" parentZoneId="1879410822" longitude="-73.34016" latitude="50.408085"/>
<marker id="635150525" label="Rich Langflood Skarn Deposit" category="50" did="1879406845" parentZoneId="1879410822" longitude="-73.34016" latitude="50.408085"/>
<marker id="635150526" label="Heavy Langflood Branches" category="50" did="1879406850" parentZoneId="1879410822" longitude="-73.217094" latitude="50.21951"/>
<marker id="635150527" label="Langflood Branches" category="50" did="1879406846" parentZoneId="1879410822" longitude="-73.217094" latitude="50.21951"/>
<marker id="635150528" label="Langflood Skarn Deposit" category="50" did="1879406848" parentZoneId="1879410822" longitude="-73.217094" latitude="50.21951"/>
<marker id="635150529" label="Rich Langflood Skarn Deposit" category="50" did="1879406845" parentZoneId="1879410822" longitude="-73.217094" latitude="50.21951"/>
<marker id="635150530" label="Heavy Langflood Branches" category="50" did="1879406850" parentZoneId="1879410822" longitude="-73.25815" latitude="50.21459"/>
<marker id="635150531" label="Langflood Branches" category="50" did="1879406846" parentZoneId="1879410822" longitude="-73.25815" latitude="50.21459"/>
<marker id="635150532" label="Langflood Skarn Deposit" category="50" did="1879406848" parentZoneId="1879410822" longitude="-73.25815" latitude="50.21459"/>
<marker id="635150533" label="Rich Langflood Skarn Deposit" category="50" did="1879406845" parentZoneId="1879410822" longitude="-73.25815" latitude="50.21459"/>
<marker id="635150534" label="Heavy Langflood Branches" category="50" did="1879406850" parentZoneId="1879410822" longitude="-73.391754" latitude="50.19219"/>
<marker id="635150535" label="Langflood Branches" category="50" did="1879406846" parentZoneId="1879410822" longitude="-73.391754" latitude="50.19219"/>
<marker id="635150536" label="Langflood Skarn Deposit" category="50" did="1879406848" parentZoneId="1879410822" longitude="-73.391754" latitude="50.19219"/>
<marker id="635150537" label="Rich Langflood Skarn Deposit" category="50" did="1879406845" parentZoneId="1879410822" longitude="-73.391754" latitude="50.19219"/>
<marker id="635150538" label="Heavy Langflood Branches" category="50" did="1879406850" parentZoneId="1879410822" longitude="-73.446655" latitude="50.308807"/>
<marker id="635150539" label="Langflood Branches" category="50" did="1879406846" parentZoneId="1879410822" longitude="-73.446655" latitude="50.308807"/>
<marker id="635150540" label="Langflood Skarn Deposit" category="50" did="1879406848" parentZoneId="1879410822" longitude="-73.446655" latitude="50.308807"/>
<marker id="635150541" label="Rich Langflood Skarn Deposit" category="50" did="1879406845" parentZoneId="1879410822" longitude="-73.446655" latitude="50.308807"/>
<marker id="635150542" label="Heavy Langflood Branches" category="50" did="1879406850" parentZoneId="1879410822" longitude="-73.58198" latitude="50.273125"/>
<marker id="635150543" label="Langflood Branches" category="50" did="1879406846" parentZoneId="1879410822" longitude="-73.58198" latitude="50.273125"/>
<marker id="635150544" label="Langflood Skarn Deposit" category="50" did="1879406848" parentZoneId="1879410822" longitude="-73.58198" latitude="50.273125"/>
<marker id="635150545" label="Rich Langflood Skarn Deposit" category="50" did="1879406845" parentZoneId="1879410822" longitude="-73.58198" latitude="50.273125"/>
<marker id="635150546" label="Heavy Langflood Branches" category="50" did="1879406850" parentZoneId="1879410822" longitude="-73.8325" latitude="50.382595"/>
<marker id="635150547" label="Langflood Branches" category="50" did="1879406846" parentZoneId="1879410822" longitude="-73.8325" latitude="50.382595"/>
<marker id="635150548" label="Langflood Skarn Deposit" category="50" did="1879406848" parentZoneId="1879410822" longitude="-73.8325" latitude="50.382595"/>
<marker id="635150549" label="Rich Langflood Skarn Deposit" category="50" did="1879406845" parentZoneId="1879410822" longitude="-73.8325" latitude="50.382595"/>
<marker id="635150550" label="Heavy Langflood Branches" category="50" did="1879406850" parentZoneId="1879410822" longitude="-73.89608" latitude="50.306717"/>
<marker id="635150551" label="Langflood Branches" category="50" did="1879406846" parentZoneId="1879410822" longitude="-73.89608" latitude="50.306717"/>
<marker id="635150552" label="Langflood Skarn Deposit" category="50" did="1879406848" parentZoneId="1879410822" longitude="-73.89608" latitude="50.306717"/>
<marker id="635150553" label="Rich Langflood Skarn Deposit" category="50" did="1879406845" parentZoneId="1879410822" longitude="-73.89608" latitude="50.306717"/>
<marker id="635150554" label="Heavy Langflood Branches" category="50" did="1879406850" parentZoneId="1879410822" longitude="-73.981544" latitude="50.33918"/>
<marker id="635150555" label="Langflood Branches" category="50" did="1879406846" parentZoneId="1879410822" longitude="-73.981544" latitude="50.33918"/>
<marker id="635150556" label="Langflood Skarn Deposit" category="50" did="1879406848" parentZoneId="1879410822" longitude="-73.981544" latitude="50.33918"/>
<marker id="635150557" label="Rich Langflood Skarn Deposit" category="50" did="1879406845" parentZoneId="1879410822" longitude="-73.981544" latitude="50.33918"/>
<marker id="635150558" label="Heavy Langflood Branches" category="50" did="1879406850" parentZoneId="1879410822" longitude="-73.25456" latitude="50.13418"/>
<marker id="635150559" label="Langflood Branches" category="50" did="1879406846" parentZoneId="1879410822" longitude="-73.25456" latitude="50.13418"/>
<marker id="635150560" label="Langflood Skarn Deposit" category="50" did="1879406848" parentZoneId="1879410822" longitude="-73.25456" latitude="50.13418"/>
<marker id="635150561" label="Rich Langflood Skarn Deposit" category="50" did="1879406845" parentZoneId="1879410822" longitude="-73.25456" latitude="50.13418"/>
<marker id="635150562" label="Heavy Langflood Branches" category="50" did="1879406850" parentZoneId="1879410822" longitude="-73.32868" latitude="50.16582"/>
<marker id="635150563" label="Langflood Branches" category="50" did="1879406846" parentZoneId="1879410822" longitude="-73.32868" latitude="50.16582"/>
<marker id="635150564" label="Langflood Skarn Deposit" category="50" did="1879406848" parentZoneId="1879410822" longitude="-73.32868" latitude="50.16582"/>
<marker id="635150565" label="Rich Langflood Skarn Deposit" category="50" did="1879406845" parentZoneId="1879410822" longitude="-73.32868" latitude="50.16582"/>
<marker id="635150566" label="Heavy Langflood Branches" category="50" did="1879406850" parentZoneId="1879410822" longitude="-73.49204" latitude="50.225838"/>
<marker id="635150567" label="Langflood Branches" category="50" did="1879406846" parentZoneId="1879410822" longitude="-73.49204" latitude="50.225838"/>
<marker id="635150568" label="Langflood Skarn Deposit" category="50" did="1879406848" parentZoneId="1879410822" longitude="-73.49204" latitude="50.225838"/>
<marker id="635150569" label="Rich Langflood Skarn Deposit" category="50" did="1879406845" parentZoneId="1879410822" longitude="-73.49204" latitude="50.225838"/>
<marker id="635150570" label="Heavy Langflood Branches" category="50" did="1879406850" parentZoneId="1879410822" longitude="-73.71742" latitude="50.288357"/>
<marker id="635150571" label="Langflood Branches" category="50" did="1879406846" parentZoneId="1879410822" longitude="-73.71742" latitude="50.288357"/>
<marker id="635150572" label="Langflood Skarn Deposit" category="50" did="1879406848" parentZoneId="1879410822" longitude="-73.71742" latitude="50.288357"/>
<marker id="635150573" label="Rich Langflood Skarn Deposit" category="50" did="1879406845" parentZoneId="1879410822" longitude="-73.71742" latitude="50.288357"/>
<marker id="635150574" label="Heavy Langflood Branches" category="50" did="1879406850" parentZoneId="1879410822" longitude="-73.79904" latitude="50.403477"/>
<marker id="635150575" label="Langflood Branches" category="50" did="1879406846" parentZoneId="1879410822" longitude="-73.79904" latitude="50.403477"/>
<marker id="635150576" label="Langflood Skarn Deposit" category="50" did="1879406848" parentZoneId="1879410822" longitude="-73.79904" latitude="50.403477"/>
<marker id="635150577" label="Rich Langflood Skarn Deposit" category="50" did="1879406845" parentZoneId="1879410822" longitude="-73.79904" latitude="50.403477"/>
<marker id="635150578" label="Heavy Langflood Branches" category="50" did="1879406850" parentZoneId="1879410822" longitude="-73.618645" latitude="50.42664"/>
<marker id="635150579" label="Langflood Branches" category="50" did="1879406846" parentZoneId="1879410822" longitude="-73.618645" latitude="50.42664"/>
<marker id="635150580" label="Langflood Skarn Deposit" category="50" did="1879406848" parentZoneId="1879410822" longitude="-73.618645" latitude="50.42664"/>
<marker id="635150581" label="Rich Langflood Skarn Deposit" category="50" did="1879406845" parentZoneId="1879410822" longitude="-73.618645" latitude="50.42664"/>
<marker id="635150582" label="Heavy Langflood Branches" category="50" did="1879406850" parentZoneId="1879410822" longitude="-73.42961" latitude="50.462578"/>
<marker id="635150583" label="Langflood Branches" category="50" did="1879406846" parentZoneId="1879410822" longitude="-73.42961" latitude="50.462578"/>
<marker id="635150584" label="Langflood Skarn Deposit" category="50" did="1879406848" parentZoneId="1879410822" longitude="-73.42961" latitude="50.462578"/>
<marker id="635150585" label="Rich Langflood Skarn Deposit" category="50" did="1879406845" parentZoneId="1879410822" longitude="-73.42961" latitude="50.462578"/>
<marker id="635150586" label="Heavy Langflood Branches" category="50" did="1879406850" parentZoneId="1879410822" longitude="-73.34509" latitude="50.50086"/>
<marker id="635150587" label="Langflood Branches" category="50" did="1879406846" parentZoneId="1879410822" longitude="-73.34509" latitude="50.50086"/>
<marker id="635150588" label="Langflood Skarn Deposit" category="50" did="1879406848" parentZoneId="1879410822" longitude="-73.34509" latitude="50.50086"/>
<marker id="635150589" label="Rich Langflood Skarn Deposit" category="50" did="1879406845" parentZoneId="1879410822" longitude="-73.34509" latitude="50.50086"/>
<marker id="635150590" label="Heavy Langflood Branches" category="50" did="1879406850" parentZoneId="1879410822" longitude="-73.91524" latitude="50.22951"/>
<marker id="635150591" label="Langflood Branches" category="50" did="1879406846" parentZoneId="1879410822" longitude="-73.91524" latitude="50.22951"/>
<marker id="635150592" label="Langflood Skarn Deposit" category="50" did="1879406848" parentZoneId="1879410822" longitude="-73.91524" latitude="50.22951"/>
<marker id="635150593" label="Rich Langflood Skarn Deposit" category="50" did="1879406845" parentZoneId="1879410822" longitude="-73.91524" latitude="50.22951"/>
<marker id="635150594" label="Heavy Langflood Branches" category="50" did="1879406850" parentZoneId="1879410822" longitude="-73.56253" latitude="50.246502"/>
<marker id="635150595" label="Langflood Branches" category="50" did="1879406846" parentZoneId="1879410822" longitude="-73.56253" latitude="50.246502"/>
<marker id="635150596" label="Langflood Skarn Deposit" category="50" did="1879406848" parentZoneId="1879410822" longitude="-73.56253" latitude="50.246502"/>
<marker id="635150597" label="Rich Langflood Skarn Deposit" category="50" did="1879406845" parentZoneId="1879410822" longitude="-73.56253" latitude="50.246502"/>
<marker id="635211776" label="Mur Shatraug Overseer" category="71" did="1879419609" parentZoneId="1879410823" longitude="-72.760864" latitude="49.734276"/>
<marker id="635211777" label="Mur Shatraug Protector" category="71" did="1879419614" parentZoneId="1879410823" longitude="-72.760864" latitude="49.734276"/>
<marker id="635211778" label="Biting Winds" category="71" did="1879419607" parentZoneId="1879410823" longitude="-72.760864" latitude="49.734276"/>
<marker id="635211779" label="Mur Shatraug Rune-keeper" category="71" did="1879419626" parentZoneId="1879410823" longitude="-72.760864" latitude="49.734276"/>
<marker id="635211780" label="Tur Fuar Keeper" category="71" did="1879419627" parentZoneId="1879410823" longitude="-72.760864" latitude="49.734276"/>
<marker id="635211781" label="Tur Fuar Sentryl" category="71" did="1879419624" parentZoneId="1879410823" longitude="-72.760864" latitude="49.734276"/>
<marker id="635211782" label="Scree-crawler" category="71" did="1879419625" parentZoneId="1879410823" longitude="-72.760864" latitude="49.734276"/>
<marker id="635211783" label="Mur Shatraug Prospector" category="71" did="1879419619" parentZoneId="1879410823" longitude="-72.760864" latitude="49.734276"/>
<marker id="635211784" label="Lone Peak-stalker" category="71" did="1879419622" parentZoneId="1879410823" longitude="-72.760864" latitude="49.734276"/>
<marker id="635211785" label="Keen-eye Scavenger" category="71" did="1879419621" parentZoneId="1879410823" longitude="-72.760864" latitude="49.734276"/>
<marker id="635211792" label="Heavy Langflood Branches" category="50" did="1879406850" parentZoneId="1879410823" longitude="-72.73617" latitude="49.70322"/>
<marker id="635211793" label="Langflood Skarn Deposit" category="50" did="1879406848" parentZoneId="1879410823" longitude="-72.73617" latitude="49.70322"/>
<marker id="635211794" label="Langflood Branches" category="50" did="1879406846" parentZoneId="1879410823" longitude="-72.73617" latitude="49.70322"/>
<marker id="635211795" label="Rich Langflood Skarn Deposit" category="50" did="1879406845" parentZoneId="1879410823" longitude="-72.73617" latitude="49.70322"/>
<marker id="635211798" label="Mur Shatraug Overseer" category="71" did="1879419609" parentZoneId="1879410823" longitude="-72.7829" latitude="49.92232"/>
<marker id="635211799" label="Car Branoch Rock-thrower" category="71" did="1879419611" parentZoneId="1879410823" longitude="-72.7829" latitude="49.92232"/>
<marker id="635211800" label="Tur Fuar Consul" category="71" did="1879419613" parentZoneId="1879410823" longitude="-72.7829" latitude="49.92232"/>
<marker id="635211801" label="Tur Fuar Gloom-caller" category="71" did="1879419615" parentZoneId="1879410823" longitude="-72.7829" latitude="49.92232"/>
<marker id="635211802" label="Mur Shatraug Protector" category="71" did="1879419614" parentZoneId="1879410823" longitude="-72.7829" latitude="49.92232"/>
<marker id="635211803" label="Waning Limrafne" category="71" did="1879419605" parentZoneId="1879410823" longitude="-72.7829" latitude="49.92232"/>
<marker id="635211804" label="Biting Winds" category="71" did="1879419607" parentZoneId="1879410823" longitude="-72.7829" latitude="49.92232"/>
<marker id="635211805" label="Mur Shatraug Rune-keeper" category="71" did="1879419626" parentZoneId="1879410823" longitude="-72.7829" latitude="49.92232"/>
<marker id="635211806" label="Tur Fuar Keeper" category="71" did="1879419627" parentZoneId="1879410823" longitude="-72.7829" latitude="49.92232"/>
<marker id="635211807" label="Tur Fuar Sentryl" category="71" did="1879419624" parentZoneId="1879410823" longitude="-72.7829" latitude="49.92232"/>
<marker id="635211808" label="Scree-crawler" category="71" did="1879419625" parentZoneId="1879410823" longitude="-72.7829" latitude="49.92232"/>
<marker id="635211809" label="Car Branoch Brawler" category="71" did="1879419618" parentZoneId="1879410823" longitude="-72.7829" latitude="49.92232"/>
<marker id="635211810" label="Mur Shatraug Prospector" category="71" did="1879419619" parentZoneId="1879410823" longitude="-72.7829" latitude="49.92232"/>
<marker id="635211811" label="Tur Fuar Gloom-caller" category="71" did="1879419616" parentZoneId="1879410823" longitude="-72.7829" latitude="49.92232"/>
<marker id="635211812" label="Car Branoch Smasher" category="71" did="1879419617" parentZoneId="1879410823" longitude="-72.7829" latitude="49.92232"/>
<marker id="635211813" label="Lone Peak-stalker" category="71" did="1879419622" parentZoneId="1879410823" longitude="-72.7829" latitude="49.92232"/>
<marker id="635211814" label="Frost-guarded Ram" category="71" did="1879419620" parentZoneId="1879410823" longitude="-72.7829" latitude="49.92232"/>
<marker id="635211815" label="Keen-eye Scavenger" category="71" did="1879419621" parentZoneId="1879410823" longitude="-72.7829" latitude="49.92232"/>
<marker id="635211816" label="Mur Shatraug Overseer" category="71" did="1879419609" parentZoneId="1879410823" longitude="-73.08743" latitude="49.905586"/>
<marker id="635211817" label="Car Branoch Rock-thrower" category="71" did="1879419611" parentZoneId="1879410823" longitude="-73.08743" latitude="49.905586"/>
<marker id="635211818" label="Tur Fuar Consul" category="71" did="1879419613" parentZoneId="1879410823" longitude="-73.08743" latitude="49.905586"/>
<marker id="635211819" label="Tur Fuar Gloom-caller" category="71" did="1879419615" parentZoneId="1879410823" longitude="-73.08743" latitude="49.905586"/>
<marker id="635211820" label="Mur Shatraug Protector" category="71" did="1879419614" parentZoneId="1879410823" longitude="-73.08743" latitude="49.905586"/>
<marker id="635211821" label="Waning Limrafne" category="71" did="1879419605" parentZoneId="1879410823" longitude="-73.08743" latitude="49.905586"/>
<marker id="635211822" label="Biting Winds" category="71" did="1879419607" parentZoneId="1879410823" longitude="-73.08743" latitude="49.905586"/>
<marker id="635211823" label="Mur Shatraug Rune-keeper" category="71" did="1879419626" parentZoneId="1879410823" longitude="-73.08743" latitude="49.905586"/>
<marker id="635211824" label="Tur Fuar Keeper" category="71" did="1879419627" parentZoneId="1879410823" longitude="-73.08743" latitude="49.905586"/>
<marker id="635211825" label="Tur Fuar Sentryl" category="71" did="1879419624" parentZoneId="1879410823" longitude="-73.08743" latitude="49.905586"/>
<marker id="635211826" label="Scree-crawler" category="71" did="1879419625" parentZoneId="1879410823" longitude="-73.08743" latitude="49.905586"/>
<marker id="635211827" label="Car Branoch Brawler" category="71" did="1879419618" parentZoneId="1879410823" longitude="-73.08743" latitude="49.905586"/>
<marker id="635211828" label="Mur Shatraug Prospector" category="71" did="1879419619" parentZoneId="1879410823" longitude="-73.08743" latitude="49.905586"/>
<marker id="635211829" label="Tur Fuar Gloom-caller" category="71" did="1879419616" parentZoneId="1879410823" longitude="-73.08743" latitude="49.905586"/>
<marker id="635211830" label="Car Branoch Smasher" category="71" did="1879419617" parentZoneId="1879410823" longitude="-73.08743" latitude="49.905586"/>
<marker id="635211831" label="Lone Peak-stalker" category="71" did="1879419622" parentZoneId="1879410823" longitude="-73.08743" latitude="49.905586"/>
<marker id="635211832" label="Frost-guarded Ram" category="71" did="1879419620" parentZoneId="1879410823" longitude="-73.08743" latitude="49.905586"/>
<marker id="635211833" label="Keen-eye Scavenger" category="71" did="1879419621" parentZoneId="1879410823" longitude="-73.08743" latitude="49.905586"/>
<marker id="635211834" label="Mur Shatraug Overseer" category="71" did="1879419609" parentZoneId="1879410823" longitude="-73.119606" latitude="49.814236"/>
<marker id="635211835" label="Car Branoch Rock-thrower" category="71" did="1879419611" parentZoneId="1879410823" longitude="-73.119606" latitude="49.814236"/>
<marker id="635211836" label="Tur Fuar Consul" category="71" did="1879419613" parentZoneId="1879410823" longitude="-73.119606" latitude="49.814236"/>
<marker id="635211837" label="Tur Fuar Gloom-caller" category="71" did="1879419615" parentZoneId="1879410823" longitude="-73.119606" latitude="49.814236"/>
<marker id="635211838" label="Mur Shatraug Protector" category="71" did="1879419614" parentZoneId="1879410823" longitude="-73.119606" latitude="49.814236"/>
<marker id="635211839" label="Waning Limrafne" category="71" did="1879419605" parentZoneId="1879410823" longitude="-73.119606" latitude="49.814236"/>
<marker id="635211840" label="Biting Winds" category="71" did="1879419607" parentZoneId="1879410823" longitude="-73.119606" latitude="49.814236"/>
<marker id="635211841" label="Mur Shatraug Rune-keeper" category="71" did="1879419626" parentZoneId="1879410823" longitude="-73.119606" latitude="49.814236"/>
<marker id="635211842" label="Tur Fuar Keeper" category="71" did="1879419627" parentZoneId="1879410823" longitude="-73.119606" latitude="49.814236"/>
<marker id="635211843" label="Tur Fuar Sentryl" category="71" did="1879419624" parentZoneId="1879410823" longitude="-73.119606" latitude="49.814236"/>
<marker id="635211844" label="Scree-crawler" category="71" did="1879419625" parentZoneId="1879410823" longitude="-73.119606" latitude="49.814236"/>
<marker id="635211845" label="Car Branoch Brawler" category="71" did="1879419618" parentZoneId="1879410823" longitude="-73.119606" latitude="49.814236"/>
<marker id="635211846" label="Mur Shatraug Prospector" category="71" did="1879419619" parentZoneId="1879410823" longitude="-73.119606" latitude="49.814236"/>
<marker id="635211847" label="Tur Fuar Gloom-caller" category="71" did="1879419616" parentZoneId="1879410823" longitude="-73.119606" latitude="49.814236"/>
<marker id="635211848" label="Car Branoch Smasher" category="71" did="1879419617" parentZoneId="1879410823" longitude="-73.119606" latitude="49.814236"/>
<marker id="635211849" label="Lone Peak-stalker" category="71" did="1879419622" parentZoneId="1879410823" longitude="-73.119606" latitude="49.814236"/>
<marker id="635211850" label="Frost-guarded Ram" category="71" did="1879419620" parentZoneId="1879410823" longitude="-73.119606" latitude="49.814236"/>
<marker id="635211851" label="Keen-eye Scavenger" category="71" did="1879419621" parentZoneId="1879410823" longitude="-73.119606" latitude="49.814236"/>
<marker id="635211852" label="Mur Shatraug Overseer" category="71" did="1879419609" parentZoneId="1879410823" longitude="-73.03005" latitude="49.669685"/>
<marker id="635211853" label="Car Branoch Rock-thrower" category="71" did="1879419611" parentZoneId="1879410823" longitude="-73.03005" latitude="49.669685"/>
<marker id="635211854" label="Tur Fuar Consul" category="71" did="1879419613" parentZoneId="1879410823" longitude="-73.03005" latitude="49.669685"/>
<marker id="635211855" label="Tur Fuar Gloom-caller" category="71" did="1879419615" parentZoneId="1879410823" longitude="-73.03005" latitude="49.669685"/>
<marker id="635211856" label="Mur Shatraug Protector" category="71" did="1879419614" parentZoneId="1879410823" longitude="-73.03005" latitude="49.669685"/>
<marker id="635211857" label="Waning Limrafne" category="71" did="1879419605" parentZoneId="1879410823" longitude="-73.03005" latitude="49.669685"/>
<marker id="635211858" label="Biting Winds" category="71" did="1879419607" parentZoneId="1879410823" longitude="-73.03005" latitude="49.669685"/>
<marker id="635211859" label="Mur Shatraug Rune-keeper" category="71" did="1879419626" parentZoneId="1879410823" longitude="-73.03005" latitude="49.669685"/>
<marker id="635211860" label="Tur Fuar Keeper" category="71" did="1879419627" parentZoneId="1879410823" longitude="-73.03005" latitude="49.669685"/>
<marker id="635211861" label="Tur Fuar Sentryl" category="71" did="1879419624" parentZoneId="1879410823" longitude="-73.03005" latitude="49.669685"/>
<marker id="635211862" label="Scree-crawler" category="71" did="1879419625" parentZoneId="1879410823" longitude="-73.03005" latitude="49.669685"/>
<marker id="635211863" label="Car Branoch Brawler" category="71" did="1879419618" parentZoneId="1879410823" longitude="-73.03005" latitude="49.669685"/>
<marker id="635211864" label="Mur Shatraug Prospector" category="71" did="1879419619" parentZoneId="1879410823" longitude="-73.03005" latitude="49.669685"/>
<marker id="635211865" label="Tur Fuar Gloom-caller" category="71" did="1879419616" parentZoneId="1879410823" longitude="-73.03005" latitude="49.669685"/>
<marker id="635211866" label="Car Branoch Smasher" category="71" did="1879419617" parentZoneId="1879410823" longitude="-73.03005" latitude="49.669685"/>
<marker id="635211867" label="Lone Peak-stalker" category="71" did="1879419622" parentZoneId="1879410823" longitude="-73.03005" latitude="49.669685"/>
<marker id="635211868" label="Frost-guarded Ram" category="71" did="1879419620" parentZoneId="1879410823" longitude="-73.03005" latitude="49.669685"/>
<marker id="635211869" label="Keen-eye Scavenger" category="71" did="1879419621" parentZoneId="1879410823" longitude="-73.03005" latitude="49.669685"/>
<marker id="635211870" label="Mur Shatraug Overseer" category="71" did="1879419609" parentZoneId="1879410823" longitude="-72.826355" latitude="49.721817"/>
<marker id="635211871" label="Car Branoch Rock-thrower" category="71" did="1879419611" parentZoneId="1879410823" longitude="-72.826355" latitude="49.721817"/>
<marker id="635211872" label="Tur Fuar Consul" category="71" did="1879419613" parentZoneId="1879410823" longitude="-72.826355" latitude="49.721817"/>
<marker id="635211873" label="Tur Fuar Gloom-caller" category="71" did="1879419615" parentZoneId="1879410823" longitude="-72.826355" latitude="49.721817"/>
<marker id="635211874" label="Mur Shatraug Protector" category="71" did="1879419614" parentZoneId="1879410823" longitude="-72.826355" latitude="49.721817"/>
<marker id="635211875" label="Waning Limrafne" category="71" did="1879419605" parentZoneId="1879410823" longitude="-72.826355" latitude="49.721817"/>
<marker id="635211876" label="Biting Winds" category="71" did="1879419607" parentZoneId="1879410823" longitude="-72.826355" latitude="49.721817"/>
<marker id="635211877" label="Mur Shatraug Rune-keeper" category="71" did="1879419626" parentZoneId="1879410823" longitude="-72.826355" latitude="49.721817"/>
<marker id="635211878" label="Tur Fuar Keeper" category="71" did="1879419627" parentZoneId="1879410823" longitude="-72.826355" latitude="49.721817"/>
<marker id="635211879" label="Tur Fuar Sentryl" category="71" did="1879419624" parentZoneId="1879410823" longitude="-72.826355" latitude="49.721817"/>
<marker id="635211880" label="Scree-crawler" category="71" did="1879419625" parentZoneId="1879410823" longitude="-72.826355" latitude="49.721817"/>
<marker id="635211881" label="Car Branoch Brawler" category="71" did="1879419618" parentZoneId="1879410823" longitude="-72.826355" latitude="49.721817"/>
<marker id="635211882" label="Mur Shatraug Prospector" category="71" did="1879419619" parentZoneId="1879410823" longitude="-72.826355" latitude="49.721817"/>
<marker id="635211883" label="Tur Fuar Gloom-caller" category="71" did="1879419616" parentZoneId="1879410823" longitude="-72.826355" latitude="49.721817"/>
<marker id="635211884" label="Car Branoch Smasher" category="71" did="1879419617" parentZoneId="1879410823" longitude="-72.826355" latitude="49.721817"/>
<marker id="635211885" label="Lone Peak-stalker" category="71" did="1879419622" parentZoneId="1879410823" longitude="-72.826355" latitude="49.721817"/>
<marker id="635211886" label="Frost-guarded Ram" category="71" did="1879419620" parentZoneId="1879410823" longitude="-72.826355" latitude="49.721817"/>
<marker id="635211887" label="Keen-eye Scavenger" category="71" did="1879419621" parentZoneId="1879410823" longitude="-72.826355" latitude="49.721817"/>
<marker id="635211888" label="Mur Shatraug Overseer" category="71" did="1879419609" parentZoneId="1879410823" longitude="-72.54729" latitude="49.820232"/>
<marker id="635211889" label="Car Branoch Rock-thrower" category="71" did="1879419611" parentZoneId="1879410823" longitude="-72.54729" latitude="49.820232"/>
<marker id="635211890" label="Tur Fuar Consul" category="71" did="1879419613" parentZoneId="1879410823" longitude="-72.54729" latitude="49.820232"/>
<marker id="635211891" label="Tur Fuar Gloom-caller" category="71" did="1879419615" parentZoneId="1879410823" longitude="-72.54729" latitude="49.820232"/>
<marker id="635211892" label="Mur Shatraug Protector" category="71" did="1879419614" parentZoneId="1879410823" longitude="-72.54729" latitude="49.820232"/>
<marker id="635211893" label="Waning Limrafne" category="71" did="1879419605" parentZoneId="1879410823" longitude="-72.54729" latitude="49.820232"/>
<marker id="635211894" label="Biting Winds" category="71" did="1879419607" parentZoneId="1879410823" longitude="-72.54729" latitude="49.820232"/>
<marker id="635211895" label="Mur Shatraug Rune-keeper" category="71" did="1879419626" parentZoneId="1879410823" longitude="-72.54729" latitude="49.820232"/>
<marker id="635211896" label="Tur Fuar Keeper" category="71" did="1879419627" parentZoneId="1879410823" longitude="-72.54729" latitude="49.820232"/>
<marker id="635211897" label="Tur Fuar Sentryl" category="71" did="1879419624" parentZoneId="1879410823" longitude="-72.54729" latitude="49.820232"/>
<marker id="635211898" label="Scree-crawler" category="71" did="1879419625" parentZoneId="1879410823" longitude="-72.54729" latitude="49.820232"/>
<marker id="635211899" label="Car Branoch Brawler" category="71" did="1879419618" parentZoneId="1879410823" longitude="-72.54729" latitude="49.820232"/>
<marker id="635211900" label="Mur Shatraug Prospector" category="71" did="1879419619" parentZoneId="1879410823" longitude="-72.54729" latitude="49.820232"/>
<marker id="635211901" label="Tur Fuar Gloom-caller" category="71" did="1879419616" parentZoneId="1879410823" longitude="-72.54729" latitude="49.820232"/>
<marker id="635211902" label="Car Branoch Smasher" category="71" did="1879419617" parentZoneId="1879410823" longitude="-72.54729" latitude="49.820232"/>
<marker id="635211903" label="Lone Peak-stalker" category="71" did="1879419622" parentZoneId="1879410823" longitude="-72.54729" latitude="49.820232"/>
<marker id="635211904" label="Frost-guarded Ram" category="71" did="1879419620" parentZoneId="1879410823" longitude="-72.54729" latitude="49.820232"/>
<marker id="635211905" label="Keen-eye Scavenger" category="71" did="1879419621" parentZoneId="1879410823" longitude="-72.54729" latitude="49.820232"/>
<marker id="635211906" label="Mur Shatraug Overseer" category="71" did="1879419609" parentZoneId="1879410823" longitude="-72.48261" latitude="49.849415"/>
<marker id="635211907" label="Car Branoch Rock-thrower" category="71" did="1879419611" parentZoneId="1879410823" longitude="-72.48261" latitude="49.849415"/>
<marker id="635211908" label="Tur Fuar Consul" category="71" did="1879419613" parentZoneId="1879410823" longitude="-72.48261" latitude="49.849415"/>
<marker id="635211909" label="Tur Fuar Gloom-caller" category="71" did="1879419615" parentZoneId="1879410823" longitude="-72.48261" latitude="49.849415"/>
<marker id="635211910" label="Mur Shatraug Protector" category="71" did="1879419614" parentZoneId="1879410823" longitude="-72.48261" latitude="49.849415"/>
<marker id="635211911" label="Waning Limrafne" category="71" did="1879419605" parentZoneId="1879410823" longitude="-72.48261" latitude="49.849415"/>
<marker id="635211912" label="Biting Winds" category="71" did="1879419607" parentZoneId="1879410823" longitude="-72.48261" latitude="49.849415"/>
<marker id="635211913" label="Mur Shatraug Rune-keeper" category="71" did="1879419626" parentZoneId="1879410823" longitude="-72.48261" latitude="49.849415"/>
<marker id="635211914" label="Tur Fuar Keeper" category="71" did="1879419627" parentZoneId="1879410823" longitude="-72.48261" latitude="49.849415"/>
<marker id="635211915" label="Tur Fuar Sentryl" category="71" did="1879419624" parentZoneId="1879410823" longitude="-72.48261" latitude="49.849415"/>
<marker id="635211916" label="Scree-crawler" category="71" did="1879419625" parentZoneId="1879410823" longitude="-72.48261" latitude="49.849415"/>
<marker id="635211917" label="Car Branoch Brawler" category="71" did="1879419618" parentZoneId="1879410823" longitude="-72.48261" latitude="49.849415"/>
<marker id="635211918" label="Mur Shatraug Prospector" category="71" did="1879419619" parentZoneId="1879410823" longitude="-72.48261" latitude="49.849415"/>
<marker id="635211919" label="Tur Fuar Gloom-caller" category="71" did="1879419616" parentZoneId="1879410823" longitude="-72.48261" latitude="49.849415"/>
<marker id="635211920" label="Car Branoch Smasher" category="71" did="1879419617" parentZoneId="1879410823" longitude="-72.48261" latitude="49.849415"/>
<marker id="635211921" label="Lone Peak-stalker" category="71" did="1879419622" parentZoneId="1879410823" longitude="-72.48261" latitude="49.849415"/>
<marker id="635211922" label="Frost-guarded Ram" category="71" did="1879419620" parentZoneId="1879410823" longitude="-72.48261" latitude="49.849415"/>
<marker id="635211923" label="Keen-eye Scavenger" category="71" did="1879419621" parentZoneId="1879410823" longitude="-72.48261" latitude="49.849415"/>
<marker id="635211924" label="Mur Shatraug Overseer" category="71" did="1879419609" parentZoneId="1879410823" longitude="-72.508995" latitude="49.668827"/>
<marker id="635211925" label="Car Branoch Rock-thrower" category="71" did="1879419611" parentZoneId="1879410823" longitude="-72.508995" latitude="49.668827"/>
<marker id="635211926" label="Tur Fuar Consul" category="71" did="1879419613" parentZoneId="1879410823" longitude="-72.508995" latitude="49.668827"/>
<marker id="635211927" label="Tur Fuar Gloom-caller" category="71" did="1879419615" parentZoneId="1879410823" longitude="-72.508995" latitude="49.668827"/>
<marker id="635211928" label="Mur Shatraug Protector" category="71" did="1879419614" parentZoneId="1879410823" longitude="-72.508995" latitude="49.668827"/>
<marker id="635211929" label="Waning Limrafne" category="71" did="1879419605" parentZoneId="1879410823" longitude="-72.508995" latitude="49.668827"/>
<marker id="635211930" label="Biting Winds" category="71" did="1879419607" parentZoneId="1879410823" longitude="-72.508995" latitude="49.668827"/>
<marker id="635211931" label="Mur Shatraug Rune-keeper" category="71" did="1879419626" parentZoneId="1879410823" longitude="-72.508995" latitude="49.668827"/>
<marker id="635211932" label="Tur Fuar Keeper" category="71" did="1879419627" parentZoneId="1879410823" longitude="-72.508995" latitude="49.668827"/>
<marker id="635211933" label="Tur Fuar Sentryl" category="71" did="1879419624" parentZoneId="1879410823" longitude="-72.508995" latitude="49.668827"/>
<marker id="635211934" label="Scree-crawler" category="71" did="1879419625" parentZoneId="1879410823" longitude="-72.508995" latitude="49.668827"/>
<marker id="635211935" label="Car Branoch Brawler" category="71" did="1879419618" parentZoneId="1879410823" longitude="-72.508995" latitude="49.668827"/>
<marker id="635211936" label="Mur Shatraug Prospector" category="71" did="1879419619" parentZoneId="1879410823" longitude="-72.508995" latitude="49.668827"/>
<marker id="635211937" label="Tur Fuar Gloom-caller" category="71" did="1879419616" parentZoneId="1879410823" longitude="-72.508995" latitude="49.668827"/>
<marker id="635211938" label="Car Branoch Smasher" category="71" did="1879419617" parentZoneId="1879410823" longitude="-72.508995" latitude="49.668827"/>
<marker id="635211939" label="Lone Peak-stalker" category="71" did="1879419622" parentZoneId="1879410823" longitude="-72.508995" latitude="49.668827"/>
<marker id="635211940" label="Frost-guarded Ram" category="71" did="1879419620" parentZoneId="1879410823" longitude="-72.508995" latitude="49.668827"/>
<marker id="635211941" label="Keen-eye Scavenger" category="71" did="1879419621" parentZoneId="1879410823" longitude="-72.508995" latitude="49.668827"/>
<marker id="635211942" label="Mur Shatraug Overseer" category="71" did="1879419609" parentZoneId="1879410823" longitude="-72.72734" latitude="49.62961"/>
<marker id="635211943" label="Car Branoch Rock-thrower" category="71" did="1879419611" parentZoneId="1879410823" longitude="-72.72734" latitude="49.62961"/>
<marker id="635211944" label="Tur Fuar Consul" category="71" did="1879419613" parentZoneId="1879410823" longitude="-72.72734" latitude="49.62961"/>
<marker id="635211945" label="Tur Fuar Gloom-caller" category="71" did="1879419615" parentZoneId="1879410823" longitude="-72.72734" latitude="49.62961"/>
<marker id="635211946" label="Mur Shatraug Protector" category="71" did="1879419614" parentZoneId="1879410823" longitude="-72.72734" latitude="49.62961"/>
<marker id="635211947" label="Waning Limrafne" category="71" did="1879419605" parentZoneId="1879410823" longitude="-72.72734" latitude="49.62961"/>
<marker id="635211948" label="Biting Winds" category="71" did="1879419607" parentZoneId="1879410823" longitude="-72.72734" latitude="49.62961"/>
<marker id="635211949" label="Mur Shatraug Rune-keeper" category="71" did="1879419626" parentZoneId="1879410823" longitude="-72.72734" latitude="49.62961"/>
<marker id="635211950" label="Tur Fuar Keeper" category="71" did="1879419627" parentZoneId="1879410823" longitude="-72.72734" latitude="49.62961"/>
<marker id="635211951" label="Tur Fuar Sentryl" category="71" did="1879419624" parentZoneId="1879410823" longitude="-72.72734" latitude="49.62961"/>
<marker id="635211952" label="Scree-crawler" category="71" did="1879419625" parentZoneId="1879410823" longitude="-72.72734" latitude="49.62961"/>
<marker id="635211953" label="Car Branoch Brawler" category="71" did="1879419618" parentZoneId="1879410823" longitude="-72.72734" latitude="49.62961"/>
<marker id="635211954" label="Mur Shatraug Prospector" category="71" did="1879419619" parentZoneId="1879410823" longitude="-72.72734" latitude="49.62961"/>
<marker id="635211955" label="Tur Fuar Gloom-caller" category="71" did="1879419616" parentZoneId="1879410823" longitude="-72.72734" latitude="49.62961"/>
<marker id="635211956" label="Car Branoch Smasher" category="71" did="1879419617" parentZoneId="1879410823" longitude="-72.72734" latitude="49.62961"/>
<marker id="635211957" label="Lone Peak-stalker" category="71" did="1879419622" parentZoneId="1879410823" longitude="-72.72734" latitude="49.62961"/>
<marker id="635211958" label="Frost-guarded Ram" category="71" did="1879419620" parentZoneId="1879410823" longitude="-72.72734" latitude="49.62961"/>
<marker id="635211959" label="Keen-eye Scavenger" category="71" did="1879419621" parentZoneId="1879410823" longitude="-72.72734" latitude="49.62961"/>
<marker id="635211960" label="Mountain Goat" category="78" did="1879419337" parentZoneId="1879410823" longitude="-72.51344" latitude="49.70252"/>
<marker id="635211961" label="Lizard" category="78" did="1879419332" parentZoneId="1879410823" longitude="-72.51344" latitude="49.70252"/>
<marker id="635211962" label="Grey Hawk" category="78" did="1879419333" parentZoneId="1879410823" longitude="-72.51344" latitude="49.70252"/>
<marker id="635211963" label="Mountain Goat" category="78" did="1879419337" parentZoneId="1879410823" longitude="-72.70861" latitude="49.87832"/>
<marker id="635211964" label="Lizard" category="78" did="1879419332" parentZoneId="1879410823" longitude="-72.70861" latitude="49.87832"/>
<marker id="635211965" label="Grey Hawk" category="78" did="1879419333" parentZoneId="1879410823" longitude="-72.70861" latitude="49.87832"/>
<marker id="635211966" label="Mountain Goat" category="78" did="1879419337" parentZoneId="1879410823" longitude="-72.88379" latitude="49.90592"/>
<marker id="635211967" label="Lizard" category="78" did="1879419332" parentZoneId="1879410823" longitude="-72.88379" latitude="49.90592"/>
<marker id="635211968" label="Grey Hawk" category="78" did="1879419333" parentZoneId="1879410823" longitude="-72.88379" latitude="49.90592"/>
<marker id="635211969" label="Mountain Goat" category="78" did="1879419337" parentZoneId="1879410823" longitude="-72.81372" latitude="49.645977"/>
<marker id="635211970" label="Lizard" category="78" did="1879419332" parentZoneId="1879410823" longitude="-72.81372" latitude="49.645977"/>
<marker id="635211971" label="Grey Hawk" category="78" did="1879419333" parentZoneId="1879410823" longitude="-72.81372" latitude="49.645977"/>
<marker id="635211972" label="Mountain Goat" category="78" did="1879419337" parentZoneId="1879410823" longitude="-72.92058" latitude="49.607166"/>
<marker id="635211973" label="Lizard" category="78" did="1879419332" parentZoneId="1879410823" longitude="-72.92058" latitude="49.607166"/>
<marker id="635211974" label="Grey Hawk" category="78" did="1879419333" parentZoneId="1879410823" longitude="-72.92058" latitude="49.607166"/>
<marker id="635211975" label="Mountain Goat" category="78" did="1879419337" parentZoneId="1879410823" longitude="-73.11297" latitude="49.5941"/>
<marker id="635211976" label="Lizard" category="78" did="1879419332" parentZoneId="1879410823" longitude="-73.11297" latitude="49.5941"/>
<marker id="635211977" label="Grey Hawk" category="78" did="1879419333" parentZoneId="1879410823" longitude="-73.11297" latitude="49.5941"/>
<marker id="635211978" label="Mountain Goat" category="78" did="1879419337" parentZoneId="1879410823" longitude="-73.14154" latitude="49.799862"/>
<marker id="635211979" label="Lizard" category="78" did="1879419332" parentZoneId="1879410823" longitude="-73.14154" latitude="49.799862"/>
<marker id="635211980" label="Grey Hawk" category="78" did="1879419333" parentZoneId="1879410823" longitude="-73.14154" latitude="49.799862"/>
<marker id="635211981" label="Mountain Goat" category="78" did="1879419337" parentZoneId="1879410823" longitude="-73.06726" latitude="49.881287"/>
<marker id="635211982" label="Lizard" category="78" did="1879419332" parentZoneId="1879410823" longitude="-73.06726" latitude="49.881287"/>
<marker id="635211983" label="Grey Hawk" category="78" did="1879419333" parentZoneId="1879410823" longitude="-73.06726" latitude="49.881287"/>
<marker id="635211984" label="Heavy Langflood Branches" category="50" did="1879406850" parentZoneId="1879410823" longitude="-73.164154" latitude="49.966385"/>
<marker id="635211985" label="Langflood Branches" category="50" did="1879406846" parentZoneId="1879410823" longitude="-73.164154" latitude="49.966385"/>
<marker id="635211986" label="Langflood Skarn Deposit" category="50" did="1879406848" parentZoneId="1879410823" longitude="-73.164154" latitude="49.966385"/>
<marker id="635211987" label="Rich Langflood Skarn Deposit" category="50" did="1879406845" parentZoneId="1879410823" longitude="-73.164154" latitude="49.966385"/>
<marker id="635211988" label="Heavy Langflood Branches" category="50" did="1879406850" parentZoneId="1879410823" longitude="-73.18277" latitude="49.928593"/>
<marker id="635211989" label="Langflood Branches" category="50" did="1879406846" parentZoneId="1879410823" longitude="-73.18277" latitude="49.928593"/>
<marker id="635211990" label="Langflood Skarn Deposit" category="50" did="1879406848" parentZoneId="1879410823" longitude="-73.18277" latitude="49.928593"/>
<marker id="635211991" label="Rich Langflood Skarn Deposit" category="50" did="1879406845" parentZoneId="1879410823" longitude="-73.18277" latitude="49.928593"/>
<marker id="635211992" label="Heavy Langflood Branches" category="50" did="1879406850" parentZoneId="1879410823" longitude="-73.15696" latitude="49.51488"/>
<marker id="635211993" label="Langflood Branches" category="50" did="1879406846" parentZoneId="1879410823" longitude="-73.15696" latitude="49.51488"/>
<marker id="635211994" label="Langflood Skarn Deposit" category="50" did="1879406848" parentZoneId="1879410823" longitude="-73.15696" latitude="49.51488"/>
<marker id="635211995" label="Rich Langflood Skarn Deposit" category="50" did="1879406845" parentZoneId="1879410823" longitude="-73.15696" latitude="49.51488"/>
<marker id="635211996" label="Heavy Langflood Branches" category="50" did="1879406850" parentZoneId="1879410823" longitude="-73.021545" latitude="49.53865"/>
<marker id="635211997" label="Langflood Branches" category="50" did="1879406846" parentZoneId="1879410823" longitude="-73.021545" latitude="49.53865"/>
<marker id="635211998" label="Langflood Skarn Deposit" category="50" did="1879406848" parentZoneId="1879410823" longitude="-73.021545" latitude="49.53865"/>
<marker id="635211999" label="Rich Langflood Skarn Deposit" category="50" did="1879406845" parentZoneId="1879410823" longitude="-73.021545" latitude="49.53865"/>
<marker id="635212000" label="Heavy Langflood Branches" category="50" did="1879406850" parentZoneId="1879410823" longitude="-72.82049" latitude="49.56078"/>
<marker id="635212001" label="Langflood Branches" category="50" did="1879406846" parentZoneId="1879410823" longitude="-72.82049" latitude="49.56078"/>
<marker id="635212002" label="Langflood Skarn Deposit" category="50" did="1879406848" parentZoneId="1879410823" longitude="-72.82049" latitude="49.56078"/>
<marker id="635212003" label="Rich Langflood Skarn Deposit" category="50" did="1879406845" parentZoneId="1879410823" longitude="-72.82049" latitude="49.56078"/>
<marker id="635212004" label="Heavy Langflood Branches" category="50" did="1879406850" parentZoneId="1879410823" longitude="-72.69963" latitude="49.589493"/>
<marker id="635212005" label="Langflood Branches" category="50" did="1879406846" parentZoneId="1879410823" longitude="-72.69963" latitude="49.589493"/>
<marker id="635212006" label="Langflood Skarn Deposit" category="50" did="1879406848" parentZoneId="1879410823" longitude="-72.69963" latitude="49.589493"/>
<marker id="635212007" label="Rich Langflood Skarn Deposit" category="50" did="1879406845" parentZoneId="1879410823" longitude="-72.69963" latitude="49.589493"/>
<marker id="635212008" label="Heavy Langflood Branches" category="50" did="1879406850" parentZoneId="1879410823" longitude="-72.567024" latitude="49.62201"/>
<marker id="635212009" label="Langflood Branches" category="50" did="1879406846" parentZoneId="1879410823" longitude="-72.567024" latitude="49.62201"/>
<marker id="635212010" label="Langflood Skarn Deposit" category="50" did="1879406848" parentZoneId="1879410823" longitude="-72.567024" latitude="49.62201"/>
<marker id="635212011" label="Rich Langflood Skarn Deposit" category="50" did="1879406845" parentZoneId="1879410823" longitude="-72.567024" latitude="49.62201"/>
<marker id="635212012" label="Heavy Langflood Branches" category="50" did="1879406850" parentZoneId="1879410823" longitude="-72.47044" latitude="49.613613"/>
<marker id="635212013" label="Langflood Branches" category="50" did="1879406846" parentZoneId="1879410823" longitude="-72.47044" latitude="49.613613"/>
<marker id="635212014" label="Langflood Skarn Deposit" category="50" did="1879406848" parentZoneId="1879410823" longitude="-72.47044" latitude="49.613613"/>
<marker id="635212015" label="Rich Langflood Skarn Deposit" category="50" did="1879406845" parentZoneId="1879410823" longitude="-72.47044" latitude="49.613613"/>
<marker id="635212016" label="Heavy Langflood Branches" category="50" did="1879406850" parentZoneId="1879410823" longitude="-72.57086" latitude="49.95988"/>
<marker id="635212017" label="Langflood Branches" category="50" did="1879406846" parentZoneId="1879410823" longitude="-72.57086" latitude="49.95988"/>
<marker id="635212018" label="Langflood Skarn Deposit" category="50" did="1879406848" parentZoneId="1879410823" longitude="-72.57086" latitude="49.95988"/>
<marker id="635212019" label="Rich Langflood Skarn Deposit" category="50" did="1879406845" parentZoneId="1879410823" longitude="-72.57086" latitude="49.95988"/>
<marker id="635212020" label="Heavy Langflood Branches" category="50" did="1879406850" parentZoneId="1879410823" longitude="-72.55412" latitude="49.818142"/>
<marker id="635212021" label="Langflood Branches" category="50" did="1879406846" parentZoneId="1879410823" longitude="-72.55412" latitude="49.818142"/>
<marker id="635212022" label="Langflood Skarn Deposit" category="50" did="1879406848" parentZoneId="1879410823" longitude="-72.55412" latitude="49.818142"/>
<marker id="635212023" label="Rich Langflood Skarn Deposit" category="50" did="1879406845" parentZoneId="1879410823" longitude="-72.55412" latitude="49.818142"/>
<marker id="635212024" label="Heavy Langflood Branches" category="50" did="1879406850" parentZoneId="1879410823" longitude="-72.84474" latitude="49.992325"/>
<marker id="635212025" label="Langflood Branches" category="50" did="1879406846" parentZoneId="1879410823" longitude="-72.84474" latitude="49.992325"/>
<marker id="635212026" label="Langflood Skarn Deposit" category="50" did="1879406848" parentZoneId="1879410823" longitude="-72.84474" latitude="49.992325"/>
<marker id="635212027" label="Rich Langflood Skarn Deposit" category="50" did="1879406845" parentZoneId="1879410823" longitude="-72.84474" latitude="49.992325"/>
<marker id="635212028" label="Heavy Langflood Branches" category="50" did="1879406850" parentZoneId="1879410823" longitude="-72.46711" latitude="49.922947"/>
<marker id="635212029" label="Langflood Branches" category="50" did="1879406846" parentZoneId="1879410823" longitude="-72.46711" latitude="49.922947"/>
<marker id="635212030" label="Langflood Skarn Deposit" category="50" did="1879406848" parentZoneId="1879410823" longitude="-72.46711" latitude="49.922947"/>
<marker id="635212031" label="Rich Langflood Skarn Deposit" category="50" did="1879406845" parentZoneId="1879410823" longitude="-72.46711" latitude="49.922947"/>
<marker id="635212032" label="Heavy Langflood Branches" category="50" did="1879406850" parentZoneId="1879410823" longitude="-72.75558" latitude="49.638496"/>
<marker id="635212033" label="Langflood Branches" category="50" did="1879406846" parentZoneId="1879410823" longitude="-72.75558" latitude="49.638496"/>
<marker id="635212034" label="Langflood Skarn Deposit" category="50" did="1879406848" parentZoneId="1879410823" longitude="-72.75558" latitude="49.638496"/>
<marker id="635212035" label="Rich Langflood Skarn Deposit" category="50" did="1879406845" parentZoneId="1879410823" longitude="-72.75558" latitude="49.638496"/>
<marker id="635212036" label="Heavy Langflood Branches" category="50" did="1879406850" parentZoneId="1879410823" longitude="-72.84191" latitude="49.56195"/>
<marker id="635212037" label="Langflood Branches" category="50" did="1879406846" parentZoneId="1879410823" longitude="-72.84191" latitude="49.56195"/>
<marker id="635212038" label="Langflood Skarn Deposit" category="50" did="1879406848" parentZoneId="1879410823" longitude="-72.84191" latitude="49.56195"/>
<marker id="635212039" label="Rich Langflood Skarn Deposit" category="50" did="1879406845" parentZoneId="1879410823" longitude="-72.84191" latitude="49.56195"/>
<marker id="635212040" label="Heavy Langflood Branches" category="50" did="1879406850" parentZoneId="1879410823" longitude="-72.43169" latitude="49.585545"/>
<marker id="635212041" label="Langflood Branches" category="50" did="1879406846" parentZoneId="1879410823" longitude="-72.43169" latitude="49.585545"/>
<marker id="635212042" label="Langflood Skarn Deposit" category="50" did="1879406848" parentZoneId="1879410823" longitude="-72.43169" latitude="49.585545"/>
<marker id="635212043" label="Rich Langflood Skarn Deposit" category="50" did="1879406845" parentZoneId="1879410823" longitude="-72.43169" latitude="49.585545"/>
<marker id="635212044" label="Heavy Langflood Branches" category="50" did="1879406850" parentZoneId="1879410823" longitude="-73.059204" latitude="49.82904"/>
<marker id="635212045" label="Langflood Branches" category="50" did="1879406846" parentZoneId="1879410823" longitude="-73.059204" latitude="49.82904"/>
<marker id="635212046" label="Langflood Skarn Deposit" category="50" did="1879406848" parentZoneId="1879410823" longitude="-73.059204" latitude="49.82904"/>
<marker id="635212047" label="Rich Langflood Skarn Deposit" category="50" did="1879406845" parentZoneId="1879410823" longitude="-73.059204" latitude="49.82904"/>
<marker id="635212048" label="Heavy Langflood Branches" category="50" did="1879406850" parentZoneId="1879410823" longitude="-73.14434" latitude="49.870605"/>
<marker id="635212049" label="Langflood Branches" category="50" did="1879406846" parentZoneId="1879410823" longitude="-73.14434" latitude="49.870605"/>
<marker id="635212050" label="Langflood Skarn Deposit" category="50" did="1879406848" parentZoneId="1879410823" longitude="-73.14434" latitude="49.870605"/>
<marker id="635212051" label="Rich Langflood Skarn Deposit" category="50" did="1879406845" parentZoneId="1879410823" longitude="-73.14434" latitude="49.870605"/>
<marker id="635212052" label="Heavy Langflood Branches" category="50" did="1879406850" parentZoneId="1879410823" longitude="-73.16428" latitude="49.97414"/>
<marker id="635212053" label="Langflood Branches" category="50" did="1879406846" parentZoneId="1879410823" longitude="-73.16428" latitude="49.97414"/>
<marker id="635212054" label="Langflood Skarn Deposit" category="50" did="1879406848" parentZoneId="1879410823" longitude="-73.16428" latitude="49.97414"/>
<marker id="635212055" label="Rich Langflood Skarn Deposit" category="50" did="1879406845" parentZoneId="1879410823" longitude="-73.16428" latitude="49.97414"/>
<marker id="635212056" label="Heavy Langflood Branches" category="50" did="1879406850" parentZoneId="1879410823" longitude="-73.14319" latitude="49.569744"/>
<marker id="635212057" label="Langflood Branches" category="50" did="1879406846" parentZoneId="1879410823" longitude="-73.14319" latitude="49.569744"/>
<marker id="635212058" label="Langflood Skarn Deposit" category="50" did="1879406848" parentZoneId="1879410823" longitude="-73.14319" latitude="49.569744"/>
<marker id="635212059" label="Rich Langflood Skarn Deposit" category="50" did="1879406845" parentZoneId="1879410823" longitude="-73.14319" latitude="49.569744"/>
<marker id="635215872" label="Mur Shatraug Overseer" category="71" did="1879419609" parentZoneId="1879410823" longitude="-72.79874" latitude="50.375546"/>
<marker id="635215873" label="Mur Shatraug Protector" category="71" did="1879419614" parentZoneId="1879410823" longitude="-72.79874" latitude="50.375546"/>
<marker id="635215874" label="Biting Winds" category="71" did="1879419607" parentZoneId="1879410823" longitude="-72.79874" latitude="50.375546"/>
<marker id="635215875" label="Mur Shatraug Rune-keeper" category="71" did="1879419626" parentZoneId="1879410823" longitude="-72.79874" latitude="50.375546"/>
<marker id="635215876" label="Tur Fuar Keeper" category="71" did="1879419627" parentZoneId="1879410823" longitude="-72.79874" latitude="50.375546"/>
<marker id="635215877" label="Tur Fuar Sentryl" category="71" did="1879419624" parentZoneId="1879410823" longitude="-72.79874" latitude="50.375546"/>
<marker id="635215878" label="Scree-crawler" category="71" did="1879419625" parentZoneId="1879410823" longitude="-72.79874" latitude="50.375546"/>
<marker id="635215879" label="Mur Shatraug Prospector" category="71" did="1879419619" parentZoneId="1879410823" longitude="-72.79874" latitude="50.375546"/>
<marker id="635215880" label="Lone Peak-stalker" category="71" did="1879419622" parentZoneId="1879410823" longitude="-72.79874" latitude="50.375546"/>
<marker id="635215881" label="Keen-eye Scavenger" category="71" did="1879419621" parentZoneId="1879410823" longitude="-72.79874" latitude="50.375546"/>
<marker id="635215882" label="Mur Shatraug Overseer" category="71" did="1879419609" parentZoneId="1879410823" longitude="-73.07319" latitude="50.50738"/>
<marker id="635215883" label="Car Branoch Rock-thrower" category="71" did="1879419611" parentZoneId="1879410823" longitude="-73.07319" latitude="50.50738"/>
<marker id="635215884" label="Tur Fuar Consul" category="71" did="1879419613" parentZoneId="1879410823" longitude="-73.07319" latitude="50.50738"/>
<marker id="635215885" label="Tur Fuar Gloom-caller" category="71" did="1879419615" parentZoneId="1879410823" longitude="-73.07319" latitude="50.50738"/>
<marker id="635215886" label="Mur Shatraug Protector" category="71" did="1879419614" parentZoneId="1879410823" longitude="-73.07319" latitude="50.50738"/>
<marker id="635215887" label="Waning Limrafne" category="71" did="1879419605" parentZoneId="1879410823" longitude="-73.07319" latitude="50.50738"/>
<marker id="635215888" label="Biting Winds" category="71" did="1879419607" parentZoneId="1879410823" longitude="-73.07319" latitude="50.50738"/>
<marker id="635215889" label="Mur Shatraug Rune-keeper" category="71" did="1879419626" parentZoneId="1879410823" longitude="-73.07319" latitude="50.50738"/>
<marker id="635215890" label="Tur Fuar Keeper" category="71" did="1879419627" parentZoneId="1879410823" longitude="-73.07319" latitude="50.50738"/>
<marker id="635215891" label="Tur Fuar Sentryl" category="71" did="1879419624" parentZoneId="1879410823" longitude="-73.07319" latitude="50.50738"/>
<marker id="635215892" label="Scree-crawler" category="71" did="1879419625" parentZoneId="1879410823" longitude="-73.07319" latitude="50.50738"/>
<marker id="635215893" label="Car Branoch Brawler" category="71" did="1879419618" parentZoneId="1879410823" longitude="-73.07319" latitude="50.50738"/>
<marker id="635215894" label="Mur Shatraug Prospector" category="71" did="1879419619" parentZoneId="1879410823" longitude="-73.07319" latitude="50.50738"/>
<marker id="635215895" label="Tur Fuar Gloom-caller" category="71" did="1879419616" parentZoneId="1879410823" longitude="-73.07319" latitude="50.50738"/>
<marker id="635215896" label="Car Branoch Smasher" category="71" did="1879419617" parentZoneId="1879410823" longitude="-73.07319" latitude="50.50738"/>
<marker id="635215897" label="Lone Peak-stalker" category="71" did="1879419622" parentZoneId="1879410823" longitude="-73.07319" latitude="50.50738"/>
<marker id="635215898" label="Frost-guarded Ram" category="71" did="1879419620" parentZoneId="1879410823" longitude="-73.07319" latitude="50.50738"/>
<marker id="635215899" label="Keen-eye Scavenger" category="71" did="1879419621" parentZoneId="1879410823" longitude="-73.07319" latitude="50.50738"/>
<marker id="635215900" label="Mur Shatraug Overseer" category="71" did="1879419609" parentZoneId="1879410823" longitude="-72.83741" latitude="50.513985"/>
<marker id="635215901" label="Car Branoch Rock-thrower" category="71" did="1879419611" parentZoneId="1879410823" longitude="-72.83741" latitude="50.513985"/>
<marker id="635215902" label="Tur Fuar Consul" category="71" did="1879419613" parentZoneId="1879410823" longitude="-72.83741" latitude="50.513985"/>
<marker id="635215903" label="Tur Fuar Gloom-caller" category="71" did="1879419615" parentZoneId="1879410823" longitude="-72.83741" latitude="50.513985"/>
<marker id="635215904" label="Mur Shatraug Protector" category="71" did="1879419614" parentZoneId="1879410823" longitude="-72.83741" latitude="50.513985"/>
<marker id="635215905" label="Waning Limrafne" category="71" did="1879419605" parentZoneId="1879410823" longitude="-72.83741" latitude="50.513985"/>
<marker id="635215906" label="Biting Winds" category="71" did="1879419607" parentZoneId="1879410823" longitude="-72.83741" latitude="50.513985"/>
<marker id="635215907" label="Mur Shatraug Rune-keeper" category="71" did="1879419626" parentZoneId="1879410823" longitude="-72.83741" latitude="50.513985"/>
<marker id="635215908" label="Tur Fuar Keeper" category="71" did="1879419627" parentZoneId="1879410823" longitude="-72.83741" latitude="50.513985"/>
<marker id="635215909" label="Tur Fuar Sentryl" category="71" did="1879419624" parentZoneId="1879410823" longitude="-72.83741" latitude="50.513985"/>
<marker id="635215910" label="Scree-crawler" category="71" did="1879419625" parentZoneId="1879410823" longitude="-72.83741" latitude="50.513985"/>
<marker id="635215911" label="Car Branoch Brawler" category="71" did="1879419618" parentZoneId="1879410823" longitude="-72.83741" latitude="50.513985"/>
<marker id="635215912" label="Mur Shatraug Prospector" category="71" did="1879419619" parentZoneId="1879410823" longitude="-72.83741" latitude="50.513985"/>
<marker id="635215913" label="Tur Fuar Gloom-caller" category="71" did="1879419616" parentZoneId="1879410823" longitude="-72.83741" latitude="50.513985"/>
<marker id="635215914" label="Car Branoch Smasher" category="71" did="1879419617" parentZoneId="1879410823" longitude="-72.83741" latitude="50.513985"/>
<marker id="635215915" label="Lone Peak-stalker" category="71" did="1879419622" parentZoneId="1879410823" longitude="-72.83741" latitude="50.513985"/>
<marker id="635215916" label="Frost-guarded Ram" category="71" did="1879419620" parentZoneId="1879410823" longitude="-72.83741" latitude="50.513985"/>
<marker id="635215917" label="Keen-eye Scavenger" category="71" did="1879419621" parentZoneId="1879410823" longitude="-72.83741" latitude="50.513985"/>
<marker id="635215918" label="Mur Shatraug Overseer" category="71" did="1879419609" parentZoneId="1879410823" longitude="-72.65069" latitude="50.535213"/>
<marker id="635215919" label="Car Branoch Rock-thrower" category="71" did="1879419611" parentZoneId="1879410823" longitude="-72.65069" latitude="50.535213"/>
<marker id="635215920" label="Tur Fuar Consul" category="71" did="1879419613" parentZoneId="1879410823" longitude="-72.65069" latitude="50.535213"/>
<marker id="635215921" label="Tur Fuar Gloom-caller" category="71" did="1879419615" parentZoneId="1879410823" longitude="-72.65069" latitude="50.535213"/>
<marker id="635215922" label="Mur Shatraug Protector" category="71" did="1879419614" parentZoneId="1879410823" longitude="-72.65069" latitude="50.535213"/>
<marker id="635215923" label="Waning Limrafne" category="71" did="1879419605" parentZoneId="1879410823" longitude="-72.65069" latitude="50.535213"/>
<marker id="635215924" label="Biting Winds" category="71" did="1879419607" parentZoneId="1879410823" longitude="-72.65069" latitude="50.535213"/>
<marker id="635215925" label="Mur Shatraug Rune-keeper" category="71" did="1879419626" parentZoneId="1879410823" longitude="-72.65069" latitude="50.535213"/>
<marker id="635215926" label="Tur Fuar Keeper" category="71" did="1879419627" parentZoneId="1879410823" longitude="-72.65069" latitude="50.535213"/>
<marker id="635215927" label="Tur Fuar Sentryl" category="71" did="1879419624" parentZoneId="1879410823" longitude="-72.65069" latitude="50.535213"/>
<marker id="635215928" label="Scree-crawler" category="71" did="1879419625" parentZoneId="1879410823" longitude="-72.65069" latitude="50.535213"/>
<marker id="635215929" label="Car Branoch Brawler" category="71" did="1879419618" parentZoneId="1879410823" longitude="-72.65069" latitude="50.535213"/>
<marker id="635215930" label="Mur Shatraug Prospector" category="71" did="1879419619" parentZoneId="1879410823" longitude="-72.65069" latitude="50.535213"/>
<marker id="635215931" label="Tur Fuar Gloom-caller" category="71" did="1879419616" parentZoneId="1879410823" longitude="-72.65069" latitude="50.535213"/>
<marker id="635215932" label="Car Branoch Smasher" category="71" did="1879419617" parentZoneId="1879410823" longitude="-72.65069" latitude="50.535213"/>
<marker id="635215933" label="Lone Peak-stalker" category="71" did="1879419622" parentZoneId="1879410823" longitude="-72.65069" latitude="50.535213"/>
<marker id="635215934" label="Frost-guarded Ram" category="71" did="1879419620" parentZoneId="1879410823" longitude="-72.65069" latitude="50.535213"/>
<marker id="635215935" label="Keen-eye Scavenger" category="71" did="1879419621" parentZoneId="1879410823" longitude="-72.65069" latitude="50.535213"/>
<marker id="635215936" label="Mur Shatraug Overseer" category="71" did="1879419609" parentZoneId="1879410823" longitude="-72.532585" latitude="50.29508"/>
<marker id="635215937" label="Car Branoch Rock-thrower" category="71" did="1879419611" parentZoneId="1879410823" longitude="-72.532585" latitude="50.29508"/>
<marker id="635215938" label="Tur Fuar Consul" category="71" did="1879419613" parentZoneId="1879410823" longitude="-72.532585" latitude="50.29508"/>
<marker id="635215939" label="Tur Fuar Gloom-caller" category="71" did="1879419615" parentZoneId="1879410823" longitude="-72.532585" latitude="50.29508"/>
<marker id="635215940" label="Mur Shatraug Protector" category="71" did="1879419614" parentZoneId="1879410823" longitude="-72.532585" latitude="50.29508"/>
<marker id="635215941" label="Waning Limrafne" category="71" did="1879419605" parentZoneId="1879410823" longitude="-72.532585" latitude="50.29508"/>
<marker id="635215942" label="Biting Winds" category="71" did="1879419607" parentZoneId="1879410823" longitude="-72.532585" latitude="50.29508"/>
<marker id="635215943" label="Mur Shatraug Rune-keeper" category="71" did="1879419626" parentZoneId="1879410823" longitude="-72.532585" latitude="50.29508"/>
<marker id="635215944" label="Tur Fuar Keeper" category="71" did="1879419627" parentZoneId="1879410823" longitude="-72.532585" latitude="50.29508"/>
<marker id="635215945" label="Tur Fuar Sentryl" category="71" did="1879419624" parentZoneId="1879410823" longitude="-72.532585" latitude="50.29508"/>
<marker id="635215946" label="Scree-crawler" category="71" did="1879419625" parentZoneId="1879410823" longitude="-72.532585" latitude="50.29508"/>
<marker id="635215947" label="Car Branoch Brawler" category="71" did="1879419618" parentZoneId="1879410823" longitude="-72.532585" latitude="50.29508"/>
<marker id="635215948" label="Mur Shatraug Prospector" category="71" did="1879419619" parentZoneId="1879410823" longitude="-72.532585" latitude="50.29508"/>
<marker id="635215949" label="Tur Fuar Gloom-caller" category="71" did="1879419616" parentZoneId="1879410823" longitude="-72.532585" latitude="50.29508"/>
<marker id="635215950" label="Car Branoch Smasher" category="71" did="1879419617" parentZoneId="1879410823" longitude="-72.532585" latitude="50.29508"/>
<marker id="635215951" label="Lone Peak-stalker" category="71" did="1879419622" parentZoneId="1879410823" longitude="-72.532585" latitude="50.29508"/>
<marker id="635215952" label="Frost-guarded Ram" category="71" did="1879419620" parentZoneId="1879410823" longitude="-72.532585" latitude="50.29508"/>
<marker id="635215953" label="Keen-eye Scavenger" category="71" did="1879419621" parentZoneId="1879410823" longitude="-72.532585" latitude="50.29508"/>
<marker id="635215954" label="Mur Shatraug Overseer" category="71" did="1879419609" parentZoneId="1879410823" longitude="-72.56593" latitude="50.078182"/>
<marker id="635215955" label="Car Branoch Rock-thrower" category="71" did="1879419611" parentZoneId="1879410823" longitude="-72.56593" latitude="50.078182"/>
<marker id="635215956" label="Tur Fuar Consul" category="71" did="1879419613" parentZoneId="1879410823" longitude="-72.56593" latitude="50.078182"/>
<marker id="635215957" label="Tur Fuar Gloom-caller" category="71" did="1879419615" parentZoneId="1879410823" longitude="-72.56593" latitude="50.078182"/>
<marker id="635215958" label="Mur Shatraug Protector" category="71" did="1879419614" parentZoneId="1879410823" longitude="-72.56593" latitude="50.078182"/>
<marker id="635215959" label="Waning Limrafne" category="71" did="1879419605" parentZoneId="1879410823" longitude="-72.56593" latitude="50.078182"/>
<marker id="635215960" label="Biting Winds" category="71" did="1879419607" parentZoneId="1879410823" longitude="-72.56593" latitude="50.078182"/>
<marker id="635215961" label="Mur Shatraug Rune-keeper" category="71" did="1879419626" parentZoneId="1879410823" longitude="-72.56593" latitude="50.078182"/>
<marker id="635215962" label="Tur Fuar Keeper" category="71" did="1879419627" parentZoneId="1879410823" longitude="-72.56593" latitude="50.078182"/>
<marker id="635215963" label="Tur Fuar Sentryl" category="71" did="1879419624" parentZoneId="1879410823" longitude="-72.56593" latitude="50.078182"/>
<marker id="635215964" label="Scree-crawler" category="71" did="1879419625" parentZoneId="1879410823" longitude="-72.56593" latitude="50.078182"/>
<marker id="635215965" label="Car Branoch Brawler" category="71" did="1879419618" parentZoneId="1879410823" longitude="-72.56593" latitude="50.078182"/>
<marker id="635215966" label="Mur Shatraug Prospector" category="71" did="1879419619" parentZoneId="1879410823" longitude="-72.56593" latitude="50.078182"/>
<marker id="635215967" label="Tur Fuar Gloom-caller" category="71" did="1879419616" parentZoneId="1879410823" longitude="-72.56593" latitude="50.078182"/>
<marker id="635215968" label="Car Branoch Smasher" category="71" did="1879419617" parentZoneId="1879410823" longitude="-72.56593" latitude="50.078182"/>
<marker id="635215969" label="Lone Peak-stalker" category="71" did="1879419622" parentZoneId="1879410823" longitude="-72.56593" latitude="50.078182"/>
<marker id="635215970" label="Frost-guarded Ram" category="71" did="1879419620" parentZoneId="1879410823" longitude="-72.56593" latitude="50.078182"/>
<marker id="635215971" label="Keen-eye Scavenger" category="71" did="1879419621" parentZoneId="1879410823" longitude="-72.56593" latitude="50.078182"/>
<marker id="635215972" label="Mur Shatraug Overseer" category="71" did="1879419609" parentZoneId="1879410823" longitude="-72.76852" latitude="50.228416"/>
<marker id="635215973" label="Car Branoch Rock-thrower" category="71" did="1879419611" parentZoneId="1879410823" longitude="-72.76852" latitude="50.228416"/>
<marker id="635215974" label="Tur Fuar Consul" category="71" did="1879419613" parentZoneId="1879410823" longitude="-72.76852" latitude="50.228416"/>
<marker id="635215975" label="Tur Fuar Gloom-caller" category="71" did="1879419615" parentZoneId="1879410823" longitude="-72.76852" latitude="50.228416"/>
<marker id="635215976" label="Mur Shatraug Protector" category="71" did="1879419614" parentZoneId="1879410823" longitude="-72.76852" latitude="50.228416"/>
<marker id="635215977" label="Waning Limrafne" category="71" did="1879419605" parentZoneId="1879410823" longitude="-72.76852" latitude="50.228416"/>
<marker id="635215978" label="Biting Winds" category="71" did="1879419607" parentZoneId="1879410823" longitude="-72.76852" latitude="50.228416"/>
<marker id="635215979" label="Mur Shatraug Rune-keeper" category="71" did="1879419626" parentZoneId="1879410823" longitude="-72.76852" latitude="50.228416"/>
<marker id="635215980" label="Tur Fuar Keeper" category="71" did="1879419627" parentZoneId="1879410823" longitude="-72.76852" latitude="50.228416"/>
<marker id="635215981" label="Tur Fuar Sentryl" category="71" did="1879419624" parentZoneId="1879410823" longitude="-72.76852" latitude="50.228416"/>
<marker id="635215982" label="Scree-crawler" category="71" did="1879419625" parentZoneId="1879410823" longitude="-72.76852" latitude="50.228416"/>
<marker id="635215983" label="Car Branoch Brawler" category="71" did="1879419618" parentZoneId="1879410823" longitude="-72.76852" latitude="50.228416"/>
<marker id="635215984" label="Mur Shatraug Prospector" category="71" did="1879419619" parentZoneId="1879410823" longitude="-72.76852" latitude="50.228416"/>
<marker id="635215985" label="Tur Fuar Gloom-caller" category="71" did="1879419616" parentZoneId="1879410823" longitude="-72.76852" latitude="50.228416"/>
<marker id="635215986" label="Car Branoch Smasher" category="71" did="1879419617" parentZoneId="1879410823" longitude="-72.76852" latitude="50.228416"/>
<marker id="635215987" label="Lone Peak-stalker" category="71" did="1879419622" parentZoneId="1879410823" longitude="-72.76852" latitude="50.228416"/>
<marker id="635215988" label="Frost-guarded Ram" category="71" did="1879419620" parentZoneId="1879410823" longitude="-72.76852" latitude="50.228416"/>
<marker id="635215989" label="Keen-eye Scavenger" category="71" did="1879419621" parentZoneId="1879410823" longitude="-72.76852" latitude="50.228416"/>
<marker id="635215990" label="Mur Shatraug Overseer" category="71" did="1879419609" parentZoneId="1879410823" longitude="-72.89936" latitude="50.287537"/>
<marker id="635215991" label="Car Branoch Rock-thrower" category="71" did="1879419611" parentZoneId="1879410823" longitude="-72.89936" latitude="50.287537"/>
<marker id="635215992" label="Tur Fuar Consul" category="71" did="1879419613" parentZoneId="1879410823" longitude="-72.89936" latitude="50.287537"/>
<marker id="635215993" label="Tur Fuar Gloom-caller" category="71" did="1879419615" parentZoneId="1879410823" longitude="-72.89936" latitude="50.287537"/>
<marker id="635215994" label="Mur Shatraug Protector" category="71" did="1879419614" parentZoneId="1879410823" longitude="-72.89936" latitude="50.287537"/>
<marker id="635215995" label="Waning Limrafne" category="71" did="1879419605" parentZoneId="1879410823" longitude="-72.89936" latitude="50.287537"/>
