<?xml version="1.0" encoding="UTF-8"?><markers>
<marker id="660602880" label="White-hand Invader" category="71" did="1879241134" parentZoneId="1879231078" longitude="-56.821552" latitude="-47.183548"/>
<marker id="660602881" label="White-hand Raider" category="71" did="1879241132" parentZoneId="1879231078" longitude="-56.821552" latitude="-47.183548"/>
<marker id="660602882" label="White-hand Scout" category="71" did="1879241138" parentZoneId="1879231078" longitude="-56.821552" latitude="-47.183548"/>
<marker id="660602883" label="Norcrofts Prowler" category="71" did="1879241347" parentZoneId="1879231078" longitude="-56.821552" latitude="-47.183548"/>
<marker id="660602884" label="Norcrofts Field-bear" category="71" did="1879241438" parentZoneId="1879231078" longitude="-56.821552" latitude="-47.183548"/>
<marker id="660602885" label="Uruk-hai Marauder" category="71" did="1879241793" parentZoneId="1879231078" longitude="-56.821552" latitude="-47.183548"/>
<marker id="660602886" label="White-hand Corruptor" category="71" did="1879251062" parentZoneId="1879231078" longitude="-56.821552" latitude="-47.183548"/>
<marker id="660602887" label="White-hand Flanker" category="71" did="1879251061" parentZoneId="1879231078" longitude="-56.821552" latitude="-47.183548"/>
<marker id="660602912" label="Bunch of Blackberries" category="77" did="1879061418" parentZoneId="1879231078" longitude="-56.830154" latitude="-47.280956"/>
<marker id="660602913" label="Heavy Oak Branches" category="50" did="1879239127" parentZoneId="1879231078" longitude="-56.77915" latitude="-47.30397"/>
<marker id="660602914" label="Riddermark Skarn Deposit" category="50" did="1879239161" parentZoneId="1879231078" longitude="-56.77915" latitude="-47.30397"/>
<marker id="660602915" label="Oak Branches" category="50" did="1879239165" parentZoneId="1879231078" longitude="-56.77915" latitude="-47.30397"/>
<marker id="660602916" label="Rich Riddermark Skarn Deposit" category="50" did="1879239175" parentZoneId="1879231078" longitude="-56.77915" latitude="-47.30397"/>
<marker id="660602917" label="Indigo Plant" category="77" did="1879054949" parentZoneId="1879231078" longitude="-56.830154" latitude="-47.280956"/>
<marker id="660602918" label="Rabbit" category="78" did="1879079062" parentZoneId="1879231078" longitude="-56.830154" latitude="-47.280956"/>
<marker id="660602919" label="Tater" category="77" did="1879061257" parentZoneId="1879231078" longitude="-56.830154" latitude="-47.280956"/>
<marker id="660602920" label="Fox" category="78" did="1879078196" parentZoneId="1879231078" longitude="-56.830154" latitude="-47.280956"/>
<marker id="660602921" label="Bunch of Blueberries" category="77" did="1879061342" parentZoneId="1879231078" longitude="-56.830154" latitude="-47.280956"/>
<marker id="660602922" label="Drop of Fine Clover Honey" category="77" did="1879061399" parentZoneId="1879231078" longitude="-56.830154" latitude="-47.280956"/>
<marker id="660602923" label="Horse" category="78" did="1879255968" parentZoneId="1879231078" longitude="-56.830154" latitude="-47.280956"/>
<marker id="660602924" label="Bunch of Strawberries" category="77" did="1879061415" parentZoneId="1879231078" longitude="-56.830154" latitude="-47.280956"/>
<marker id="660602925" label="Bunch of Raspberries" category="77" did="1879061417" parentZoneId="1879231078" longitude="-56.830154" latitude="-47.280956"/>
<marker id="660602930" label="White-hand Scout" category="71" did="1879241138" parentZoneId="1879231078" longitude="-56.92985" latitude="-47.29344"/>
<marker id="660602931" label="Norcrofts Prowler" category="71" did="1879241347" parentZoneId="1879231078" longitude="-56.92985" latitude="-47.29344"/>
<marker id="660602932" label="Uruk-hai Marauder" category="71" did="1879241793" parentZoneId="1879231078" longitude="-56.92985" latitude="-47.29344"/>
<marker id="660602933" label="White-hand Corruptor" category="71" did="1879251062" parentZoneId="1879231078" longitude="-56.92985" latitude="-47.29344"/>
<marker id="660602934" label="White-hand Flanker" category="71" did="1879251061" parentZoneId="1879231078" longitude="-56.92985" latitude="-47.29344"/>
<marker id="660602935" label="White-hand Invader" category="71" did="1879241134" parentZoneId="1879231078" longitude="-56.92985" latitude="-47.29344"/>
<marker id="660602936" label="Norcrofts Field-bear" category="71" did="1879241438" parentZoneId="1879231078" longitude="-56.92985" latitude="-47.29344"/>
<marker id="660602937" label="White-hand Raider" category="71" did="1879241132" parentZoneId="1879231078" longitude="-56.92985" latitude="-47.29344"/>
<marker id="660602938" label="White-hand Scout" category="71" did="1879241138" parentZoneId="1879231078" longitude="-56.929844" latitude="-47.108326"/>
<marker id="660602939" label="Norcrofts Prowler" category="71" did="1879241347" parentZoneId="1879231078" longitude="-56.929844" latitude="-47.108326"/>
<marker id="660602940" label="Uruk-hai Marauder" category="71" did="1879241793" parentZoneId="1879231078" longitude="-56.929844" latitude="-47.108326"/>
<marker id="660602941" label="White-hand Corruptor" category="71" did="1879251062" parentZoneId="1879231078" longitude="-56.929844" latitude="-47.108326"/>
<marker id="660602942" label="White-hand Flanker" category="71" did="1879251061" parentZoneId="1879231078" longitude="-56.929844" latitude="-47.108326"/>
<marker id="660602943" label="White-hand Invader" category="71" did="1879241134" parentZoneId="1879231078" longitude="-56.929844" latitude="-47.108326"/>
<marker id="660602944" label="Norcrofts Field-bear" category="71" did="1879241438" parentZoneId="1879231078" longitude="-56.929844" latitude="-47.108326"/>
<marker id="660602945" label="White-hand Raider" category="71" did="1879241132" parentZoneId="1879231078" longitude="-56.929844" latitude="-47.108326"/>
<marker id="660602946" label="White-hand Scout" category="71" did="1879241138" parentZoneId="1879231078" longitude="-56.926758" latitude="-46.922947"/>
<marker id="660602947" label="Norcrofts Prowler" category="71" did="1879241347" parentZoneId="1879231078" longitude="-56.926758" latitude="-46.922947"/>
<marker id="660602948" label="Uruk-hai Marauder" category="71" did="1879241793" parentZoneId="1879231078" longitude="-56.926758" latitude="-46.922947"/>
<marker id="660602949" label="White-hand Corruptor" category="71" did="1879251062" parentZoneId="1879231078" longitude="-56.926758" latitude="-46.922947"/>
<marker id="660602950" label="White-hand Flanker" category="71" did="1879251061" parentZoneId="1879231078" longitude="-56.926758" latitude="-46.922947"/>
<marker id="660602951" label="White-hand Invader" category="71" did="1879241134" parentZoneId="1879231078" longitude="-56.926758" latitude="-46.922947"/>
<marker id="660602952" label="Norcrofts Field-bear" category="71" did="1879241438" parentZoneId="1879231078" longitude="-56.926758" latitude="-46.922947"/>
<marker id="660602953" label="White-hand Raider" category="71" did="1879241132" parentZoneId="1879231078" longitude="-56.926758" latitude="-46.922947"/>
<marker id="660602954" label="White-hand Scout" category="71" did="1879241138" parentZoneId="1879231078" longitude="-56.719734" latitude="-46.91816"/>
<marker id="660602955" label="Norcrofts Prowler" category="71" did="1879241347" parentZoneId="1879231078" longitude="-56.719734" latitude="-46.91816"/>
<marker id="660602956" label="Uruk-hai Marauder" category="71" did="1879241793" parentZoneId="1879231078" longitude="-56.719734" latitude="-46.91816"/>
<marker id="660602957" label="White-hand Corruptor" category="71" did="1879251062" parentZoneId="1879231078" longitude="-56.719734" latitude="-46.91816"/>
<marker id="660602958" label="White-hand Flanker" category="71" did="1879251061" parentZoneId="1879231078" longitude="-56.719734" latitude="-46.91816"/>
<marker id="660602959" label="White-hand Invader" category="71" did="1879241134" parentZoneId="1879231078" longitude="-56.719734" latitude="-46.91816"/>
<marker id="660602960" label="Norcrofts Field-bear" category="71" did="1879241438" parentZoneId="1879231078" longitude="-56.719734" latitude="-46.91816"/>
<marker id="660602961" label="White-hand Raider" category="71" did="1879241132" parentZoneId="1879231078" longitude="-56.719734" latitude="-46.91816"/>
<marker id="660602962" label="White-hand Scout" category="71" did="1879241138" parentZoneId="1879231078" longitude="-56.72282" latitude="-47.103535"/>
<marker id="660602963" label="Norcrofts Prowler" category="71" did="1879241347" parentZoneId="1879231078" longitude="-56.72282" latitude="-47.103535"/>
<marker id="660602964" label="Uruk-hai Marauder" category="71" did="1879241793" parentZoneId="1879231078" longitude="-56.72282" latitude="-47.103535"/>
<marker id="660602965" label="White-hand Corruptor" category="71" did="1879251062" parentZoneId="1879231078" longitude="-56.72282" latitude="-47.103535"/>
<marker id="660602966" label="White-hand Flanker" category="71" did="1879251061" parentZoneId="1879231078" longitude="-56.72282" latitude="-47.103535"/>
<marker id="660602967" label="White-hand Invader" category="71" did="1879241134" parentZoneId="1879231078" longitude="-56.72282" latitude="-47.103535"/>
<marker id="660602968" label="Norcrofts Field-bear" category="71" did="1879241438" parentZoneId="1879231078" longitude="-56.72282" latitude="-47.103535"/>
<marker id="660602969" label="White-hand Raider" category="71" did="1879241132" parentZoneId="1879231078" longitude="-56.72282" latitude="-47.103535"/>
<marker id="660602970" label="White-hand Scout" category="71" did="1879241138" parentZoneId="1879231078" longitude="-56.72282" latitude="-47.288647"/>
<marker id="660602971" label="Norcrofts Prowler" category="71" did="1879241347" parentZoneId="1879231078" longitude="-56.72282" latitude="-47.288647"/>
<marker id="660602972" label="Uruk-hai Marauder" category="71" did="1879241793" parentZoneId="1879231078" longitude="-56.72282" latitude="-47.288647"/>
<marker id="660602973" label="White-hand Corruptor" category="71" did="1879251062" parentZoneId="1879231078" longitude="-56.72282" latitude="-47.288647"/>
<marker id="660602974" label="White-hand Flanker" category="71" did="1879251061" parentZoneId="1879231078" longitude="-56.72282" latitude="-47.288647"/>
<marker id="660602975" label="White-hand Invader" category="71" did="1879241134" parentZoneId="1879231078" longitude="-56.72282" latitude="-47.288647"/>
<marker id="660602976" label="Norcrofts Field-bear" category="71" did="1879241438" parentZoneId="1879231078" longitude="-56.72282" latitude="-47.288647"/>
<marker id="660602977" label="White-hand Raider" category="71" did="1879241132" parentZoneId="1879231078" longitude="-56.72282" latitude="-47.288647"/>
<marker id="660602978" label="White-hand Scout" category="71" did="1879241138" parentZoneId="1879231078" longitude="-56.72297" latitude="-47.47652"/>
<marker id="660602979" label="Norcrofts Prowler" category="71" did="1879241347" parentZoneId="1879231078" longitude="-56.72297" latitude="-47.47652"/>
<marker id="660602980" label="Uruk-hai Marauder" category="71" did="1879241793" parentZoneId="1879231078" longitude="-56.72297" latitude="-47.47652"/>
<marker id="660602981" label="White-hand Corruptor" category="71" did="1879251062" parentZoneId="1879231078" longitude="-56.72297" latitude="-47.47652"/>
<marker id="660602982" label="White-hand Flanker" category="71" did="1879251061" parentZoneId="1879231078" longitude="-56.72297" latitude="-47.47652"/>
<marker id="660602983" label="White-hand Invader" category="71" did="1879241134" parentZoneId="1879231078" longitude="-56.72297" latitude="-47.47652"/>
<marker id="660602984" label="Norcrofts Field-bear" category="71" did="1879241438" parentZoneId="1879231078" longitude="-56.72297" latitude="-47.47652"/>
<marker id="660602985" label="White-hand Raider" category="71" did="1879241132" parentZoneId="1879231078" longitude="-56.72297" latitude="-47.47652"/>
<marker id="660602986" label="White-hand Scout" category="71" did="1879241138" parentZoneId="1879231078" longitude="-56.524452" latitude="-47.48152"/>
<marker id="660602987" label="Norcrofts Prowler" category="71" did="1879241347" parentZoneId="1879231078" longitude="-56.524452" latitude="-47.48152"/>
<marker id="660602988" label="Uruk-hai Marauder" category="71" did="1879241793" parentZoneId="1879231078" longitude="-56.524452" latitude="-47.48152"/>
<marker id="660602989" label="White-hand Corruptor" category="71" did="1879251062" parentZoneId="1879231078" longitude="-56.524452" latitude="-47.48152"/>
<marker id="660602990" label="White-hand Flanker" category="71" did="1879251061" parentZoneId="1879231078" longitude="-56.524452" latitude="-47.48152"/>
<marker id="660602991" label="White-hand Invader" category="71" did="1879241134" parentZoneId="1879231078" longitude="-56.524452" latitude="-47.48152"/>
<marker id="660602992" label="Norcrofts Field-bear" category="71" did="1879241438" parentZoneId="1879231078" longitude="-56.524452" latitude="-47.48152"/>
<marker id="660602993" label="White-hand Raider" category="71" did="1879241132" parentZoneId="1879231078" longitude="-56.524452" latitude="-47.48152"/>
<marker id="660602994" label="White-hand Scout" category="71" did="1879241138" parentZoneId="1879231078" longitude="-56.524296" latitude="-47.293648"/>
<marker id="660602995" label="Norcrofts Prowler" category="71" did="1879241347" parentZoneId="1879231078" longitude="-56.524296" latitude="-47.293648"/>
<marker id="660602996" label="Uruk-hai Marauder" category="71" did="1879241793" parentZoneId="1879231078" longitude="-56.524296" latitude="-47.293648"/>
<marker id="660602997" label="White-hand Corruptor" category="71" did="1879251062" parentZoneId="1879231078" longitude="-56.524296" latitude="-47.293648"/>
<marker id="660602998" label="White-hand Flanker" category="71" did="1879251061" parentZoneId="1879231078" longitude="-56.524296" latitude="-47.293648"/>
<marker id="660602999" label="White-hand Invader" category="71" did="1879241134" parentZoneId="1879231078" longitude="-56.524296" latitude="-47.293648"/>
<marker id="660603000" label="Norcrofts Field-bear" category="71" did="1879241438" parentZoneId="1879231078" longitude="-56.524296" latitude="-47.293648"/>
<marker id="660603001" label="White-hand Raider" category="71" did="1879241132" parentZoneId="1879231078" longitude="-56.524296" latitude="-47.293648"/>
<marker id="660603002" label="White-hand Scout" category="71" did="1879241138" parentZoneId="1879231078" longitude="-56.524296" latitude="-47.108536"/>
<marker id="660603003" label="Norcrofts Prowler" category="71" did="1879241347" parentZoneId="1879231078" longitude="-56.524296" latitude="-47.108536"/>
<marker id="660603004" label="Uruk-hai Marauder" category="71" did="1879241793" parentZoneId="1879231078" longitude="-56.524296" latitude="-47.108536"/>
<marker id="660603005" label="White-hand Corruptor" category="71" did="1879251062" parentZoneId="1879231078" longitude="-56.524296" latitude="-47.108536"/>
<marker id="660603006" label="White-hand Flanker" category="71" did="1879251061" parentZoneId="1879231078" longitude="-56.524296" latitude="-47.108536"/>
<marker id="660603007" label="White-hand Invader" category="71" did="1879241134" parentZoneId="1879231078" longitude="-56.524296" latitude="-47.108536"/>
<marker id="660603008" label="Norcrofts Field-bear" category="71" did="1879241438" parentZoneId="1879231078" longitude="-56.524296" latitude="-47.108536"/>
<marker id="660603009" label="White-hand Raider" category="71" did="1879241132" parentZoneId="1879231078" longitude="-56.524296" latitude="-47.108536"/>
<marker id="660603010" label="White-hand Scout" category="71" did="1879241138" parentZoneId="1879231078" longitude="-56.52121" latitude="-46.923157"/>
<marker id="660603011" label="Norcrofts Prowler" category="71" did="1879241347" parentZoneId="1879231078" longitude="-56.52121" latitude="-46.923157"/>
<marker id="660603012" label="Uruk-hai Marauder" category="71" did="1879241793" parentZoneId="1879231078" longitude="-56.52121" latitude="-46.923157"/>
<marker id="660603013" label="White-hand Corruptor" category="71" did="1879251062" parentZoneId="1879231078" longitude="-56.52121" latitude="-46.923157"/>
<marker id="660603014" label="White-hand Flanker" category="71" did="1879251061" parentZoneId="1879231078" longitude="-56.52121" latitude="-46.923157"/>
<marker id="660603015" label="White-hand Invader" category="71" did="1879241134" parentZoneId="1879231078" longitude="-56.52121" latitude="-46.923157"/>
<marker id="660603016" label="Norcrofts Field-bear" category="71" did="1879241438" parentZoneId="1879231078" longitude="-56.52121" latitude="-46.923157"/>
<marker id="660603017" label="White-hand Raider" category="71" did="1879241132" parentZoneId="1879231078" longitude="-56.52121" latitude="-46.923157"/>
<marker id="660603018" label="White-hand Scout" category="71" did="1879241138" parentZoneId="1879231078" longitude="-57.083786" latitude="-47.48177"/>
<marker id="660603019" label="Norcrofts Prowler" category="71" did="1879241347" parentZoneId="1879231078" longitude="-57.083786" latitude="-47.48177"/>
<marker id="660603020" label="Uruk-hai Marauder" category="71" did="1879241793" parentZoneId="1879231078" longitude="-57.083786" latitude="-47.48177"/>
<marker id="660603021" label="White-hand Corruptor" category="71" did="1879251062" parentZoneId="1879231078" longitude="-57.083786" latitude="-47.48177"/>
<marker id="660603022" label="White-hand Flanker" category="71" did="1879251061" parentZoneId="1879231078" longitude="-57.083786" latitude="-47.48177"/>
<marker id="660603023" label="White-hand Invader" category="71" did="1879241134" parentZoneId="1879231078" longitude="-57.083786" latitude="-47.48177"/>
<marker id="660603024" label="Norcrofts Field-bear" category="71" did="1879241438" parentZoneId="1879231078" longitude="-57.083786" latitude="-47.48177"/>
<marker id="660603025" label="White-hand Raider" category="71" did="1879241132" parentZoneId="1879231078" longitude="-57.083786" latitude="-47.48177"/>
<marker id="660603026" label="White-hand Scout" category="71" did="1879241138" parentZoneId="1879231078" longitude="-57.08364" latitude="-47.293896"/>
<marker id="660603027" label="Norcrofts Prowler" category="71" did="1879241347" parentZoneId="1879231078" longitude="-57.08364" latitude="-47.293896"/>
<marker id="660603028" label="Uruk-hai Marauder" category="71" did="1879241793" parentZoneId="1879231078" longitude="-57.08364" latitude="-47.293896"/>
<marker id="660603029" label="White-hand Corruptor" category="71" did="1879251062" parentZoneId="1879231078" longitude="-57.08364" latitude="-47.293896"/>
<marker id="660603030" label="White-hand Flanker" category="71" did="1879251061" parentZoneId="1879231078" longitude="-57.08364" latitude="-47.293896"/>
<marker id="660603031" label="White-hand Invader" category="71" did="1879241134" parentZoneId="1879231078" longitude="-57.08364" latitude="-47.293896"/>
<marker id="660603032" label="Norcrofts Field-bear" category="71" did="1879241438" parentZoneId="1879231078" longitude="-57.08364" latitude="-47.293896"/>
<marker id="660603033" label="White-hand Raider" category="71" did="1879241132" parentZoneId="1879231078" longitude="-57.08364" latitude="-47.293896"/>
<marker id="660603034" label="White-hand Scout" category="71" did="1879241138" parentZoneId="1879231078" longitude="-57.083633" latitude="-47.108784"/>
<marker id="660603035" label="Norcrofts Prowler" category="71" did="1879241347" parentZoneId="1879231078" longitude="-57.083633" latitude="-47.108784"/>
<marker id="660603036" label="Uruk-hai Marauder" category="71" did="1879241793" parentZoneId="1879231078" longitude="-57.083633" latitude="-47.108784"/>
<marker id="660603037" label="White-hand Corruptor" category="71" did="1879251062" parentZoneId="1879231078" longitude="-57.083633" latitude="-47.108784"/>
<marker id="660603038" label="White-hand Flanker" category="71" did="1879251061" parentZoneId="1879231078" longitude="-57.083633" latitude="-47.108784"/>
<marker id="660603039" label="White-hand Invader" category="71" did="1879241134" parentZoneId="1879231078" longitude="-57.083633" latitude="-47.108784"/>
<marker id="660603040" label="Norcrofts Field-bear" category="71" did="1879241438" parentZoneId="1879231078" longitude="-57.083633" latitude="-47.108784"/>
<marker id="660603041" label="White-hand Raider" category="71" did="1879241132" parentZoneId="1879231078" longitude="-57.083633" latitude="-47.108784"/>
<marker id="660603042" label="White-hand Scout" category="71" did="1879241138" parentZoneId="1879231078" longitude="-57.080547" latitude="-46.92341"/>
<marker id="660603043" label="Norcrofts Prowler" category="71" did="1879241347" parentZoneId="1879231078" longitude="-57.080547" latitude="-46.92341"/>
<marker id="660603044" label="Uruk-hai Marauder" category="71" did="1879241793" parentZoneId="1879231078" longitude="-57.080547" latitude="-46.92341"/>
<marker id="660603045" label="White-hand Corruptor" category="71" did="1879251062" parentZoneId="1879231078" longitude="-57.080547" latitude="-46.92341"/>
<marker id="660603046" label="White-hand Flanker" category="71" did="1879251061" parentZoneId="1879231078" longitude="-57.080547" latitude="-46.92341"/>
<marker id="660603047" label="White-hand Invader" category="71" did="1879241134" parentZoneId="1879231078" longitude="-57.080547" latitude="-46.92341"/>
<marker id="660603048" label="Norcrofts Field-bear" category="71" did="1879241438" parentZoneId="1879231078" longitude="-57.080547" latitude="-46.92341"/>
<marker id="660603049" label="White-hand Raider" category="71" did="1879241132" parentZoneId="1879231078" longitude="-57.080547" latitude="-46.92341"/>
<marker id="660603050" label="White-hand Scout" category="71" did="1879241138" parentZoneId="1879231078" longitude="-56.93" latitude="-47.481316"/>
<marker id="660603051" label="Norcrofts Prowler" category="71" did="1879241347" parentZoneId="1879231078" longitude="-56.93" latitude="-47.481316"/>
<marker id="660603052" label="Uruk-hai Marauder" category="71" did="1879241793" parentZoneId="1879231078" longitude="-56.93" latitude="-47.481316"/>
<marker id="660603053" label="White-hand Corruptor" category="71" did="1879251062" parentZoneId="1879231078" longitude="-56.93" latitude="-47.481316"/>
<marker id="660603054" label="White-hand Flanker" category="71" did="1879251061" parentZoneId="1879231078" longitude="-56.93" latitude="-47.481316"/>
<marker id="660603055" label="White-hand Invader" category="71" did="1879241134" parentZoneId="1879231078" longitude="-56.93" latitude="-47.481316"/>
<marker id="660603056" label="Norcrofts Field-bear" category="71" did="1879241438" parentZoneId="1879231078" longitude="-56.93" latitude="-47.481316"/>
<marker id="660603057" label="White-hand Raider" category="71" did="1879241132" parentZoneId="1879231078" longitude="-56.93" latitude="-47.481316"/>
<marker id="660603058" label="Rich Riddermark Skarn Deposit" category="50" did="1879239175" parentZoneId="1879231078" longitude="-56.52374" latitude="-47.525898"/>
<marker id="660603059" label="Heavy Oak Branches" category="50" did="1879239127" parentZoneId="1879231078" longitude="-56.52374" latitude="-47.525898"/>
<marker id="660603060" label="Riddermark Skarn Deposit" category="50" did="1879239161" parentZoneId="1879231078" longitude="-56.52374" latitude="-47.525898"/>
<marker id="660603061" label="Oak Branches" category="50" did="1879239165" parentZoneId="1879231078" longitude="-56.52374" latitude="-47.525898"/>
<marker id="660603062" label="Rich Riddermark Skarn Deposit" category="50" did="1879239175" parentZoneId="1879231078" longitude="-56.542763" latitude="-47.19143"/>
<marker id="660603063" label="Heavy Oak Branches" category="50" did="1879239127" parentZoneId="1879231078" longitude="-56.542763" latitude="-47.19143"/>
<marker id="660603064" label="Riddermark Skarn Deposit" category="50" did="1879239161" parentZoneId="1879231078" longitude="-56.542763" latitude="-47.19143"/>
<marker id="660603065" label="Oak Branches" category="50" did="1879239165" parentZoneId="1879231078" longitude="-56.542763" latitude="-47.19143"/>
<marker id="660603066" label="Rich Riddermark Skarn Deposit" category="50" did="1879239175" parentZoneId="1879231078" longitude="-56.641327" latitude="-46.924744"/>
<marker id="660603067" label="Heavy Oak Branches" category="50" did="1879239127" parentZoneId="1879231078" longitude="-56.641327" latitude="-46.924744"/>
<marker id="660603068" label="Riddermark Skarn Deposit" category="50" did="1879239161" parentZoneId="1879231078" longitude="-56.641327" latitude="-46.924744"/>
<marker id="660603069" label="Oak Branches" category="50" did="1879239165" parentZoneId="1879231078" longitude="-56.641327" latitude="-46.924744"/>
<marker id="660603070" label="Rich Riddermark Skarn Deposit" category="50" did="1879239175" parentZoneId="1879231078" longitude="-57.086494" latitude="-47.127773"/>
<marker id="660603071" label="Heavy Oak Branches" category="50" did="1879239127" parentZoneId="1879231078" longitude="-57.086494" latitude="-47.127773"/>
<marker id="660603072" label="Riddermark Skarn Deposit" category="50" did="1879239161" parentZoneId="1879231078" longitude="-57.086494" latitude="-47.127773"/>
<marker id="660603073" label="Oak Branches" category="50" did="1879239165" parentZoneId="1879231078" longitude="-57.086494" latitude="-47.127773"/>
<marker id="660603074" label="Rich Riddermark Skarn Deposit" category="50" did="1879239175" parentZoneId="1879231078" longitude="-57.119324" latitude="-47.52248"/>
<marker id="660603075" label="Heavy Oak Branches" category="50" did="1879239127" parentZoneId="1879231078" longitude="-57.119324" latitude="-47.52248"/>
<marker id="660603076" label="Riddermark Skarn Deposit" category="50" did="1879239161" parentZoneId="1879231078" longitude="-57.119324" latitude="-47.52248"/>
<marker id="660603077" label="Oak Branches" category="50" did="1879239165" parentZoneId="1879231078" longitude="-57.119324" latitude="-47.52248"/>
<marker id="660603078" label="Rich Riddermark Skarn Deposit" category="50" did="1879239175" parentZoneId="1879231078" longitude="-57.16653" latitude="-47.15459"/>
<marker id="660603079" label="Heavy Oak Branches" category="50" did="1879239127" parentZoneId="1879231078" longitude="-57.16653" latitude="-47.15459"/>
<marker id="660603080" label="Riddermark Skarn Deposit" category="50" did="1879239161" parentZoneId="1879231078" longitude="-57.16653" latitude="-47.15459"/>
<marker id="660603081" label="Oak Branches" category="50" did="1879239165" parentZoneId="1879231078" longitude="-57.16653" latitude="-47.15459"/>
<marker id="660603082" label="Rich Riddermark Skarn Deposit" category="50" did="1879239175" parentZoneId="1879231078" longitude="-57.16036" latitude="-47.470596"/>
<marker id="660603083" label="Heavy Oak Branches" category="50" did="1879239127" parentZoneId="1879231078" longitude="-57.16036" latitude="-47.470596"/>
<marker id="660603084" label="Riddermark Skarn Deposit" category="50" did="1879239161" parentZoneId="1879231078" longitude="-57.16036" latitude="-47.470596"/>
<marker id="660603085" label="Oak Branches" category="50" did="1879239165" parentZoneId="1879231078" longitude="-57.16036" latitude="-47.470596"/>
<marker id="660603086" label="Rich Riddermark Skarn Deposit" category="50" did="1879239175" parentZoneId="1879231078" longitude="-56.86122" latitude="-47.320194"/>
<marker id="660603087" label="Heavy Oak Branches" category="50" did="1879239127" parentZoneId="1879231078" longitude="-56.86122" latitude="-47.320194"/>
<marker id="660603088" label="Riddermark Skarn Deposit" category="50" did="1879239161" parentZoneId="1879231078" longitude="-56.86122" latitude="-47.320194"/>
<marker id="660603089" label="Oak Branches" category="50" did="1879239165" parentZoneId="1879231078" longitude="-56.86122" latitude="-47.320194"/>
<marker id="660603090" label="Rich Riddermark Skarn Deposit" category="50" did="1879239175" parentZoneId="1879231078" longitude="-56.59036" latitude="-47.526176"/>
<marker id="660603091" label="Heavy Oak Branches" category="50" did="1879239127" parentZoneId="1879231078" longitude="-56.59036" latitude="-47.526176"/>
<marker id="660603092" label="Riddermark Skarn Deposit" category="50" did="1879239161" parentZoneId="1879231078" longitude="-56.59036" latitude="-47.526176"/>
<marker id="660603093" label="Oak Branches" category="50" did="1879239165" parentZoneId="1879231078" longitude="-56.59036" latitude="-47.526176"/>
<marker id="660603094" label="Rich Riddermark Skarn Deposit" category="50" did="1879239175" parentZoneId="1879231078" longitude="-56.561806" latitude="-47.103672"/>
<marker id="660603095" label="Heavy Oak Branches" category="50" did="1879239127" parentZoneId="1879231078" longitude="-56.561806" latitude="-47.103672"/>
<marker id="660603096" label="Riddermark Skarn Deposit" category="50" did="1879239161" parentZoneId="1879231078" longitude="-56.561806" latitude="-47.103672"/>
<marker id="660603097" label="Oak Branches" category="50" did="1879239165" parentZoneId="1879231078" longitude="-56.561806" latitude="-47.103672"/>
<marker id="660603098" label="Horse" category="78" did="1879255968" parentZoneId="1879231078" longitude="-57.050137" latitude="-47.00049"/>
<marker id="660603099" label="Fox" category="78" did="1879078196" parentZoneId="1879231078" longitude="-57.050137" latitude="-47.00049"/>
<marker id="660603100" label="Indigo Plant" category="77" did="1879054949" parentZoneId="1879231078" longitude="-57.050137" latitude="-47.00049"/>
<marker id="660603101" label="Rabbit" category="78" did="1879079062" parentZoneId="1879231078" longitude="-57.050137" latitude="-47.00049"/>
<marker id="660603102" label="Bunch of Strawberries" category="77" did="1879061415" parentZoneId="1879231078" longitude="-57.050137" latitude="-47.00049"/>
<marker id="660603103" label="Drop of Fine Clover Honey" category="77" did="1879061399" parentZoneId="1879231078" longitude="-57.050137" latitude="-47.00049"/>
<marker id="660603104" label="Bunch of Raspberries" category="77" did="1879061417" parentZoneId="1879231078" longitude="-57.050137" latitude="-47.00049"/>
<marker id="660603105" label="Tater" category="77" did="1879061257" parentZoneId="1879231078" longitude="-57.050137" latitude="-47.00049"/>
<marker id="660603106" label="Bunch of Blackberries" category="77" did="1879061418" parentZoneId="1879231078" longitude="-57.050137" latitude="-47.00049"/>
<marker id="660603107" label="Bunch of Blueberries" category="77" did="1879061342" parentZoneId="1879231078" longitude="-57.050137" latitude="-47.00049"/>
<marker id="660603108" label="Horse" category="78" did="1879255968" parentZoneId="1879231078" longitude="-57.046257" latitude="-47.32574"/>
<marker id="660603109" label="Fox" category="78" did="1879078196" parentZoneId="1879231078" longitude="-57.046257" latitude="-47.32574"/>
<marker id="660603110" label="Indigo Plant" category="77" did="1879054949" parentZoneId="1879231078" longitude="-57.046257" latitude="-47.32574"/>
<marker id="660603111" label="Rabbit" category="78" did="1879079062" parentZoneId="1879231078" longitude="-57.046257" latitude="-47.32574"/>
<marker id="660603112" label="Bunch of Strawberries" category="77" did="1879061415" parentZoneId="1879231078" longitude="-57.046257" latitude="-47.32574"/>
<marker id="660603113" label="Drop of Fine Clover Honey" category="77" did="1879061399" parentZoneId="1879231078" longitude="-57.046257" latitude="-47.32574"/>
<marker id="660603114" label="Bunch of Raspberries" category="77" did="1879061417" parentZoneId="1879231078" longitude="-57.046257" latitude="-47.32574"/>
<marker id="660603115" label="Tater" category="77" did="1879061257" parentZoneId="1879231078" longitude="-57.046257" latitude="-47.32574"/>
<marker id="660603116" label="Bunch of Blackberries" category="77" did="1879061418" parentZoneId="1879231078" longitude="-57.046257" latitude="-47.32574"/>
<marker id="660603117" label="Bunch of Blueberries" category="77" did="1879061342" parentZoneId="1879231078" longitude="-57.046257" latitude="-47.32574"/>
<marker id="660603118" label="Horse" category="78" did="1879255968" parentZoneId="1879231078" longitude="-56.7653" latitude="-47.42324"/>
<marker id="660603119" label="Fox" category="78" did="1879078196" parentZoneId="1879231078" longitude="-56.7653" latitude="-47.42324"/>
<marker id="660603120" label="Indigo Plant" category="77" did="1879054949" parentZoneId="1879231078" longitude="-56.7653" latitude="-47.42324"/>
<marker id="660603121" label="Rabbit" category="78" did="1879079062" parentZoneId="1879231078" longitude="-56.7653" latitude="-47.42324"/>
<marker id="660603122" label="Bunch of Strawberries" category="77" did="1879061415" parentZoneId="1879231078" longitude="-56.7653" latitude="-47.42324"/>
<marker id="660603123" label="Drop of Fine Clover Honey" category="77" did="1879061399" parentZoneId="1879231078" longitude="-56.7653" latitude="-47.42324"/>
<marker id="660603124" label="Bunch of Raspberries" category="77" did="1879061417" parentZoneId="1879231078" longitude="-56.7653" latitude="-47.42324"/>
<marker id="660603125" label="Tater" category="77" did="1879061257" parentZoneId="1879231078" longitude="-56.7653" latitude="-47.42324"/>
<marker id="660603126" label="Bunch of Blackberries" category="77" did="1879061418" parentZoneId="1879231078" longitude="-56.7653" latitude="-47.42324"/>
<marker id="660603127" label="Bunch of Blueberries" category="77" did="1879061342" parentZoneId="1879231078" longitude="-56.7653" latitude="-47.42324"/>
<marker id="660603128" label="Horse" category="78" did="1879255968" parentZoneId="1879231078" longitude="-56.640915" latitude="-47.10397"/>
<marker id="660603129" label="Fox" category="78" did="1879078196" parentZoneId="1879231078" longitude="-56.640915" latitude="-47.10397"/>
<marker id="660603130" label="Indigo Plant" category="77" did="1879054949" parentZoneId="1879231078" longitude="-56.640915" latitude="-47.10397"/>
<marker id="660603131" label="Rabbit" category="78" did="1879079062" parentZoneId="1879231078" longitude="-56.640915" latitude="-47.10397"/>
<marker id="660603132" label="Bunch of Strawberries" category="77" did="1879061415" parentZoneId="1879231078" longitude="-56.640915" latitude="-47.10397"/>
<marker id="660603133" label="Drop of Fine Clover Honey" category="77" did="1879061399" parentZoneId="1879231078" longitude="-56.640915" latitude="-47.10397"/>
<marker id="660603134" label="Bunch of Raspberries" category="77" did="1879061417" parentZoneId="1879231078" longitude="-56.640915" latitude="-47.10397"/>
<marker id="660603135" label="Tater" category="77" did="1879061257" parentZoneId="1879231078" longitude="-56.640915" latitude="-47.10397"/>
<marker id="660603136" label="Bunch of Blackberries" category="77" did="1879061418" parentZoneId="1879231078" longitude="-56.640915" latitude="-47.10397"/>
<marker id="660603137" label="Bunch of Blueberries" category="77" did="1879061342" parentZoneId="1879231078" longitude="-56.640915" latitude="-47.10397"/>
<marker id="660606976" label="White-hand Invader" category="71" did="1879241134" parentZoneId="1879231078" longitude="-56.821552" latitude="-46.421368"/>
<marker id="660606977" label="White-hand Raider" category="71" did="1879241132" parentZoneId="1879231078" longitude="-56.821552" latitude="-46.421368"/>
<marker id="660606978" label="White-hand Scout" category="71" did="1879241138" parentZoneId="1879231078" longitude="-56.821552" latitude="-46.421368"/>
<marker id="660606979" label="Norcrofts Prowler" category="71" did="1879241347" parentZoneId="1879231078" longitude="-56.821552" latitude="-46.421368"/>
<marker id="660606980" label="Norcrofts Field-bear" category="71" did="1879241438" parentZoneId="1879231078" longitude="-56.821552" latitude="-46.421368"/>
<marker id="660606981" label="Uruk-hai Marauder" category="71" did="1879241793" parentZoneId="1879231078" longitude="-56.821552" latitude="-46.421368"/>
<marker id="660606982" label="White-hand Corruptor" category="71" did="1879251062" parentZoneId="1879231078" longitude="-56.821552" latitude="-46.421368"/>
<marker id="660606983" label="White-hand Flanker" category="71" did="1879251061" parentZoneId="1879231078" longitude="-56.821552" latitude="-46.421368"/>
<marker id="660606984" label="Tater" category="77" did="1879061257" parentZoneId="1879231078" longitude="-56.866768" latitude="-46.406845"/>
<marker id="660606990" label="Fox" category="78" did="1879078196" parentZoneId="1879231078" longitude="-56.866768" latitude="-46.406845"/>
<marker id="660606991" label="Rabbit" category="78" did="1879079062" parentZoneId="1879231078" longitude="-56.866768" latitude="-46.406845"/>
<marker id="660606993" label="Indigo Plant" category="77" did="1879054949" parentZoneId="1879231078" longitude="-56.866768" latitude="-46.406845"/>
<marker id="660607008" label="Bunch of Blueberries" category="77" did="1879061342" parentZoneId="1879231078" longitude="-56.866768" latitude="-46.406845"/>
<marker id="660607009" label="Drop of Fine Clover Honey" category="77" did="1879061399" parentZoneId="1879231078" longitude="-56.866768" latitude="-46.406845"/>
<marker id="660607010" label="Horse" category="78" did="1879255968" parentZoneId="1879231078" longitude="-56.866768" latitude="-46.406845"/>
<marker id="660607011" label="Bunch of Strawberries" category="77" did="1879061415" parentZoneId="1879231078" longitude="-56.866768" latitude="-46.406845"/>
<marker id="660607012" label="Bunch of Raspberries" category="77" did="1879061417" parentZoneId="1879231078" longitude="-56.866768" latitude="-46.406845"/>
<marker id="660607013" label="Bunch of Blackberries" category="77" did="1879061418" parentZoneId="1879231078" longitude="-56.866768" latitude="-46.406845"/>
<marker id="660607014" label="White-hand Scout" category="71" did="1879241138" parentZoneId="1879231078" longitude="-56.92985" latitude="-46.4984"/>
<marker id="660607015" label="Norcrofts Prowler" category="71" did="1879241347" parentZoneId="1879231078" longitude="-56.92985" latitude="-46.4984"/>
<marker id="660607016" label="Uruk-hai Marauder" category="71" did="1879241793" parentZoneId="1879231078" longitude="-56.92985" latitude="-46.4984"/>
<marker id="660607017" label="White-hand Corruptor" category="71" did="1879251062" parentZoneId="1879231078" longitude="-56.92985" latitude="-46.4984"/>
<marker id="660607018" label="White-hand Flanker" category="71" did="1879251061" parentZoneId="1879231078" longitude="-56.92985" latitude="-46.4984"/>
<marker id="660607019" label="White-hand Invader" category="71" did="1879241134" parentZoneId="1879231078" longitude="-56.92985" latitude="-46.4984"/>
<marker id="660607020" label="Norcrofts Field-bear" category="71" did="1879241438" parentZoneId="1879231078" longitude="-56.92985" latitude="-46.4984"/>
<marker id="660607021" label="White-hand Raider" category="71" did="1879241132" parentZoneId="1879231078" longitude="-56.92985" latitude="-46.4984"/>
<marker id="660607022" label="White-hand Scout" category="71" did="1879241138" parentZoneId="1879231078" longitude="-56.929844" latitude="-46.31329"/>
<marker id="660607023" label="Norcrofts Prowler" category="71" did="1879241347" parentZoneId="1879231078" longitude="-56.929844" latitude="-46.31329"/>
<marker id="660607024" label="Uruk-hai Marauder" category="71" did="1879241793" parentZoneId="1879231078" longitude="-56.929844" latitude="-46.31329"/>
<marker id="660607025" label="White-hand Corruptor" category="71" did="1879251062" parentZoneId="1879231078" longitude="-56.929844" latitude="-46.31329"/>
<marker id="660607026" label="White-hand Flanker" category="71" did="1879251061" parentZoneId="1879231078" longitude="-56.929844" latitude="-46.31329"/>
<marker id="660607027" label="White-hand Invader" category="71" did="1879241134" parentZoneId="1879231078" longitude="-56.929844" latitude="-46.31329"/>
<marker id="660607028" label="Norcrofts Field-bear" category="71" did="1879241438" parentZoneId="1879231078" longitude="-56.929844" latitude="-46.31329"/>
<marker id="660607029" label="White-hand Raider" category="71" did="1879241132" parentZoneId="1879231078" longitude="-56.929844" latitude="-46.31329"/>
<marker id="660607030" label="White-hand Scout" category="71" did="1879241138" parentZoneId="1879231078" longitude="-56.926758" latitude="-46.127914"/>
<marker id="660607031" label="Norcrofts Prowler" category="71" did="1879241347" parentZoneId="1879231078" longitude="-56.926758" latitude="-46.127914"/>
<marker id="660607032" label="Uruk-hai Marauder" category="71" did="1879241793" parentZoneId="1879231078" longitude="-56.926758" latitude="-46.127914"/>
<marker id="660607033" label="White-hand Corruptor" category="71" did="1879251062" parentZoneId="1879231078" longitude="-56.926758" latitude="-46.127914"/>
<marker id="660607034" label="White-hand Flanker" category="71" did="1879251061" parentZoneId="1879231078" longitude="-56.926758" latitude="-46.127914"/>
<marker id="660607035" label="White-hand Invader" category="71" did="1879241134" parentZoneId="1879231078" longitude="-56.926758" latitude="-46.127914"/>
<marker id="660607036" label="Norcrofts Field-bear" category="71" did="1879241438" parentZoneId="1879231078" longitude="-56.926758" latitude="-46.127914"/>
<marker id="660607037" label="White-hand Raider" category="71" did="1879241132" parentZoneId="1879231078" longitude="-56.926758" latitude="-46.127914"/>
<marker id="660607038" label="White-hand Scout" category="71" did="1879241138" parentZoneId="1879231078" longitude="-56.719734" latitude="-46.12312"/>
<marker id="660607039" label="Norcrofts Prowler" category="71" did="1879241347" parentZoneId="1879231078" longitude="-56.719734" latitude="-46.12312"/>
<marker id="660607040" label="Uruk-hai Marauder" category="71" did="1879241793" parentZoneId="1879231078" longitude="-56.719734" latitude="-46.12312"/>
<marker id="660607041" label="White-hand Corruptor" category="71" did="1879251062" parentZoneId="1879231078" longitude="-56.719734" latitude="-46.12312"/>
<marker id="660607042" label="White-hand Flanker" category="71" did="1879251061" parentZoneId="1879231078" longitude="-56.719734" latitude="-46.12312"/>
<marker id="660607043" label="White-hand Invader" category="71" did="1879241134" parentZoneId="1879231078" longitude="-56.719734" latitude="-46.12312"/>
<marker id="660607044" label="Norcrofts Field-bear" category="71" did="1879241438" parentZoneId="1879231078" longitude="-56.719734" latitude="-46.12312"/>
<marker id="660607045" label="White-hand Raider" category="71" did="1879241132" parentZoneId="1879231078" longitude="-56.719734" latitude="-46.12312"/>
<marker id="660607046" label="White-hand Scout" category="71" did="1879241138" parentZoneId="1879231078" longitude="-56.72282" latitude="-46.3085"/>
<marker id="660607047" label="Norcrofts Prowler" category="71" did="1879241347" parentZoneId="1879231078" longitude="-56.72282" latitude="-46.3085"/>
<marker id="660607048" label="Uruk-hai Marauder" category="71" did="1879241793" parentZoneId="1879231078" longitude="-56.72282" latitude="-46.3085"/>
<marker id="660607049" label="White-hand Corruptor" category="71" did="1879251062" parentZoneId="1879231078" longitude="-56.72282" latitude="-46.3085"/>
<marker id="660607050" label="White-hand Flanker" category="71" did="1879251061" parentZoneId="1879231078" longitude="-56.72282" latitude="-46.3085"/>
<marker id="660607051" label="White-hand Invader" category="71" did="1879241134" parentZoneId="1879231078" longitude="-56.72282" latitude="-46.3085"/>
<marker id="660607052" label="Norcrofts Field-bear" category="71" did="1879241438" parentZoneId="1879231078" longitude="-56.72282" latitude="-46.3085"/>
<marker id="660607053" label="White-hand Raider" category="71" did="1879241132" parentZoneId="1879231078" longitude="-56.72282" latitude="-46.3085"/>
<marker id="660607054" label="White-hand Scout" category="71" did="1879241138" parentZoneId="1879231078" longitude="-56.72282" latitude="-46.49361"/>
<marker id="660607055" label="Norcrofts Prowler" category="71" did="1879241347" parentZoneId="1879231078" longitude="-56.72282" latitude="-46.49361"/>
<marker id="660607056" label="Uruk-hai Marauder" category="71" did="1879241793" parentZoneId="1879231078" longitude="-56.72282" latitude="-46.49361"/>
<marker id="660607057" label="White-hand Corruptor" category="71" did="1879251062" parentZoneId="1879231078" longitude="-56.72282" latitude="-46.49361"/>
<marker id="660607058" label="White-hand Flanker" category="71" did="1879251061" parentZoneId="1879231078" longitude="-56.72282" latitude="-46.49361"/>
<marker id="660607059" label="White-hand Invader" category="71" did="1879241134" parentZoneId="1879231078" longitude="-56.72282" latitude="-46.49361"/>
<marker id="660607060" label="Norcrofts Field-bear" category="71" did="1879241438" parentZoneId="1879231078" longitude="-56.72282" latitude="-46.49361"/>
<marker id="660607061" label="White-hand Raider" category="71" did="1879241132" parentZoneId="1879231078" longitude="-56.72282" latitude="-46.49361"/>
<marker id="660607062" label="White-hand Scout" category="71" did="1879241138" parentZoneId="1879231078" longitude="-56.72297" latitude="-46.681488"/>
<marker id="660607063" label="Norcrofts Prowler" category="71" did="1879241347" parentZoneId="1879231078" longitude="-56.72297" latitude="-46.681488"/>
<marker id="660607064" label="Uruk-hai Marauder" category="71" did="1879241793" parentZoneId="1879231078" longitude="-56.72297" latitude="-46.681488"/>
<marker id="660607065" label="White-hand Corruptor" category="71" did="1879251062" parentZoneId="1879231078" longitude="-56.72297" latitude="-46.681488"/>
<marker id="660607066" label="White-hand Flanker" category="71" did="1879251061" parentZoneId="1879231078" longitude="-56.72297" latitude="-46.681488"/>
<marker id="660607067" label="White-hand Invader" category="71" did="1879241134" parentZoneId="1879231078" longitude="-56.72297" latitude="-46.681488"/>
<marker id="660607068" label="Norcrofts Field-bear" category="71" did="1879241438" parentZoneId="1879231078" longitude="-56.72297" latitude="-46.681488"/>
<marker id="660607069" label="White-hand Raider" category="71" did="1879241132" parentZoneId="1879231078" longitude="-56.72297" latitude="-46.681488"/>
<marker id="660607070" label="White-hand Scout" category="71" did="1879241138" parentZoneId="1879231078" longitude="-56.524452" latitude="-46.68649"/>
<marker id="660607071" label="Norcrofts Prowler" category="71" did="1879241347" parentZoneId="1879231078" longitude="-56.524452" latitude="-46.68649"/>
<marker id="660607072" label="Uruk-hai Marauder" category="71" did="1879241793" parentZoneId="1879231078" longitude="-56.524452" latitude="-46.68649"/>
<marker id="660607073" label="White-hand Corruptor" category="71" did="1879251062" parentZoneId="1879231078" longitude="-56.524452" latitude="-46.68649"/>
<marker id="660607074" label="White-hand Flanker" category="71" did="1879251061" parentZoneId="1879231078" longitude="-56.524452" latitude="-46.68649"/>
<marker id="660607075" label="White-hand Invader" category="71" did="1879241134" parentZoneId="1879231078" longitude="-56.524452" latitude="-46.68649"/>
<marker id="660607076" label="Norcrofts Field-bear" category="71" did="1879241438" parentZoneId="1879231078" longitude="-56.524452" latitude="-46.68649"/>
<marker id="660607077" label="White-hand Raider" category="71" did="1879241132" parentZoneId="1879231078" longitude="-56.524452" latitude="-46.68649"/>
<marker id="660607078" label="White-hand Scout" category="71" did="1879241138" parentZoneId="1879231078" longitude="-56.524296" latitude="-46.49861"/>
<marker id="660607079" label="Norcrofts Prowler" category="71" did="1879241347" parentZoneId="1879231078" longitude="-56.524296" latitude="-46.49861"/>
<marker id="660607080" label="Uruk-hai Marauder" category="71" did="1879241793" parentZoneId="1879231078" longitude="-56.524296" latitude="-46.49861"/>
<marker id="660607081" label="White-hand Corruptor" category="71" did="1879251062" parentZoneId="1879231078" longitude="-56.524296" latitude="-46.49861"/>
<marker id="660607082" label="White-hand Flanker" category="71" did="1879251061" parentZoneId="1879231078" longitude="-56.524296" latitude="-46.49861"/>
<marker id="660607083" label="White-hand Invader" category="71" did="1879241134" parentZoneId="1879231078" longitude="-56.524296" latitude="-46.49861"/>
<marker id="660607084" label="Norcrofts Field-bear" category="71" did="1879241438" parentZoneId="1879231078" longitude="-56.524296" latitude="-46.49861"/>
<marker id="660607085" label="White-hand Raider" category="71" did="1879241132" parentZoneId="1879231078" longitude="-56.524296" latitude="-46.49861"/>
<marker id="660607086" label="White-hand Scout" category="71" did="1879241138" parentZoneId="1879231078" longitude="-56.524296" latitude="-46.3135"/>
<marker id="660607087" label="Norcrofts Prowler" category="71" did="1879241347" parentZoneId="1879231078" longitude="-56.524296" latitude="-46.3135"/>
<marker id="660607088" label="Uruk-hai Marauder" category="71" did="1879241793" parentZoneId="1879231078" longitude="-56.524296" latitude="-46.3135"/>
<marker id="660607089" label="White-hand Corruptor" category="71" did="1879251062" parentZoneId="1879231078" longitude="-56.524296" latitude="-46.3135"/>
<marker id="660607090" label="White-hand Flanker" category="71" did="1879251061" parentZoneId="1879231078" longitude="-56.524296" latitude="-46.3135"/>
<marker id="660607091" label="White-hand Invader" category="71" did="1879241134" parentZoneId="1879231078" longitude="-56.524296" latitude="-46.3135"/>
<marker id="660607092" label="Norcrofts Field-bear" category="71" did="1879241438" parentZoneId="1879231078" longitude="-56.524296" latitude="-46.3135"/>
<marker id="660607093" label="White-hand Raider" category="71" did="1879241132" parentZoneId="1879231078" longitude="-56.524296" latitude="-46.3135"/>
<marker id="660607094" label="White-hand Scout" category="71" did="1879241138" parentZoneId="1879231078" longitude="-56.52121" latitude="-46.12812"/>
<marker id="660607095" label="Norcrofts Prowler" category="71" did="1879241347" parentZoneId="1879231078" longitude="-56.52121" latitude="-46.12812"/>
<marker id="660607096" label="Uruk-hai Marauder" category="71" did="1879241793" parentZoneId="1879231078" longitude="-56.52121" latitude="-46.12812"/>
<marker id="660607097" label="White-hand Corruptor" category="71" did="1879251062" parentZoneId="1879231078" longitude="-56.52121" latitude="-46.12812"/>
<marker id="660607098" label="White-hand Flanker" category="71" did="1879251061" parentZoneId="1879231078" longitude="-56.52121" latitude="-46.12812"/>
<marker id="660607099" label="White-hand Invader" category="71" did="1879241134" parentZoneId="1879231078" longitude="-56.52121" latitude="-46.12812"/>
<marker id="660607100" label="Norcrofts Field-bear" category="71" did="1879241438" parentZoneId="1879231078" longitude="-56.52121" latitude="-46.12812"/>
<marker id="660607101" label="White-hand Raider" category="71" did="1879241132" parentZoneId="1879231078" longitude="-56.52121" latitude="-46.12812"/>
<marker id="660607102" label="White-hand Scout" category="71" did="1879241138" parentZoneId="1879231078" longitude="-57.083786" latitude="-46.686737"/>
<marker id="660607103" label="Norcrofts Prowler" category="71" did="1879241347" parentZoneId="1879231078" longitude="-57.083786" latitude="-46.686737"/>
<marker id="660607104" label="Uruk-hai Marauder" category="71" did="1879241793" parentZoneId="1879231078" longitude="-57.083786" latitude="-46.686737"/>
<marker id="660607105" label="White-hand Corruptor" category="71" did="1879251062" parentZoneId="1879231078" longitude="-57.083786" latitude="-46.686737"/>
<marker id="660607106" label="White-hand Flanker" category="71" did="1879251061" parentZoneId="1879231078" longitude="-57.083786" latitude="-46.686737"/>
<marker id="660607107" label="White-hand Invader" category="71" did="1879241134" parentZoneId="1879231078" longitude="-57.083786" latitude="-46.686737"/>
<marker id="660607108" label="Norcrofts Field-bear" category="71" did="1879241438" parentZoneId="1879231078" longitude="-57.083786" latitude="-46.686737"/>
<marker id="660607109" label="White-hand Raider" category="71" did="1879241132" parentZoneId="1879231078" longitude="-57.083786" latitude="-46.686737"/>
<marker id="660607110" label="White-hand Scout" category="71" did="1879241138" parentZoneId="1879231078" longitude="-57.08364" latitude="-46.49886"/>
<marker id="660607111" label="Norcrofts Prowler" category="71" did="1879241347" parentZoneId="1879231078" longitude="-57.08364" latitude="-46.49886"/>
<marker id="660607112" label="Uruk-hai Marauder" category="71" did="1879241793" parentZoneId="1879231078" longitude="-57.08364" latitude="-46.49886"/>
<marker id="660607113" label="White-hand Corruptor" category="71" did="1879251062" parentZoneId="1879231078" longitude="-57.08364" latitude="-46.49886"/>
<marker id="660607114" label="White-hand Flanker" category="71" did="1879251061" parentZoneId="1879231078" longitude="-57.08364" latitude="-46.49886"/>
<marker id="660607115" label="White-hand Invader" category="71" did="1879241134" parentZoneId="1879231078" longitude="-57.08364" latitude="-46.49886"/>
<marker id="660607116" label="Norcrofts Field-bear" category="71" did="1879241438" parentZoneId="1879231078" longitude="-57.08364" latitude="-46.49886"/>
<marker id="660607117" label="White-hand Raider" category="71" did="1879241132" parentZoneId="1879231078" longitude="-57.08364" latitude="-46.49886"/>
<marker id="660607118" label="White-hand Scout" category="71" did="1879241138" parentZoneId="1879231078" longitude="-57.08714" latitude="-46.26837"/>
<marker id="660607119" label="Norcrofts Prowler" category="71" did="1879241347" parentZoneId="1879231078" longitude="-57.08714" latitude="-46.26837"/>
<marker id="660607120" label="Uruk-hai Marauder" category="71" did="1879241793" parentZoneId="1879231078" longitude="-57.08714" latitude="-46.26837"/>
<marker id="660607121" label="White-hand Corruptor" category="71" did="1879251062" parentZoneId="1879231078" longitude="-57.08714" latitude="-46.26837"/>
<marker id="660607122" label="White-hand Flanker" category="71" did="1879251061" parentZoneId="1879231078" longitude="-57.08714" latitude="-46.26837"/>
<marker id="660607123" label="White-hand Invader" category="71" did="1879241134" parentZoneId="1879231078" longitude="-57.08714" latitude="-46.26837"/>
<marker id="660607124" label="Norcrofts Field-bear" category="71" did="1879241438" parentZoneId="1879231078" longitude="-57.08714" latitude="-46.26837"/>
<marker id="660607125" label="White-hand Raider" category="71" did="1879241132" parentZoneId="1879231078" longitude="-57.08714" latitude="-46.26837"/>
<marker id="660607126" label="White-hand Scout" category="71" did="1879241138" parentZoneId="1879231078" longitude="-57.080547" latitude="-46.128372"/>
<marker id="660607127" label="Norcrofts Prowler" category="71" did="1879241347" parentZoneId="1879231078" longitude="-57.080547" latitude="-46.128372"/>
<marker id="660607128" label="Uruk-hai Marauder" category="71" did="1879241793" parentZoneId="1879231078" longitude="-57.080547" latitude="-46.128372"/>
<marker id="660607129" label="White-hand Corruptor" category="71" did="1879251062" parentZoneId="1879231078" longitude="-57.080547" latitude="-46.128372"/>
<marker id="660607130" label="White-hand Flanker" category="71" did="1879251061" parentZoneId="1879231078" longitude="-57.080547" latitude="-46.128372"/>
<marker id="660607131" label="White-hand Invader" category="71" did="1879241134" parentZoneId="1879231078" longitude="-57.080547" latitude="-46.128372"/>
<marker id="660607132" label="Norcrofts Field-bear" category="71" did="1879241438" parentZoneId="1879231078" longitude="-57.080547" latitude="-46.128372"/>
<marker id="660607133" label="White-hand Raider" category="71" did="1879241132" parentZoneId="1879231078" longitude="-57.080547" latitude="-46.128372"/>
<marker id="660607134" label="White-hand Scout" category="71" did="1879241138" parentZoneId="1879231078" longitude="-56.93" latitude="-46.686283"/>
<marker id="660607135" label="Norcrofts Prowler" category="71" did="1879241347" parentZoneId="1879231078" longitude="-56.93" latitude="-46.686283"/>
<marker id="660607136" label="Uruk-hai Marauder" category="71" did="1879241793" parentZoneId="1879231078" longitude="-56.93" latitude="-46.686283"/>
<marker id="660607137" label="White-hand Corruptor" category="71" did="1879251062" parentZoneId="1879231078" longitude="-56.93" latitude="-46.686283"/>
<marker id="660607138" label="White-hand Flanker" category="71" did="1879251061" parentZoneId="1879231078" longitude="-56.93" latitude="-46.686283"/>
<marker id="660607139" label="White-hand Invader" category="71" did="1879241134" parentZoneId="1879231078" longitude="-56.93" latitude="-46.686283"/>
<marker id="660607140" label="Norcrofts Field-bear" category="71" did="1879241438" parentZoneId="1879231078" longitude="-56.93" latitude="-46.686283"/>
<marker id="660607141" label="White-hand Raider" category="71" did="1879241132" parentZoneId="1879231078" longitude="-56.93" latitude="-46.686283"/>
<marker id="660607142" label="Horse" category="78" did="1879255968" parentZoneId="1879231078" longitude="-56.576843" latitude="-46.14586"/>
<marker id="660607143" label="Fox" category="78" did="1879078196" parentZoneId="1879231078" longitude="-56.576843" latitude="-46.14586"/>
<marker id="660607144" label="Indigo Plant" category="77" did="1879054949" parentZoneId="1879231078" longitude="-56.576843" latitude="-46.14586"/>
<marker id="660607145" label="Rabbit" category="78" did="1879079062" parentZoneId="1879231078" longitude="-56.576843" latitude="-46.14586"/>
<marker id="660607146" label="Bunch of Strawberries" category="77" did="1879061415" parentZoneId="1879231078" longitude="-56.576843" latitude="-46.14586"/>
<marker id="660607147" label="Drop of Fine Clover Honey" category="77" did="1879061399" parentZoneId="1879231078" longitude="-56.576843" latitude="-46.14586"/>
<marker id="660607148" label="Bunch of Raspberries" category="77" did="1879061417" parentZoneId="1879231078" longitude="-56.576843" latitude="-46.14586"/>
<marker id="660607149" label="Tater" category="77" did="1879061257" parentZoneId="1879231078" longitude="-56.576843" latitude="-46.14586"/>
<marker id="660607150" label="Bunch of Blackberries" category="77" did="1879061418" parentZoneId="1879231078" longitude="-56.576843" latitude="-46.14586"/>
<marker id="660607151" label="Bunch of Blueberries" category="77" did="1879061342" parentZoneId="1879231078" longitude="-56.576843" latitude="-46.14586"/>
<marker id="660607152" label="Horse" category="78" did="1879255968" parentZoneId="1879231078" longitude="-56.547546" latitude="-46.557026"/>
<marker id="660607153" label="Fox" category="78" did="1879078196" parentZoneId="1879231078" longitude="-56.547546" latitude="-46.557026"/>
<marker id="660607154" label="Indigo Plant" category="77" did="1879054949" parentZoneId="1879231078" longitude="-56.547546" latitude="-46.557026"/>
<marker id="660607155" label="Rabbit" category="78" did="1879079062" parentZoneId="1879231078" longitude="-56.547546" latitude="-46.557026"/>
<marker id="660607156" label="Bunch of Strawberries" category="77" did="1879061415" parentZoneId="1879231078" longitude="-56.547546" latitude="-46.557026"/>
<marker id="660607157" label="Drop of Fine Clover Honey" category="77" did="1879061399" parentZoneId="1879231078" longitude="-56.547546" latitude="-46.557026"/>
<marker id="660607158" label="Bunch of Raspberries" category="77" did="1879061417" parentZoneId="1879231078" longitude="-56.547546" latitude="-46.557026"/>
<marker id="660607159" label="Tater" category="77" did="1879061257" parentZoneId="1879231078" longitude="-56.547546" latitude="-46.557026"/>
<marker id="660607160" label="Bunch of Blackberries" category="77" did="1879061418" parentZoneId="1879231078" longitude="-56.547546" latitude="-46.557026"/>
<marker id="660607161" label="Bunch of Blueberries" category="77" did="1879061342" parentZoneId="1879231078" longitude="-56.547546" latitude="-46.557026"/>
<marker id="660607162" label="Horse" category="78" did="1879255968" parentZoneId="1879231078" longitude="-56.787373" latitude="-46.459442"/>
<marker id="660607163" label="Fox" category="78" did="1879078196" parentZoneId="1879231078" longitude="-56.787373" latitude="-46.459442"/>
<marker id="660607164" label="Indigo Plant" category="77" did="1879054949" parentZoneId="1879231078" longitude="-56.787373" latitude="-46.459442"/>
<marker id="660607165" label="Rabbit" category="78" did="1879079062" parentZoneId="1879231078" longitude="-56.787373" latitude="-46.459442"/>
<marker id="660607166" label="Bunch of Strawberries" category="77" did="1879061415" parentZoneId="1879231078" longitude="-56.787373" latitude="-46.459442"/>
<marker id="660607167" label="Drop of Fine Clover Honey" category="77" did="1879061399" parentZoneId="1879231078" longitude="-56.787373" latitude="-46.459442"/>
<marker id="660607168" label="Bunch of Raspberries" category="77" did="1879061417" parentZoneId="1879231078" longitude="-56.787373" latitude="-46.459442"/>
<marker id="660607169" label="Tater" category="77" did="1879061257" parentZoneId="1879231078" longitude="-56.787373" latitude="-46.459442"/>
<marker id="660607170" label="Bunch of Blackberries" category="77" did="1879061418" parentZoneId="1879231078" longitude="-56.787373" latitude="-46.459442"/>
<marker id="660607171" label="Bunch of Blueberries" category="77" did="1879061342" parentZoneId="1879231078" longitude="-56.787373" latitude="-46.459442"/>
<marker id="660607172" label="Horse" category="78" did="1879255968" parentZoneId="1879231078" longitude="-57.048622" latitude="-46.687733"/>
<marker id="660607173" label="Fox" category="78" did="1879078196" parentZoneId="1879231078" longitude="-57.048622" latitude="-46.687733"/>
<marker id="660607174" label="Indigo Plant" category="77" did="1879054949" parentZoneId="1879231078" longitude="-57.048622" latitude="-46.687733"/>
<marker id="660607175" label="Rabbit" category="78" did="1879079062" parentZoneId="1879231078" longitude="-57.048622" latitude="-46.687733"/>
<marker id="660607176" label="Bunch of Strawberries" category="77" did="1879061415" parentZoneId="1879231078" longitude="-57.048622" latitude="-46.687733"/>
<marker id="660607177" label="Drop of Fine Clover Honey" category="77" did="1879061399" parentZoneId="1879231078" longitude="-57.048622" latitude="-46.687733"/>
<marker id="660607178" label="Bunch of Raspberries" category="77" did="1879061417" parentZoneId="1879231078" longitude="-57.048622" latitude="-46.687733"/>
<marker id="660607179" label="Tater" category="77" did="1879061257" parentZoneId="1879231078" longitude="-57.048622" latitude="-46.687733"/>
<marker id="660607180" label="Bunch of Blackberries" category="77" did="1879061418" parentZoneId="1879231078" longitude="-57.048622" latitude="-46.687733"/>
<marker id="660607181" label="Bunch of Blueberries" category="77" did="1879061342" parentZoneId="1879231078" longitude="-57.048622" latitude="-46.687733"/>
<marker id="660607182" label="Horse" category="78" did="1879255968" parentZoneId="1879231078" longitude="-57.086338" latitude="-46.404686"/>
<marker id="660607183" label="Fox" category="78" did="1879078196" parentZoneId="1879231078" longitude="-57.086338" latitude="-46.404686"/>
<marker id="660607184" label="Indigo Plant" category="77" did="1879054949" parentZoneId="1879231078" longitude="-57.086338" latitude="-46.404686"/>
<marker id="660607185" label="Rabbit" category="78" did="1879079062" parentZoneId="1879231078" longitude="-57.086338" latitude="-46.404686"/>
<marker id="660607186" label="Bunch of Strawberries" category="77" did="1879061415" parentZoneId="1879231078" longitude="-57.086338" latitude="-46.404686"/>
<marker id="660607187" label="Drop of Fine Clover Honey" category="77" did="1879061399" parentZoneId="1879231078" longitude="-57.086338" latitude="-46.404686"/>
<marker id="660607188" label="Bunch of Raspberries" category="77" did="1879061417" parentZoneId="1879231078" longitude="-57.086338" latitude="-46.404686"/>
<marker id="660607189" label="Tater" category="77" did="1879061257" parentZoneId="1879231078" longitude="-57.086338" latitude="-46.404686"/>
<marker id="660607190" label="Bunch of Blackberries" category="77" did="1879061418" parentZoneId="1879231078" longitude="-57.086338" latitude="-46.404686"/>
<marker id="660607191" label="Bunch of Blueberries" category="77" did="1879061342" parentZoneId="1879231078" longitude="-57.086338" latitude="-46.404686"/>
<marker id="660611072" label="White-hand Invader" category="71" did="1879241134" parentZoneId="1879231078" longitude="-56.821552" latitude="-45.573547"/>
<marker id="660611073" label="White-hand Raider" category="71" did="1879241132" parentZoneId="1879231078" longitude="-56.821552" latitude="-45.573547"/>
<marker id="660611074" label="White-hand Scout" category="71" did="1879241138" parentZoneId="1879231078" longitude="-56.821552" latitude="-45.573547"/>
<marker id="660611075" label="Norcrofts Prowler" category="71" did="1879241347" parentZoneId="1879231078" longitude="-56.821552" latitude="-45.573547"/>
<marker id="660611076" label="Norcrofts Field-bear" category="71" did="1879241438" parentZoneId="1879231078" longitude="-56.821552" latitude="-45.573547"/>
<marker id="660611083" label="Uruk-hai Marauder" category="71" did="1879241793" parentZoneId="1879231078" longitude="-56.821552" latitude="-45.573547"/>
<marker id="660611091" label="White-hand Corruptor" category="71" did="1879251062" parentZoneId="1879231078" longitude="-56.821552" latitude="-45.573547"/>
<marker id="660611092" label="White-hand Flanker" category="71" did="1879251061" parentZoneId="1879231078" longitude="-56.821552" latitude="-45.573547"/>
<marker id="660611104" label="Bunch of Blackberries" category="77" did="1879061418" parentZoneId="1879231078" longitude="-56.807148" latitude="-45.563564"/>
<marker id="660611105" label="Heavy Oak Branches" category="50" did="1879239127" parentZoneId="1879231078" longitude="-56.765137" latitude="-45.586575"/>
<marker id="660611106" label="Riddermark Skarn Deposit" category="50" did="1879239161" parentZoneId="1879231078" longitude="-56.765137" latitude="-45.586575"/>
<marker id="660611107" label="Oak Branches" category="50" did="1879239165" parentZoneId="1879231078" longitude="-56.765137" latitude="-45.586575"/>
<marker id="660611108" label="Rich Riddermark Skarn Deposit" category="50" did="1879239175" parentZoneId="1879231078" longitude="-56.765137" latitude="-45.586575"/>
<marker id="660611109" label="Indigo Plant" category="77" did="1879054949" parentZoneId="1879231078" longitude="-56.807148" latitude="-45.563564"/>
<marker id="660611110" label="Rabbit" category="78" did="1879079062" parentZoneId="1879231078" longitude="-56.807148" latitude="-45.563564"/>
<marker id="660611111" label="Tater" category="77" did="1879061257" parentZoneId="1879231078" longitude="-56.807148" latitude="-45.563564"/>
<marker id="660611112" label="Fox" category="78" did="1879078196" parentZoneId="1879231078" longitude="-56.807148" latitude="-45.563564"/>
<marker id="660611113" label="Bunch of Blueberries" category="77" did="1879061342" parentZoneId="1879231078" longitude="-56.807148" latitude="-45.563564"/>
<marker id="660611114" label="Drop of Fine Clover Honey" category="77" did="1879061399" parentZoneId="1879231078" longitude="-56.807148" latitude="-45.563564"/>
<marker id="660611115" label="Horse" category="78" did="1879255968" parentZoneId="1879231078" longitude="-56.807148" latitude="-45.563564"/>
<marker id="660611116" label="Bunch of Strawberries" category="77" did="1879061415" parentZoneId="1879231078" longitude="-56.807148" latitude="-45.563564"/>
<marker id="660611117" label="Bunch of Raspberries" category="77" did="1879061417" parentZoneId="1879231078" longitude="-56.807148" latitude="-45.563564"/>
<marker id="660611122" label="White-hand Scout" category="71" did="1879241138" parentZoneId="1879231078" longitude="-56.92985" latitude="-45.6934"/>
<marker id="660611123" label="Norcrofts Prowler" category="71" did="1879241347" parentZoneId="1879231078" longitude="-56.92985" latitude="-45.6934"/>
<marker id="660611124" label="Uruk-hai Marauder" category="71" did="1879241793" parentZoneId="1879231078" longitude="-56.92985" latitude="-45.6934"/>
<marker id="660611125" label="White-hand Corruptor" category="71" did="1879251062" parentZoneId="1879231078" longitude="-56.92985" latitude="-45.6934"/>
<marker id="660611126" label="White-hand Flanker" category="71" did="1879251061" parentZoneId="1879231078" longitude="-56.92985" latitude="-45.6934"/>
<marker id="660611127" label="White-hand Invader" category="71" did="1879241134" parentZoneId="1879231078" longitude="-56.92985" latitude="-45.6934"/>
<marker id="660611128" label="Norcrofts Field-bear" category="71" did="1879241438" parentZoneId="1879231078" longitude="-56.92985" latitude="-45.6934"/>
<marker id="660611129" label="White-hand Raider" category="71" did="1879241132" parentZoneId="1879231078" longitude="-56.92985" latitude="-45.6934"/>
<marker id="660611130" label="White-hand Scout" category="71" did="1879241138" parentZoneId="1879231078" longitude="-56.929844" latitude="-45.50829"/>
<marker id="660611131" label="Norcrofts Prowler" category="71" did="1879241347" parentZoneId="1879231078" longitude="-56.929844" latitude="-45.50829"/>
<marker id="660611132" label="Uruk-hai Marauder" category="71" did="1879241793" parentZoneId="1879231078" longitude="-56.929844" latitude="-45.50829"/>
<marker id="660611133" label="White-hand Corruptor" category="71" did="1879251062" parentZoneId="1879231078" longitude="-56.929844" latitude="-45.50829"/>
<marker id="660611134" label="White-hand Flanker" category="71" did="1879251061" parentZoneId="1879231078" longitude="-56.929844" latitude="-45.50829"/>
<marker id="660611135" label="White-hand Invader" category="71" did="1879241134" parentZoneId="1879231078" longitude="-56.929844" latitude="-45.50829"/>
<marker id="660611136" label="Norcrofts Field-bear" category="71" did="1879241438" parentZoneId="1879231078" longitude="-56.929844" latitude="-45.50829"/>
<marker id="660611137" label="White-hand Raider" category="71" did="1879241132" parentZoneId="1879231078" longitude="-56.929844" latitude="-45.50829"/>
<marker id="660611138" label="White-hand Scout" category="71" did="1879241138" parentZoneId="1879231078" longitude="-56.926758" latitude="-45.322914"/>
<marker id="660611139" label="Norcrofts Prowler" category="71" did="1879241347" parentZoneId="1879231078" longitude="-56.926758" latitude="-45.322914"/>
<marker id="660611140" label="Uruk-hai Marauder" category="71" did="1879241793" parentZoneId="1879231078" longitude="-56.926758" latitude="-45.322914"/>
<marker id="660611141" label="White-hand Corruptor" category="71" did="1879251062" parentZoneId="1879231078" longitude="-56.926758" latitude="-45.322914"/>
<marker id="660611142" label="White-hand Flanker" category="71" did="1879251061" parentZoneId="1879231078" longitude="-56.926758" latitude="-45.322914"/>
<marker id="660611143" label="White-hand Invader" category="71" did="1879241134" parentZoneId="1879231078" longitude="-56.926758" latitude="-45.322914"/>
<marker id="660611144" label="Norcrofts Field-bear" category="71" did="1879241438" parentZoneId="1879231078" longitude="-56.926758" latitude="-45.322914"/>
<marker id="660611145" label="White-hand Raider" category="71" did="1879241132" parentZoneId="1879231078" longitude="-56.926758" latitude="-45.322914"/>
<marker id="660611146" label="White-hand Scout" category="71" did="1879241138" parentZoneId="1879231078" longitude="-56.719734" latitude="-45.31812"/>
<marker id="660611147" label="Norcrofts Prowler" category="71" did="1879241347" parentZoneId="1879231078" longitude="-56.719734" latitude="-45.31812"/>
<marker id="660611148" label="Uruk-hai Marauder" category="71" did="1879241793" parentZoneId="1879231078" longitude="-56.719734" latitude="-45.31812"/>
<marker id="660611149" label="White-hand Corruptor" category="71" did="1879251062" parentZoneId="1879231078" longitude="-56.719734" latitude="-45.31812"/>
<marker id="660611150" label="White-hand Flanker" category="71" did="1879251061" parentZoneId="1879231078" longitude="-56.719734" latitude="-45.31812"/>
<marker id="660611151" label="White-hand Invader" category="71" did="1879241134" parentZoneId="1879231078" longitude="-56.719734" latitude="-45.31812"/>
<marker id="660611152" label="Norcrofts Field-bear" category="71" did="1879241438" parentZoneId="1879231078" longitude="-56.719734" latitude="-45.31812"/>
<marker id="660611153" label="White-hand Raider" category="71" did="1879241132" parentZoneId="1879231078" longitude="-56.719734" latitude="-45.31812"/>
<marker id="660611154" label="White-hand Scout" category="71" did="1879241138" parentZoneId="1879231078" longitude="-56.60948" latitude="-45.52886"/>
<marker id="660611155" label="Norcrofts Prowler" category="71" did="1879241347" parentZoneId="1879231078" longitude="-56.60948" latitude="-45.52886"/>
<marker id="660611156" label="Uruk-hai Marauder" category="71" did="1879241793" parentZoneId="1879231078" longitude="-56.60948" latitude="-45.52886"/>
<marker id="660611157" label="White-hand Corruptor" category="71" did="1879251062" parentZoneId="1879231078" longitude="-56.60948" latitude="-45.52886"/>
<marker id="660611158" label="White-hand Flanker" category="71" did="1879251061" parentZoneId="1879231078" longitude="-56.60948" latitude="-45.52886"/>
<marker id="660611159" label="White-hand Invader" category="71" did="1879241134" parentZoneId="1879231078" longitude="-56.60948" latitude="-45.52886"/>
<marker id="660611160" label="Norcrofts Field-bear" category="71" did="1879241438" parentZoneId="1879231078" longitude="-56.60948" latitude="-45.52886"/>
<marker id="660611161" label="White-hand Raider" category="71" did="1879241132" parentZoneId="1879231078" longitude="-56.60948" latitude="-45.52886"/>
<marker id="660611162" label="White-hand Scout" category="71" did="1879241138" parentZoneId="1879231078" longitude="-56.72282" latitude="-45.688614"/>
<marker id="660611163" label="Norcrofts Prowler" category="71" did="1879241347" parentZoneId="1879231078" longitude="-56.72282" latitude="-45.688614"/>
<marker id="660611164" label="Uruk-hai Marauder" category="71" did="1879241793" parentZoneId="1879231078" longitude="-56.72282" latitude="-45.688614"/>
<marker id="660611165" label="White-hand Corruptor" category="71" did="1879251062" parentZoneId="1879231078" longitude="-56.72282" latitude="-45.688614"/>
<marker id="660611166" label="White-hand Flanker" category="71" did="1879251061" parentZoneId="1879231078" longitude="-56.72282" latitude="-45.688614"/>
<marker id="660611167" label="White-hand Invader" category="71" did="1879241134" parentZoneId="1879231078" longitude="-56.72282" latitude="-45.688614"/>
<marker id="660611168" label="Norcrofts Field-bear" category="71" did="1879241438" parentZoneId="1879231078" longitude="-56.72282" latitude="-45.688614"/>
<marker id="660611169" label="White-hand Raider" category="71" did="1879241132" parentZoneId="1879231078" longitude="-56.72282" latitude="-45.688614"/>
<marker id="660611170" label="White-hand Scout" category="71" did="1879241138" parentZoneId="1879231078" longitude="-56.72297" latitude="-45.876488"/>
<marker id="660611171" label="Norcrofts Prowler" category="71" did="1879241347" parentZoneId="1879231078" longitude="-56.72297" latitude="-45.876488"/>
<marker id="660611172" label="Uruk-hai Marauder" category="71" did="1879241793" parentZoneId="1879231078" longitude="-56.72297" latitude="-45.876488"/>
<marker id="660611173" label="White-hand Corruptor" category="71" did="1879251062" parentZoneId="1879231078" longitude="-56.72297" latitude="-45.876488"/>
<marker id="660611174" label="White-hand Flanker" category="71" did="1879251061" parentZoneId="1879231078" longitude="-56.72297" latitude="-45.876488"/>
<marker id="660611175" label="White-hand Invader" category="71" did="1879241134" parentZoneId="1879231078" longitude="-56.72297" latitude="-45.876488"/>
<marker id="660611176" label="Norcrofts Field-bear" category="71" did="1879241438" parentZoneId="1879231078" longitude="-56.72297" latitude="-45.876488"/>
<marker id="660611177" label="White-hand Raider" category="71" did="1879241132" parentZoneId="1879231078" longitude="-56.72297" latitude="-45.876488"/>
<marker id="660611178" label="White-hand Scout" category="71" did="1879241138" parentZoneId="1879231078" longitude="-56.524452" latitude="-45.88149"/>
<marker id="660611179" label="Norcrofts Prowler" category="71" did="1879241347" parentZoneId="1879231078" longitude="-56.524452" latitude="-45.88149"/>
<marker id="660611180" label="Uruk-hai Marauder" category="71" did="1879241793" parentZoneId="1879231078" longitude="-56.524452" latitude="-45.88149"/>
<marker id="660611181" label="White-hand Corruptor" category="71" did="1879251062" parentZoneId="1879231078" longitude="-56.524452" latitude="-45.88149"/>
<marker id="660611182" label="White-hand Flanker" category="71" did="1879251061" parentZoneId="1879231078" longitude="-56.524452" latitude="-45.88149"/>
<marker id="660611183" label="White-hand Invader" category="71" did="1879241134" parentZoneId="1879231078" longitude="-56.524452" latitude="-45.88149"/>
<marker id="660611184" label="Norcrofts Field-bear" category="71" did="1879241438" parentZoneId="1879231078" longitude="-56.524452" latitude="-45.88149"/>
<marker id="660611185" label="White-hand Raider" category="71" did="1879241132" parentZoneId="1879231078" longitude="-56.524452" latitude="-45.88149"/>
<marker id="660611186" label="White-hand Scout" category="71" did="1879241138" parentZoneId="1879231078" longitude="-56.529354" latitude="-45.649628"/>
<marker id="660611187" label="Norcrofts Prowler" category="71" did="1879241347" parentZoneId="1879231078" longitude="-56.529354" latitude="-45.649628"/>
<marker id="660611188" label="Uruk-hai Marauder" category="71" did="1879241793" parentZoneId="1879231078" longitude="-56.529354" latitude="-45.649628"/>
<marker id="660611189" label="White-hand Corruptor" category="71" did="1879251062" parentZoneId="1879231078" longitude="-56.529354" latitude="-45.649628"/>
<marker id="660611190" label="White-hand Flanker" category="71" did="1879251061" parentZoneId="1879231078" longitude="-56.529354" latitude="-45.649628"/>
<marker id="660611191" label="White-hand Invader" category="71" did="1879241134" parentZoneId="1879231078" longitude="-56.529354" latitude="-45.649628"/>
<marker id="660611192" label="Norcrofts Field-bear" category="71" did="1879241438" parentZoneId="1879231078" longitude="-56.529354" latitude="-45.649628"/>
<marker id="660611193" label="White-hand Raider" category="71" did="1879241132" parentZoneId="1879231078" longitude="-56.529354" latitude="-45.649628"/>
<marker id="660611194" label="White-hand Scout" category="71" did="1879241138" parentZoneId="1879231078" longitude="-56.52121" latitude="-45.32312"/>
<marker id="660611195" label="Norcrofts Prowler" category="71" did="1879241347" parentZoneId="1879231078" longitude="-56.52121" latitude="-45.32312"/>
<marker id="660611196" label="Uruk-hai Marauder" category="71" did="1879241793" parentZoneId="1879231078" longitude="-56.52121" latitude="-45.32312"/>
<marker id="660611197" label="White-hand Corruptor" category="71" did="1879251062" parentZoneId="1879231078" longitude="-56.52121" latitude="-45.32312"/>
<marker id="660611198" label="White-hand Flanker" category="71" did="1879251061" parentZoneId="1879231078" longitude="-56.52121" latitude="-45.32312"/>
<marker id="660611199" label="White-hand Invader" category="71" did="1879241134" parentZoneId="1879231078" longitude="-56.52121" latitude="-45.32312"/>
<marker id="660611200" label="Norcrofts Field-bear" category="71" did="1879241438" parentZoneId="1879231078" longitude="-56.52121" latitude="-45.32312"/>
<marker id="660611201" label="White-hand Raider" category="71" did="1879241132" parentZoneId="1879231078" longitude="-56.52121" latitude="-45.32312"/>
<marker id="660611202" label="White-hand Scout" category="71" did="1879241138" parentZoneId="1879231078" longitude="-57.083786" latitude="-45.881737"/>
<marker id="660611203" label="Norcrofts Prowler" category="71" did="1879241347" parentZoneId="1879231078" longitude="-57.083786" latitude="-45.881737"/>
<marker id="660611204" label="Uruk-hai Marauder" category="71" did="1879241793" parentZoneId="1879231078" longitude="-57.083786" latitude="-45.881737"/>
<marker id="660611205" label="White-hand Corruptor" category="71" did="1879251062" parentZoneId="1879231078" longitude="-57.083786" latitude="-45.881737"/>
<marker id="660611206" label="White-hand Flanker" category="71" did="1879251061" parentZoneId="1879231078" longitude="-57.083786" latitude="-45.881737"/>
<marker id="660611207" label="White-hand Invader" category="71" did="1879241134" parentZoneId="1879231078" longitude="-57.083786" latitude="-45.881737"/>
<marker id="660611208" label="Norcrofts Field-bear" category="71" did="1879241438" parentZoneId="1879231078" longitude="-57.083786" latitude="-45.881737"/>
<marker id="660611209" label="White-hand Raider" category="71" did="1879241132" parentZoneId="1879231078" longitude="-57.083786" latitude="-45.881737"/>
<marker id="660611210" label="White-hand Scout" category="71" did="1879241138" parentZoneId="1879231078" longitude="-57.08364" latitude="-45.693863"/>
<marker id="660611211" label="Norcrofts Prowler" category="71" did="1879241347" parentZoneId="1879231078" longitude="-57.08364" latitude="-45.693863"/>
<marker id="660611212" label="Uruk-hai Marauder" category="71" did="1879241793" parentZoneId="1879231078" longitude="-57.08364" latitude="-45.693863"/>
<marker id="660611213" label="White-hand Corruptor" category="71" did="1879251062" parentZoneId="1879231078" longitude="-57.08364" latitude="-45.693863"/>
<marker id="660611214" label="White-hand Flanker" category="71" did="1879251061" parentZoneId="1879231078" longitude="-57.08364" latitude="-45.693863"/>
<marker id="660611215" label="White-hand Invader" category="71" did="1879241134" parentZoneId="1879231078" longitude="-57.08364" latitude="-45.693863"/>
<marker id="660611216" label="Norcrofts Field-bear" category="71" did="1879241438" parentZoneId="1879231078" longitude="-57.08364" latitude="-45.693863"/>
<marker id="660611217" label="White-hand Raider" category="71" did="1879241132" parentZoneId="1879231078" longitude="-57.08364" latitude="-45.693863"/>
<marker id="660611218" label="White-hand Scout" category="71" did="1879241138" parentZoneId="1879231078" longitude="-57.083633" latitude="-45.508747"/>
<marker id="660611219" label="Norcrofts Prowler" category="71" did="1879241347" parentZoneId="1879231078" longitude="-57.083633" latitude="-45.508747"/>
<marker id="660611220" label="Uruk-hai Marauder" category="71" did="1879241793" parentZoneId="1879231078" longitude="-57.083633" latitude="-45.508747"/>
<marker id="660611221" label="White-hand Corruptor" category="71" did="1879251062" parentZoneId="1879231078" longitude="-57.083633" latitude="-45.508747"/>
<marker id="660611222" label="White-hand Flanker" category="71" did="1879251061" parentZoneId="1879231078" longitude="-57.083633" latitude="-45.508747"/>
<marker id="660611223" label="White-hand Invader" category="71" did="1879241134" parentZoneId="1879231078" longitude="-57.083633" latitude="-45.508747"/>
<marker id="660611224" label="Norcrofts Field-bear" category="71" did="1879241438" parentZoneId="1879231078" longitude="-57.083633" latitude="-45.508747"/>
<marker id="660611225" label="White-hand Raider" category="71" did="1879241132" parentZoneId="1879231078" longitude="-57.083633" latitude="-45.508747"/>
<marker id="660611226" label="White-hand Scout" category="71" did="1879241138" parentZoneId="1879231078" longitude="-57.080547" latitude="-45.32337"/>
<marker id="660611227" label="Norcrofts Prowler" category="71" did="1879241347" parentZoneId="1879231078" longitude="-57.080547" latitude="-45.32337"/>
<marker id="660611228" label="Uruk-hai Marauder" category="71" did="1879241793" parentZoneId="1879231078" longitude="-57.080547" latitude="-45.32337"/>
<marker id="660611229" label="White-hand Corruptor" category="71" did="1879251062" parentZoneId="1879231078" longitude="-57.080547" latitude="-45.32337"/>
<marker id="660611230" label="White-hand Flanker" category="71" did="1879251061" parentZoneId="1879231078" longitude="-57.080547" latitude="-45.32337"/>
<marker id="660611231" label="White-hand Invader" category="71" did="1879241134" parentZoneId="1879231078" longitude="-57.080547" latitude="-45.32337"/>
<marker id="660611232" label="Norcrofts Field-bear" category="71" did="1879241438" parentZoneId="1879231078" longitude="-57.080547" latitude="-45.32337"/>
<marker id="660611233" label="White-hand Raider" category="71" did="1879241132" parentZoneId="1879231078" longitude="-57.080547" latitude="-45.32337"/>
<marker id="660611234" label="White-hand Scout" category="71" did="1879241138" parentZoneId="1879231078" longitude="-56.93" latitude="-45.881283"/>
<marker id="660611235" label="Norcrofts Prowler" category="71" did="1879241347" parentZoneId="1879231078" longitude="-56.93" latitude="-45.881283"/>
<marker id="660611236" label="Uruk-hai Marauder" category="71" did="1879241793" parentZoneId="1879231078" longitude="-56.93" latitude="-45.881283"/>
<marker id="660611237" label="White-hand Corruptor" category="71" did="1879251062" parentZoneId="1879231078" longitude="-56.93" latitude="-45.881283"/>
<marker id="660611238" label="White-hand Flanker" category="71" did="1879251061" parentZoneId="1879231078" longitude="-56.93" latitude="-45.881283"/>
<marker id="660611239" label="White-hand Invader" category="71" did="1879241134" parentZoneId="1879231078" longitude="-56.93" latitude="-45.881283"/>
<marker id="660611240" label="Norcrofts Field-bear" category="71" did="1879241438" parentZoneId="1879231078" longitude="-56.93" latitude="-45.881283"/>
<marker id="660611241" label="White-hand Raider" category="71" did="1879241132" parentZoneId="1879231078" longitude="-56.93" latitude="-45.881283"/>
<marker id="660611242" label="Rich Riddermark Skarn Deposit" category="50" did="1879239175" parentZoneId="1879231078" longitude="-56.47284" latitude="-45.259563"/>
<marker id="660611243" label="Heavy Oak Branches" category="50" did="1879239127" parentZoneId="1879231078" longitude="-56.47284" latitude="-45.259563"/>
<marker id="660611244" label="Riddermark Skarn Deposit" category="50" did="1879239161" parentZoneId="1879231078" longitude="-56.47284" latitude="-45.259563"/>
<marker id="660611245" label="Oak Branches" category="50" did="1879239165" parentZoneId="1879231078" longitude="-56.47284" latitude="-45.259563"/>
<marker id="660611246" label="Rich Riddermark Skarn Deposit" category="50" did="1879239175" parentZoneId="1879231078" longitude="-56.577362" latitude="-45.6615"/>
<marker id="660611247" label="Heavy Oak Branches" category="50" did="1879239127" parentZoneId="1879231078" longitude="-56.577362" latitude="-45.6615"/>
<marker id="660611248" label="Riddermark Skarn Deposit" category="50" did="1879239161" parentZoneId="1879231078" longitude="-56.577362" latitude="-45.6615"/>
<marker id="660611249" label="Oak Branches" category="50" did="1879239165" parentZoneId="1879231078" longitude="-56.577362" latitude="-45.6615"/>
<marker id="660611250" label="Rich Riddermark Skarn Deposit" category="50" did="1879239175" parentZoneId="1879231078" longitude="-56.8942" latitude="-45.293007"/>
<marker id="660611251" label="Heavy Oak Branches" category="50" did="1879239127" parentZoneId="1879231078" longitude="-56.8942" latitude="-45.293007"/>
<marker id="660611252" label="Riddermark Skarn Deposit" category="50" did="1879239161" parentZoneId="1879231078" longitude="-56.8942" latitude="-45.293007"/>
<marker id="660611253" label="Oak Branches" category="50" did="1879239165" parentZoneId="1879231078" longitude="-56.8942" latitude="-45.293007"/>
<marker id="660611254" label="Rich Riddermark Skarn Deposit" category="50" did="1879239175" parentZoneId="1879231078" longitude="-57.183212" latitude="-45.79036"/>
<marker id="660611255" label="Heavy Oak Branches" category="50" did="1879239127" parentZoneId="1879231078" longitude="-57.183212" latitude="-45.79036"/>
<marker id="660611256" label="Riddermark Skarn Deposit" category="50" did="1879239161" parentZoneId="1879231078" longitude="-57.183212" latitude="-45.79036"/>
<marker id="660611257" label="Oak Branches" category="50" did="1879239165" parentZoneId="1879231078" longitude="-57.183212" latitude="-45.79036"/>
<marker id="660611258" label="Rich Riddermark Skarn Deposit" category="50" did="1879239175" parentZoneId="1879231078" longitude="-56.622597" latitude="-45.951595"/>
<marker id="660611259" label="Heavy Oak Branches" category="50" did="1879239127" parentZoneId="1879231078" longitude="-56.622597" latitude="-45.951595"/>
<marker id="660611260" label="Riddermark Skarn Deposit" category="50" did="1879239161" parentZoneId="1879231078" longitude="-56.622597" latitude="-45.951595"/>
<marker id="660611261" label="Oak Branches" category="50" did="1879239165" parentZoneId="1879231078" longitude="-56.622597" latitude="-45.951595"/>
<marker id="660611262" label="Rich Riddermark Skarn Deposit" category="50" did="1879239175" parentZoneId="1879231078" longitude="-56.72494" latitude="-45.259018"/>
<marker id="660611263" label="Heavy Oak Branches" category="50" did="1879239127" parentZoneId="1879231078" longitude="-56.72494" latitude="-45.259018"/>
<marker id="660611264" label="Riddermark Skarn Deposit" category="50" did="1879239161" parentZoneId="1879231078" longitude="-56.72494" latitude="-45.259018"/>
<marker id="660611265" label="Oak Branches" category="50" did="1879239165" parentZoneId="1879231078" longitude="-56.72494" latitude="-45.259018"/>
<marker id="660611266" label="Rich Riddermark Skarn Deposit" category="50" did="1879239175" parentZoneId="1879231078" longitude="-56.687576" latitude="-45.56137"/>
<marker id="660611267" label="Heavy Oak Branches" category="50" did="1879239127" parentZoneId="1879231078" longitude="-56.687576" latitude="-45.56137"/>
<marker id="660611268" label="Riddermark Skarn Deposit" category="50" did="1879239161" parentZoneId="1879231078" longitude="-56.687576" latitude="-45.56137"/>
<marker id="660611269" label="Oak Branches" category="50" did="1879239165" parentZoneId="1879231078" longitude="-56.687576" latitude="-45.56137"/>
<marker id="660611270" label="Rich Riddermark Skarn Deposit" category="50" did="1879239175" parentZoneId="1879231078" longitude="-57.023144" latitude="-45.78983"/>
<marker id="660611271" label="Heavy Oak Branches" category="50" did="1879239127" parentZoneId="1879231078" longitude="-57.023144" latitude="-45.78983"/>
<marker id="660611272" label="Riddermark Skarn Deposit" category="50" did="1879239161" parentZoneId="1879231078" longitude="-57.023144" latitude="-45.78983"/>
<marker id="660611273" label="Oak Branches" category="50" did="1879239165" parentZoneId="1879231078" longitude="-57.023144" latitude="-45.78983"/>
<marker id="660611274" label="Rich Riddermark Skarn Deposit" category="50" did="1879239175" parentZoneId="1879231078" longitude="-56.62336" latitude="-45.87978"/>
<marker id="660611275" label="Heavy Oak Branches" category="50" did="1879239127" parentZoneId="1879231078" longitude="-56.62336" latitude="-45.87978"/>
<marker id="660611276" label="Riddermark Skarn Deposit" category="50" did="1879239161" parentZoneId="1879231078" longitude="-56.62336" latitude="-45.87978"/>
<marker id="660611277" label="Oak Branches" category="50" did="1879239165" parentZoneId="1879231078" longitude="-56.62336" latitude="-45.87978"/>
<marker id="660611278" label="Rich Riddermark Skarn Deposit" category="50" did="1879239175" parentZoneId="1879231078" longitude="-57.054825" latitude="-45.22711"/>
<marker id="660611279" label="Heavy Oak Branches" category="50" did="1879239127" parentZoneId="1879231078" longitude="-57.054825" latitude="-45.22711"/>
<marker id="660611280" label="Riddermark Skarn Deposit" category="50" did="1879239161" parentZoneId="1879231078" longitude="-57.054825" latitude="-45.22711"/>
<marker id="660611281" label="Oak Branches" category="50" did="1879239165" parentZoneId="1879231078" longitude="-57.054825" latitude="-45.22711"/>
<marker id="660611282" label="Horse" category="78" did="1879255968" parentZoneId="1879231078" longitude="-56.606014" latitude="-45.337875"/>
<marker id="660611283" label="Fox" category="78" did="1879078196" parentZoneId="1879231078" longitude="-56.606014" latitude="-45.337875"/>
<marker id="660611284" label="Indigo Plant" category="77" did="1879054949" parentZoneId="1879231078" longitude="-56.606014" latitude="-45.337875"/>
<marker id="660611285" label="Rabbit" category="78" did="1879079062" parentZoneId="1879231078" longitude="-56.606014" latitude="-45.337875"/>
<marker id="660611286" label="Bunch of Strawberries" category="77" did="1879061415" parentZoneId="1879231078" longitude="-56.606014" latitude="-45.337875"/>
<marker id="660611287" label="Drop of Fine Clover Honey" category="77" did="1879061399" parentZoneId="1879231078" longitude="-56.606014" latitude="-45.337875"/>
<marker id="660611288" label="Bunch of Raspberries" category="77" did="1879061417" parentZoneId="1879231078" longitude="-56.606014" latitude="-45.337875"/>
<marker id="660611289" label="Tater" category="77" did="1879061257" parentZoneId="1879231078" longitude="-56.606014" latitude="-45.337875"/>
<marker id="660611290" label="Bunch of Blackberries" category="77" did="1879061418" parentZoneId="1879231078" longitude="-56.606014" latitude="-45.337875"/>
<marker id="660611291" label="Bunch of Blueberries" category="77" did="1879061342" parentZoneId="1879231078" longitude="-56.606014" latitude="-45.337875"/>
<marker id="660611292" label="Horse" category="78" did="1879255968" parentZoneId="1879231078" longitude="-56.522156" latitude="-45.67374"/>
<marker id="660611293" label="Fox" category="78" did="1879078196" parentZoneId="1879231078" longitude="-56.522156" latitude="-45.67374"/>
<marker id="660611294" label="Indigo Plant" category="77" did="1879054949" parentZoneId="1879231078" longitude="-56.522156" latitude="-45.67374"/>
<marker id="660611295" label="Rabbit" category="78" did="1879079062" parentZoneId="1879231078" longitude="-56.522156" latitude="-45.67374"/>
<marker id="660611296" label="Bunch of Strawberries" category="77" did="1879061415" parentZoneId="1879231078" longitude="-56.522156" latitude="-45.67374"/>
<marker id="660611297" label="Drop of Fine Clover Honey" category="77" did="1879061399" parentZoneId="1879231078" longitude="-56.522156" latitude="-45.67374"/>
<marker id="660611298" label="Bunch of Raspberries" category="77" did="1879061417" parentZoneId="1879231078" longitude="-56.522156" latitude="-45.67374"/>
<marker id="660611299" label="Tater" category="77" did="1879061257" parentZoneId="1879231078" longitude="-56.522156" latitude="-45.67374"/>
<marker id="660611300" label="Bunch of Blackberries" category="77" did="1879061418" parentZoneId="1879231078" longitude="-56.522156" latitude="-45.67374"/>
<marker id="660611301" label="Bunch of Blueberries" category="77" did="1879061342" parentZoneId="1879231078" longitude="-56.522156" latitude="-45.67374"/>
<marker id="660611302" label="Horse" category="78" did="1879255968" parentZoneId="1879231078" longitude="-56.877537" latitude="-45.87017"/>
<marker id="660611303" label="Fox" category="78" did="1879078196" parentZoneId="1879231078" longitude="-56.877537" latitude="-45.87017"/>
<marker id="660611304" label="Indigo Plant" category="77" did="1879054949" parentZoneId="1879231078" longitude="-56.877537" latitude="-45.87017"/>
<marker id="660611305" label="Rabbit" category="78" did="1879079062" parentZoneId="1879231078" longitude="-56.877537" latitude="-45.87017"/>
<marker id="660611306" label="Bunch of Strawberries" category="77" did="1879061415" parentZoneId="1879231078" longitude="-56.877537" latitude="-45.87017"/>
<marker id="660611307" label="Drop of Fine Clover Honey" category="77" did="1879061399" parentZoneId="1879231078" longitude="-56.877537" latitude="-45.87017"/>
<marker id="660611308" label="Bunch of Raspberries" category="77" did="1879061417" parentZoneId="1879231078" longitude="-56.877537" latitude="-45.87017"/>
<marker id="660611309" label="Tater" category="77" did="1879061257" parentZoneId="1879231078" longitude="-56.877537" latitude="-45.87017"/>
<marker id="660611310" label="Bunch of Blackberries" category="77" did="1879061418" parentZoneId="1879231078" longitude="-56.877537" latitude="-45.87017"/>
<marker id="660611311" label="Bunch of Blueberries" category="77" did="1879061342" parentZoneId="1879231078" longitude="-56.877537" latitude="-45.87017"/>
<marker id="660611312" label="Horse" category="78" did="1879255968" parentZoneId="1879231078" longitude="-57.099922" latitude="-45.566273"/>
<marker id="660611313" label="Fox" category="78" did="1879078196" parentZoneId="1879231078" longitude="-57.099922" latitude="-45.566273"/>
<marker id="660611314" label="Indigo Plant" category="77" did="1879054949" parentZoneId="1879231078" longitude="-57.099922" latitude="-45.566273"/>
<marker id="660611315" label="Rabbit" category="78" did="1879079062" parentZoneId="1879231078" longitude="-57.099922" latitude="-45.566273"/>
<marker id="660611316" label="Bunch of Strawberries" category="77" did="1879061415" parentZoneId="1879231078" longitude="-57.099922" latitude="-45.566273"/>
<marker id="660611317" label="Drop of Fine Clover Honey" category="77" did="1879061399" parentZoneId="1879231078" longitude="-57.099922" latitude="-45.566273"/>
<marker id="660611318" label="Bunch of Raspberries" category="77" did="1879061417" parentZoneId="1879231078" longitude="-57.099922" latitude="-45.566273"/>
<marker id="660611319" label="Tater" category="77" did="1879061257" parentZoneId="1879231078" longitude="-57.099922" latitude="-45.566273"/>
<marker id="660611320" label="Bunch of Blackberries" category="77" did="1879061418" parentZoneId="1879231078" longitude="-57.099922" latitude="-45.566273"/>
<marker id="660611321" label="Bunch of Blueberries" category="77" did="1879061342" parentZoneId="1879231078" longitude="-57.099922" latitude="-45.566273"/>
<marker id="660615168" label="White-hand Invader" category="71" did="1879241134" parentZoneId="1879231078" longitude="-56.821552" latitude="-44.821365"/>
<marker id="660615169" label="White-hand Raider" category="71" did="1879241132" parentZoneId="1879231078" longitude="-56.821552" latitude="-44.821365"/>
<marker id="660615170" label="White-hand Scout" category="71" did="1879241138" parentZoneId="1879231078" longitude="-56.821552" latitude="-44.821365"/>
<marker id="660615171" label="Norcrofts Prowler" category="71" did="1879241347" parentZoneId="1879231078" longitude="-56.821552" latitude="-44.821365"/>
<marker id="660615172" label="Norcrofts Field-bear" category="71" did="1879241438" parentZoneId="1879231078" longitude="-56.821552" latitude="-44.821365"/>
<marker id="660615173" label="Tater" category="77" did="1879061257" parentZoneId="1879231078" longitude="-56.82067" latitude="-45.090633"/>
<marker id="660615179" label="Uruk-hai Marauder" category="71" did="1879241793" parentZoneId="1879231078" longitude="-56.821552" latitude="-44.821365"/>
<marker id="660615180" label="Fox" category="78" did="1879078196" parentZoneId="1879231078" longitude="-56.82067" latitude="-45.090633"/>
