<?xml version="1.0" encoding="UTF-8"?><markers>
<marker id="962592768" label="Deer" category="78" did="1879080635" parentZoneId="1879330412" longitude="-31.031845" latitude="-47.10514"/>
<marker id="962592769" label="Rabbit" category="78" did="1879079062" parentZoneId="1879330412" longitude="-31.031845" latitude="-47.10514"/>
<marker id="962592770" label="Tater" category="77" did="1879061257" parentZoneId="1879330412" longitude="-31.031845" latitude="-47.10514"/>
<marker id="962592771" label="Squirrel" category="78" did="1879078796" parentZoneId="1879330412" longitude="-31.031845" latitude="-47.10514"/>
<marker id="962592772" label="Bunch of Blueberries" category="77" did="1879061342" parentZoneId="1879330412" longitude="-31.031845" latitude="-47.10514"/>
<marker id="962592773" label="Bunch of Strawberries" category="77" did="1879061415" parentZoneId="1879330412" longitude="-31.031845" latitude="-47.10514"/>
<marker id="962592774" label="Bunch of Raspberries" category="77" did="1879061417" parentZoneId="1879330412" longitude="-31.031845" latitude="-47.10514"/>
<marker id="962592775" label="Bunch of Blackberries" category="77" did="1879061418" parentZoneId="1879330412" longitude="-31.031845" latitude="-47.10514"/>
<marker id="962592776" label="Drop of Fine Clover Honey" category="77" did="1879061399" parentZoneId="1879330412" longitude="-31.031845" latitude="-47.10514"/>
<marker id="962592777" label="Fox" category="78" did="1879078196" parentZoneId="1879330412" longitude="-31.031845" latitude="-47.10514"/>
<marker id="962592778" label="Indigo Plant" category="77" did="1879054949" parentZoneId="1879330412" longitude="-31.031845" latitude="-47.10514"/>
<marker id="962592779" label="Corrupted Huorn" category="71" did="1879331793" parentZoneId="1879330412" longitude="-31.028183" latitude="-47.10404"/>
<marker id="962592780" label="Grey-weaver" category="71" did="1879331626" parentZoneId="1879330412" longitude="-31.028183" latitude="-47.10404"/>
<marker id="962592781" label="Anórien Scavenger" category="71" did="1879331629" parentZoneId="1879330412" longitude="-31.028183" latitude="-47.10404"/>
<marker id="962592782" label="Anórien Fire-fly" category="71" did="1879331632" parentZoneId="1879330412" longitude="-31.028183" latitude="-47.10404"/>
<marker id="962592783" label="Ghûrdhos Warrior" category="71" did="1879331638" parentZoneId="1879330412" longitude="-31.028183" latitude="-47.10404"/>
<marker id="962592784" label="Anórien Mountain-lion" category="71" did="1879331636" parentZoneId="1879330412" longitude="-31.028183" latitude="-47.10404"/>
<marker id="962592785" label="Anórien Mountain-goat" category="71" did="1879331709" parentZoneId="1879330412" longitude="-31.028183" latitude="-47.10404"/>
<marker id="962592786" label="Dheghûn" category="71" did="1879331648" parentZoneId="1879330412" longitude="-31.028183" latitude="-47.10404"/>
<marker id="962592787" label="Rich Anórien Skarn Deposit" category="50" did="1879328665" parentZoneId="1879330412" longitude="-31.193182" latitude="-47.468735"/>
<marker id="962592788" label="Anórien Skarn Deposit" category="50" did="1879328667" parentZoneId="1879330412" longitude="-31.193182" latitude="-47.468735"/>
<marker id="962592789" label="Poplar Branches" category="50" did="1879328677" parentZoneId="1879330412" longitude="-31.193182" latitude="-47.468735"/>
<marker id="962592790" label="Heavy Poplar Branches" category="50" did="1879328676" parentZoneId="1879330412" longitude="-31.193182" latitude="-47.468735"/>
<marker id="962592791" label="Bunch of Blueberries" category="77" did="1879061342" parentZoneId="1879330412" longitude="-30.842958" latitude="-46.90191"/>
<marker id="962592792" label="Squirrel" category="78" did="1879078796" parentZoneId="1879330412" longitude="-30.842958" latitude="-46.90191"/>
<marker id="962592793" label="Tater" category="77" did="1879061257" parentZoneId="1879330412" longitude="-30.842958" latitude="-46.90191"/>
<marker id="962592794" label="Deer" category="78" did="1879080635" parentZoneId="1879330412" longitude="-30.842958" latitude="-46.90191"/>
<marker id="962592795" label="Fox" category="78" did="1879078196" parentZoneId="1879330412" longitude="-30.842958" latitude="-46.90191"/>
<marker id="962592796" label="Drop of Fine Clover Honey" category="77" did="1879061399" parentZoneId="1879330412" longitude="-30.842958" latitude="-46.90191"/>
<marker id="962592797" label="Rabbit" category="78" did="1879079062" parentZoneId="1879330412" longitude="-30.842958" latitude="-46.90191"/>
<marker id="962592798" label="Bunch of Strawberries" category="77" did="1879061415" parentZoneId="1879330412" longitude="-30.842958" latitude="-46.90191"/>
<marker id="962592799" label="Indigo Plant" category="77" did="1879054949" parentZoneId="1879330412" longitude="-30.842958" latitude="-46.90191"/>
<marker id="962592800" label="Bunch of Raspberries" category="77" did="1879061417" parentZoneId="1879330412" longitude="-30.842958" latitude="-46.90191"/>
<marker id="962592801" label="Bunch of Blackberries" category="77" did="1879061418" parentZoneId="1879330412" longitude="-30.842958" latitude="-46.90191"/>
<marker id="962592802" label="Bunch of Blueberries" category="77" did="1879061342" parentZoneId="1879330412" longitude="-31.025225" latitude="-46.83872"/>
<marker id="962592803" label="Squirrel" category="78" did="1879078796" parentZoneId="1879330412" longitude="-31.025225" latitude="-46.83872"/>
<marker id="962592804" label="Tater" category="77" did="1879061257" parentZoneId="1879330412" longitude="-31.025225" latitude="-46.83872"/>
<marker id="962592805" label="Deer" category="78" did="1879080635" parentZoneId="1879330412" longitude="-31.025225" latitude="-46.83872"/>
<marker id="962592806" label="Fox" category="78" did="1879078196" parentZoneId="1879330412" longitude="-31.025225" latitude="-46.83872"/>
<marker id="962592807" label="Drop of Fine Clover Honey" category="77" did="1879061399" parentZoneId="1879330412" longitude="-31.025225" latitude="-46.83872"/>
<marker id="962592808" label="Rabbit" category="78" did="1879079062" parentZoneId="1879330412" longitude="-31.025225" latitude="-46.83872"/>
<marker id="962592809" label="Bunch of Strawberries" category="77" did="1879061415" parentZoneId="1879330412" longitude="-31.025225" latitude="-46.83872"/>
<marker id="962592810" label="Indigo Plant" category="77" did="1879054949" parentZoneId="1879330412" longitude="-31.025225" latitude="-46.83872"/>
<marker id="962592811" label="Bunch of Raspberries" category="77" did="1879061417" parentZoneId="1879330412" longitude="-31.025225" latitude="-46.83872"/>
<marker id="962592812" label="Bunch of Blackberries" category="77" did="1879061418" parentZoneId="1879330412" longitude="-31.025225" latitude="-46.83872"/>
<marker id="962592813" label="Bunch of Blueberries" category="77" did="1879061342" parentZoneId="1879330412" longitude="-31.207323" latitude="-46.880356"/>
<marker id="962592814" label="Squirrel" category="78" did="1879078796" parentZoneId="1879330412" longitude="-31.207323" latitude="-46.880356"/>
<marker id="962592815" label="Tater" category="77" did="1879061257" parentZoneId="1879330412" longitude="-31.207323" latitude="-46.880356"/>
<marker id="962592816" label="Deer" category="78" did="1879080635" parentZoneId="1879330412" longitude="-31.207323" latitude="-46.880356"/>
<marker id="962592817" label="Fox" category="78" did="1879078196" parentZoneId="1879330412" longitude="-31.207323" latitude="-46.880356"/>
<marker id="962592818" label="Drop of Fine Clover Honey" category="77" did="1879061399" parentZoneId="1879330412" longitude="-31.207323" latitude="-46.880356"/>
<marker id="962592819" label="Rabbit" category="78" did="1879079062" parentZoneId="1879330412" longitude="-31.207323" latitude="-46.880356"/>
<marker id="962592820" label="Bunch of Strawberries" category="77" did="1879061415" parentZoneId="1879330412" longitude="-31.207323" latitude="-46.880356"/>
<marker id="962592821" label="Indigo Plant" category="77" did="1879054949" parentZoneId="1879330412" longitude="-31.207323" latitude="-46.880356"/>
<marker id="962592822" label="Bunch of Raspberries" category="77" did="1879061417" parentZoneId="1879330412" longitude="-31.207323" latitude="-46.880356"/>
<marker id="962592823" label="Bunch of Blackberries" category="77" did="1879061418" parentZoneId="1879330412" longitude="-31.207323" latitude="-46.880356"/>
<marker id="962592824" label="Bunch of Blueberries" category="77" did="1879061342" parentZoneId="1879330412" longitude="-31.469902" latitude="-46.808823"/>
<marker id="962592825" label="Squirrel" category="78" did="1879078796" parentZoneId="1879330412" longitude="-31.469902" latitude="-46.808823"/>
<marker id="962592826" label="Tater" category="77" did="1879061257" parentZoneId="1879330412" longitude="-31.469902" latitude="-46.808823"/>
<marker id="962592827" label="Deer" category="78" did="1879080635" parentZoneId="1879330412" longitude="-31.469902" latitude="-46.808823"/>
<marker id="962592828" label="Fox" category="78" did="1879078196" parentZoneId="1879330412" longitude="-31.469902" latitude="-46.808823"/>
<marker id="962592829" label="Drop of Fine Clover Honey" category="77" did="1879061399" parentZoneId="1879330412" longitude="-31.469902" latitude="-46.808823"/>
<marker id="962592830" label="Rabbit" category="78" did="1879079062" parentZoneId="1879330412" longitude="-31.469902" latitude="-46.808823"/>
<marker id="962592831" label="Bunch of Strawberries" category="77" did="1879061415" parentZoneId="1879330412" longitude="-31.469902" latitude="-46.808823"/>
<marker id="962592832" label="Indigo Plant" category="77" did="1879054949" parentZoneId="1879330412" longitude="-31.469902" latitude="-46.808823"/>
<marker id="962592833" label="Bunch of Raspberries" category="77" did="1879061417" parentZoneId="1879330412" longitude="-31.469902" latitude="-46.808823"/>
<marker id="962592834" label="Bunch of Blackberries" category="77" did="1879061418" parentZoneId="1879330412" longitude="-31.469902" latitude="-46.808823"/>
<marker id="962592835" label="Bunch of Blueberries" category="77" did="1879061342" parentZoneId="1879330412" longitude="-31.38824" latitude="-47.00451"/>
<marker id="962592836" label="Squirrel" category="78" did="1879078796" parentZoneId="1879330412" longitude="-31.38824" latitude="-47.00451"/>
<marker id="962592837" label="Tater" category="77" did="1879061257" parentZoneId="1879330412" longitude="-31.38824" latitude="-47.00451"/>
<marker id="962592838" label="Deer" category="78" did="1879080635" parentZoneId="1879330412" longitude="-31.38824" latitude="-47.00451"/>
<marker id="962592839" label="Fox" category="78" did="1879078196" parentZoneId="1879330412" longitude="-31.38824" latitude="-47.00451"/>
<marker id="962592840" label="Drop of Fine Clover Honey" category="77" did="1879061399" parentZoneId="1879330412" longitude="-31.38824" latitude="-47.00451"/>
<marker id="962592841" label="Rabbit" category="78" did="1879079062" parentZoneId="1879330412" longitude="-31.38824" latitude="-47.00451"/>
<marker id="962592842" label="Bunch of Strawberries" category="77" did="1879061415" parentZoneId="1879330412" longitude="-31.38824" latitude="-47.00451"/>
<marker id="962592843" label="Indigo Plant" category="77" did="1879054949" parentZoneId="1879330412" longitude="-31.38824" latitude="-47.00451"/>
<marker id="962592844" label="Bunch of Raspberries" category="77" did="1879061417" parentZoneId="1879330412" longitude="-31.38824" latitude="-47.00451"/>
<marker id="962592845" label="Bunch of Blackberries" category="77" did="1879061418" parentZoneId="1879330412" longitude="-31.38824" latitude="-47.00451"/>
<marker id="962592846" label="Bunch of Blueberries" category="77" did="1879061342" parentZoneId="1879330412" longitude="-31.181297" latitude="-47.05326"/>
<marker id="962592847" label="Squirrel" category="78" did="1879078796" parentZoneId="1879330412" longitude="-31.181297" latitude="-47.05326"/>
<marker id="962592848" label="Tater" category="77" did="1879061257" parentZoneId="1879330412" longitude="-31.181297" latitude="-47.05326"/>
<marker id="962592849" label="Deer" category="78" did="1879080635" parentZoneId="1879330412" longitude="-31.181297" latitude="-47.05326"/>
<marker id="962592850" label="Fox" category="78" did="1879078196" parentZoneId="1879330412" longitude="-31.181297" latitude="-47.05326"/>
<marker id="962592851" label="Drop of Fine Clover Honey" category="77" did="1879061399" parentZoneId="1879330412" longitude="-31.181297" latitude="-47.05326"/>
<marker id="962592852" label="Rabbit" category="78" did="1879079062" parentZoneId="1879330412" longitude="-31.181297" latitude="-47.05326"/>
<marker id="962592853" label="Bunch of Strawberries" category="77" did="1879061415" parentZoneId="1879330412" longitude="-31.181297" latitude="-47.05326"/>
<marker id="962592854" label="Indigo Plant" category="77" did="1879054949" parentZoneId="1879330412" longitude="-31.181297" latitude="-47.05326"/>
<marker id="962592855" label="Bunch of Raspberries" category="77" did="1879061417" parentZoneId="1879330412" longitude="-31.181297" latitude="-47.05326"/>
<marker id="962592856" label="Bunch of Blackberries" category="77" did="1879061418" parentZoneId="1879330412" longitude="-31.181297" latitude="-47.05326"/>
<marker id="962592857" label="Bunch of Blueberries" category="77" did="1879061342" parentZoneId="1879330412" longitude="-30.946152" latitude="-47.049946"/>
<marker id="962592858" label="Squirrel" category="78" did="1879078796" parentZoneId="1879330412" longitude="-30.946152" latitude="-47.049946"/>
<marker id="962592859" label="Tater" category="77" did="1879061257" parentZoneId="1879330412" longitude="-30.946152" latitude="-47.049946"/>
<marker id="962592860" label="Deer" category="78" did="1879080635" parentZoneId="1879330412" longitude="-30.946152" latitude="-47.049946"/>
<marker id="962592861" label="Fox" category="78" did="1879078196" parentZoneId="1879330412" longitude="-30.946152" latitude="-47.049946"/>
<marker id="962592862" label="Drop of Fine Clover Honey" category="77" did="1879061399" parentZoneId="1879330412" longitude="-30.946152" latitude="-47.049946"/>
<marker id="962592863" label="Rabbit" category="78" did="1879079062" parentZoneId="1879330412" longitude="-30.946152" latitude="-47.049946"/>
<marker id="962592864" label="Bunch of Strawberries" category="77" did="1879061415" parentZoneId="1879330412" longitude="-30.946152" latitude="-47.049946"/>
<marker id="962592865" label="Indigo Plant" category="77" did="1879054949" parentZoneId="1879330412" longitude="-30.946152" latitude="-47.049946"/>
<marker id="962592866" label="Bunch of Raspberries" category="77" did="1879061417" parentZoneId="1879330412" longitude="-30.946152" latitude="-47.049946"/>
<marker id="962592867" label="Bunch of Blackberries" category="77" did="1879061418" parentZoneId="1879330412" longitude="-30.946152" latitude="-47.049946"/>
<marker id="962592868" label="Bunch of Blueberries" category="77" did="1879061342" parentZoneId="1879330412" longitude="-30.848886" latitude="-47.190388"/>
<marker id="962592869" label="Squirrel" category="78" did="1879078796" parentZoneId="1879330412" longitude="-30.848886" latitude="-47.190388"/>
<marker id="962592870" label="Tater" category="77" did="1879061257" parentZoneId="1879330412" longitude="-30.848886" latitude="-47.190388"/>
<marker id="962592871" label="Deer" category="78" did="1879080635" parentZoneId="1879330412" longitude="-30.848886" latitude="-47.190388"/>
<marker id="962592872" label="Fox" category="78" did="1879078196" parentZoneId="1879330412" longitude="-30.848886" latitude="-47.190388"/>
<marker id="962592873" label="Drop of Fine Clover Honey" category="77" did="1879061399" parentZoneId="1879330412" longitude="-30.848886" latitude="-47.190388"/>
<marker id="962592874" label="Rabbit" category="78" did="1879079062" parentZoneId="1879330412" longitude="-30.848886" latitude="-47.190388"/>
<marker id="962592875" label="Bunch of Strawberries" category="77" did="1879061415" parentZoneId="1879330412" longitude="-30.848886" latitude="-47.190388"/>
<marker id="962592876" label="Indigo Plant" category="77" did="1879054949" parentZoneId="1879330412" longitude="-30.848886" latitude="-47.190388"/>
<marker id="962592877" label="Bunch of Raspberries" category="77" did="1879061417" parentZoneId="1879330412" longitude="-30.848886" latitude="-47.190388"/>
<marker id="962592878" label="Bunch of Blackberries" category="77" did="1879061418" parentZoneId="1879330412" longitude="-30.848886" latitude="-47.190388"/>
<marker id="962592879" label="Bunch of Blueberries" category="77" did="1879061342" parentZoneId="1879330412" longitude="-31.005966" latitude="-47.3814"/>
<marker id="962592880" label="Squirrel" category="78" did="1879078796" parentZoneId="1879330412" longitude="-31.005966" latitude="-47.3814"/>
<marker id="962592881" label="Tater" category="77" did="1879061257" parentZoneId="1879330412" longitude="-31.005966" latitude="-47.3814"/>
<marker id="962592882" label="Deer" category="78" did="1879080635" parentZoneId="1879330412" longitude="-31.005966" latitude="-47.3814"/>
<marker id="962592883" label="Fox" category="78" did="1879078196" parentZoneId="1879330412" longitude="-31.005966" latitude="-47.3814"/>
<marker id="962592884" label="Drop of Fine Clover Honey" category="77" did="1879061399" parentZoneId="1879330412" longitude="-31.005966" latitude="-47.3814"/>
<marker id="962592885" label="Rabbit" category="78" did="1879079062" parentZoneId="1879330412" longitude="-31.005966" latitude="-47.3814"/>
<marker id="962592886" label="Bunch of Strawberries" category="77" did="1879061415" parentZoneId="1879330412" longitude="-31.005966" latitude="-47.3814"/>
<marker id="962592887" label="Indigo Plant" category="77" did="1879054949" parentZoneId="1879330412" longitude="-31.005966" latitude="-47.3814"/>
<marker id="962592888" label="Bunch of Raspberries" category="77" did="1879061417" parentZoneId="1879330412" longitude="-31.005966" latitude="-47.3814"/>
<marker id="962592889" label="Bunch of Blackberries" category="77" did="1879061418" parentZoneId="1879330412" longitude="-31.005966" latitude="-47.3814"/>
<marker id="962592890" label="Bunch of Blueberries" category="77" did="1879061342" parentZoneId="1879330412" longitude="-31.104637" latitude="-47.54643"/>
<marker id="962592891" label="Squirrel" category="78" did="1879078796" parentZoneId="1879330412" longitude="-31.104637" latitude="-47.54643"/>
<marker id="962592892" label="Tater" category="77" did="1879061257" parentZoneId="1879330412" longitude="-31.104637" latitude="-47.54643"/>
<marker id="962592893" label="Deer" category="78" did="1879080635" parentZoneId="1879330412" longitude="-31.104637" latitude="-47.54643"/>
<marker id="962592894" label="Fox" category="78" did="1879078196" parentZoneId="1879330412" longitude="-31.104637" latitude="-47.54643"/>
<marker id="962592895" label="Drop of Fine Clover Honey" category="77" did="1879061399" parentZoneId="1879330412" longitude="-31.104637" latitude="-47.54643"/>
<marker id="962592896" label="Rabbit" category="78" did="1879079062" parentZoneId="1879330412" longitude="-31.104637" latitude="-47.54643"/>
<marker id="962592897" label="Bunch of Strawberries" category="77" did="1879061415" parentZoneId="1879330412" longitude="-31.104637" latitude="-47.54643"/>
<marker id="962592898" label="Indigo Plant" category="77" did="1879054949" parentZoneId="1879330412" longitude="-31.104637" latitude="-47.54643"/>
<marker id="962592899" label="Bunch of Raspberries" category="77" did="1879061417" parentZoneId="1879330412" longitude="-31.104637" latitude="-47.54643"/>
<marker id="962592900" label="Bunch of Blackberries" category="77" did="1879061418" parentZoneId="1879330412" longitude="-31.104637" latitude="-47.54643"/>
<marker id="962592901" label="Bunch of Blueberries" category="77" did="1879061342" parentZoneId="1879330412" longitude="-31.21198" latitude="-47.37425"/>
<marker id="962592902" label="Squirrel" category="78" did="1879078796" parentZoneId="1879330412" longitude="-31.21198" latitude="-47.37425"/>
<marker id="962592903" label="Tater" category="77" did="1879061257" parentZoneId="1879330412" longitude="-31.21198" latitude="-47.37425"/>
<marker id="962592904" label="Deer" category="78" did="1879080635" parentZoneId="1879330412" longitude="-31.21198" latitude="-47.37425"/>
<marker id="962592905" label="Fox" category="78" did="1879078196" parentZoneId="1879330412" longitude="-31.21198" latitude="-47.37425"/>
<marker id="962592906" label="Drop of Fine Clover Honey" category="77" did="1879061399" parentZoneId="1879330412" longitude="-31.21198" latitude="-47.37425"/>
<marker id="962592907" label="Rabbit" category="78" did="1879079062" parentZoneId="1879330412" longitude="-31.21198" latitude="-47.37425"/>
<marker id="962592908" label="Bunch of Strawberries" category="77" did="1879061415" parentZoneId="1879330412" longitude="-31.21198" latitude="-47.37425"/>
<marker id="962592909" label="Indigo Plant" category="77" did="1879054949" parentZoneId="1879330412" longitude="-31.21198" latitude="-47.37425"/>
<marker id="962592910" label="Bunch of Raspberries" category="77" did="1879061417" parentZoneId="1879330412" longitude="-31.21198" latitude="-47.37425"/>
<marker id="962592911" label="Bunch of Blackberries" category="77" did="1879061418" parentZoneId="1879330412" longitude="-31.21198" latitude="-47.37425"/>
<marker id="962592912" label="Rich Anórien Skarn Deposit" category="50" did="1879328665" parentZoneId="1879330412" longitude="-31.168886" latitude="-47.580795"/>
<marker id="962592913" label="Anórien Skarn Deposit" category="50" did="1879328667" parentZoneId="1879330412" longitude="-31.168886" latitude="-47.580795"/>
<marker id="962592914" label="Poplar Branches" category="50" did="1879328677" parentZoneId="1879330412" longitude="-31.168886" latitude="-47.580795"/>
<marker id="962592915" label="Heavy Poplar Branches" category="50" did="1879328676" parentZoneId="1879330412" longitude="-31.168886" latitude="-47.580795"/>
<marker id="962592916" label="Rich Anórien Skarn Deposit" category="50" did="1879328665" parentZoneId="1879330412" longitude="-30.86126" latitude="-47.192112"/>
<marker id="962592917" label="Anórien Skarn Deposit" category="50" did="1879328667" parentZoneId="1879330412" longitude="-30.86126" latitude="-47.192112"/>
<marker id="962592918" label="Poplar Branches" category="50" did="1879328677" parentZoneId="1879330412" longitude="-30.86126" latitude="-47.192112"/>
<marker id="962592919" label="Heavy Poplar Branches" category="50" did="1879328676" parentZoneId="1879330412" longitude="-30.86126" latitude="-47.192112"/>
<marker id="962592920" label="Rich Anórien Skarn Deposit" category="50" did="1879328665" parentZoneId="1879330412" longitude="-30.8433" latitude="-46.94556"/>
<marker id="962592921" label="Anórien Skarn Deposit" category="50" did="1879328667" parentZoneId="1879330412" longitude="-30.8433" latitude="-46.94556"/>
<marker id="962592922" label="Poplar Branches" category="50" did="1879328677" parentZoneId="1879330412" longitude="-30.8433" latitude="-46.94556"/>
<marker id="962592923" label="Heavy Poplar Branches" category="50" did="1879328676" parentZoneId="1879330412" longitude="-30.8433" latitude="-46.94556"/>
<marker id="962592924" label="Rich Anórien Skarn Deposit" category="50" did="1879328665" parentZoneId="1879330412" longitude="-31.135311" latitude="-47.569466"/>
<marker id="962592925" label="Anórien Skarn Deposit" category="50" did="1879328667" parentZoneId="1879330412" longitude="-31.135311" latitude="-47.569466"/>
<marker id="962592926" label="Poplar Branches" category="50" did="1879328677" parentZoneId="1879330412" longitude="-31.135311" latitude="-47.569466"/>
<marker id="962592927" label="Heavy Poplar Branches" category="50" did="1879328676" parentZoneId="1879330412" longitude="-31.135311" latitude="-47.569466"/>
<marker id="962592928" label="Rich Anórien Skarn Deposit" category="50" did="1879328665" parentZoneId="1879330412" longitude="-31.156973" latitude="-47.053326"/>
<marker id="962592929" label="Anórien Skarn Deposit" category="50" did="1879328667" parentZoneId="1879330412" longitude="-31.156973" latitude="-47.053326"/>
<marker id="962592930" label="Poplar Branches" category="50" did="1879328677" parentZoneId="1879330412" longitude="-31.156973" latitude="-47.053326"/>
<marker id="962592931" label="Heavy Poplar Branches" category="50" did="1879328676" parentZoneId="1879330412" longitude="-31.156973" latitude="-47.053326"/>
<marker id="962592932" label="Rich Anórien Skarn Deposit" category="50" did="1879328665" parentZoneId="1879330412" longitude="-30.847792" latitude="-46.9789"/>
<marker id="962592933" label="Anórien Skarn Deposit" category="50" did="1879328667" parentZoneId="1879330412" longitude="-30.847792" latitude="-46.9789"/>
<marker id="962592934" label="Poplar Branches" category="50" did="1879328677" parentZoneId="1879330412" longitude="-30.847792" latitude="-46.9789"/>
<marker id="962592935" label="Heavy Poplar Branches" category="50" did="1879328676" parentZoneId="1879330412" longitude="-30.847792" latitude="-46.9789"/>
<marker id="962592936" label="Rich Anórien Skarn Deposit" category="50" did="1879328665" parentZoneId="1879330412" longitude="-30.892967" latitude="-46.814857"/>
<marker id="962592937" label="Anórien Skarn Deposit" category="50" did="1879328667" parentZoneId="1879330412" longitude="-30.892967" latitude="-46.814857"/>
<marker id="962592938" label="Poplar Branches" category="50" did="1879328677" parentZoneId="1879330412" longitude="-30.892967" latitude="-46.814857"/>
<marker id="962592939" label="Heavy Poplar Branches" category="50" did="1879328676" parentZoneId="1879330412" longitude="-30.892967" latitude="-46.814857"/>
<marker id="962592940" label="Rich Anórien Skarn Deposit" category="50" did="1879328665" parentZoneId="1879330412" longitude="-30.875877" latitude="-47.207787"/>
<marker id="962592941" label="Anórien Skarn Deposit" category="50" did="1879328667" parentZoneId="1879330412" longitude="-30.875877" latitude="-47.207787"/>
<marker id="962592942" label="Poplar Branches" category="50" did="1879328677" parentZoneId="1879330412" longitude="-30.875877" latitude="-47.207787"/>
<marker id="962592943" label="Heavy Poplar Branches" category="50" did="1879328676" parentZoneId="1879330412" longitude="-30.875877" latitude="-47.207787"/>
<marker id="962592944" label="Rich Anórien Skarn Deposit" category="50" did="1879328665" parentZoneId="1879330412" longitude="-31.397274" latitude="-46.916252"/>
<marker id="962592945" label="Anórien Skarn Deposit" category="50" did="1879328667" parentZoneId="1879330412" longitude="-31.397274" latitude="-46.916252"/>
<marker id="962592946" label="Poplar Branches" category="50" did="1879328677" parentZoneId="1879330412" longitude="-31.397274" latitude="-46.916252"/>
<marker id="962592947" label="Heavy Poplar Branches" category="50" did="1879328676" parentZoneId="1879330412" longitude="-31.397274" latitude="-46.916252"/>
<marker id="962592948" label="Rich Anórien Skarn Deposit" category="50" did="1879328665" parentZoneId="1879330412" longitude="-31.3975" latitude="-47.25314"/>
<marker id="962592949" label="Anórien Skarn Deposit" category="50" did="1879328667" parentZoneId="1879330412" longitude="-31.3975" latitude="-47.25314"/>
<marker id="962592950" label="Poplar Branches" category="50" did="1879328677" parentZoneId="1879330412" longitude="-31.3975" latitude="-47.25314"/>
<marker id="962592951" label="Heavy Poplar Branches" category="50" did="1879328676" parentZoneId="1879330412" longitude="-31.3975" latitude="-47.25314"/>
<marker id="962592952" label="Rich Anórien Skarn Deposit" category="50" did="1879328665" parentZoneId="1879330412" longitude="-31.320507" latitude="-47.246887"/>
<marker id="962592953" label="Anórien Skarn Deposit" category="50" did="1879328667" parentZoneId="1879330412" longitude="-31.320507" latitude="-47.246887"/>
<marker id="962592954" label="Poplar Branches" category="50" did="1879328677" parentZoneId="1879330412" longitude="-31.320507" latitude="-47.246887"/>
<marker id="962592955" label="Heavy Poplar Branches" category="50" did="1879328676" parentZoneId="1879330412" longitude="-31.320507" latitude="-47.246887"/>
<marker id="962592956" label="Rich Anórien Skarn Deposit" category="50" did="1879328665" parentZoneId="1879330412" longitude="-31.283651" latitude="-47.378582"/>
<marker id="962592957" label="Anórien Skarn Deposit" category="50" did="1879328667" parentZoneId="1879330412" longitude="-31.283651" latitude="-47.378582"/>
<marker id="962592958" label="Poplar Branches" category="50" did="1879328677" parentZoneId="1879330412" longitude="-31.283651" latitude="-47.378582"/>
<marker id="962592959" label="Heavy Poplar Branches" category="50" did="1879328676" parentZoneId="1879330412" longitude="-31.283651" latitude="-47.378582"/>
<marker id="962592960" label="Rich Anórien Skarn Deposit" category="50" did="1879328665" parentZoneId="1879330412" longitude="-31.442627" latitude="-46.920017"/>
<marker id="962592961" label="Anórien Skarn Deposit" category="50" did="1879328667" parentZoneId="1879330412" longitude="-31.442627" latitude="-46.920017"/>
<marker id="962592962" label="Poplar Branches" category="50" did="1879328677" parentZoneId="1879330412" longitude="-31.442627" latitude="-46.920017"/>
<marker id="962592963" label="Heavy Poplar Branches" category="50" did="1879328676" parentZoneId="1879330412" longitude="-31.442627" latitude="-46.920017"/>
<marker id="962592964" label="Rich Anórien Skarn Deposit" category="50" did="1879328665" parentZoneId="1879330412" longitude="-31.433447" latitude="-47.087482"/>
<marker id="962592965" label="Anórien Skarn Deposit" category="50" did="1879328667" parentZoneId="1879330412" longitude="-31.433447" latitude="-47.087482"/>
<marker id="962592966" label="Poplar Branches" category="50" did="1879328677" parentZoneId="1879330412" longitude="-31.433447" latitude="-47.087482"/>
<marker id="962592967" label="Heavy Poplar Branches" category="50" did="1879328676" parentZoneId="1879330412" longitude="-31.433447" latitude="-47.087482"/>
<marker id="962592968" label="Mordor Warg" category="71" did="1879331712" parentZoneId="1879330412" longitude="-31.432577" latitude="-46.863335"/>
<marker id="962592969" label="Grey-weaver" category="71" did="1879331626" parentZoneId="1879330412" longitude="-31.432577" latitude="-46.863335"/>
<marker id="962592970" label="Anórien Mountain-goat" category="71" did="1879331709" parentZoneId="1879330412" longitude="-31.432577" latitude="-46.863335"/>
<marker id="962592971" label="Corrupted Huorn" category="71" did="1879331793" parentZoneId="1879330412" longitude="-31.432577" latitude="-46.863335"/>
<marker id="962592972" label="Anórien Scavenger" category="71" did="1879331629" parentZoneId="1879330412" longitude="-31.432577" latitude="-46.863335"/>
<marker id="962592973" label="Grey-spinner" category="71" did="1879331628" parentZoneId="1879330412" longitude="-31.432577" latitude="-46.863335"/>
<marker id="962592974" label="Wild Anórien-boar" category="71" did="1879331635" parentZoneId="1879330412" longitude="-31.432577" latitude="-46.863335"/>
<marker id="962592975" label="Anórien Fire-fly" category="71" did="1879331632" parentZoneId="1879330412" longitude="-31.432577" latitude="-46.863335"/>
<marker id="962592976" label="Entwash Norbog" category="71" did="1879331633" parentZoneId="1879330412" longitude="-31.432577" latitude="-46.863335"/>
<marker id="962592977" label="Ghûrdhos Warrior" category="71" did="1879331638" parentZoneId="1879330412" longitude="-31.432577" latitude="-46.863335"/>
<marker id="962592978" label="Dheghûn" category="71" did="1879331648" parentZoneId="1879330412" longitude="-31.432577" latitude="-46.863335"/>
<marker id="962592979" label="Anórien Mountain-lion" category="71" did="1879331636" parentZoneId="1879330412" longitude="-31.432577" latitude="-46.863335"/>
<marker id="962592980" label="Mordor Warg" category="71" did="1879331712" parentZoneId="1879330412" longitude="-31.18162" latitude="-46.865623"/>
<marker id="962592981" label="Grey-weaver" category="71" did="1879331626" parentZoneId="1879330412" longitude="-31.18162" latitude="-46.865623"/>
<marker id="962592982" label="Anórien Mountain-goat" category="71" did="1879331709" parentZoneId="1879330412" longitude="-31.18162" latitude="-46.865623"/>
<marker id="962592983" label="Corrupted Huorn" category="71" did="1879331793" parentZoneId="1879330412" longitude="-31.18162" latitude="-46.865623"/>
<marker id="962592984" label="Anórien Scavenger" category="71" did="1879331629" parentZoneId="1879330412" longitude="-31.18162" latitude="-46.865623"/>
<marker id="962592985" label="Grey-spinner" category="71" did="1879331628" parentZoneId="1879330412" longitude="-31.18162" latitude="-46.865623"/>
<marker id="962592986" label="Wild Anórien-boar" category="71" did="1879331635" parentZoneId="1879330412" longitude="-31.18162" latitude="-46.865623"/>
<marker id="962592987" label="Anórien Fire-fly" category="71" did="1879331632" parentZoneId="1879330412" longitude="-31.18162" latitude="-46.865623"/>
<marker id="962592988" label="Entwash Norbog" category="71" did="1879331633" parentZoneId="1879330412" longitude="-31.18162" latitude="-46.865623"/>
<marker id="962592989" label="Ghûrdhos Warrior" category="71" did="1879331638" parentZoneId="1879330412" longitude="-31.18162" latitude="-46.865623"/>
<marker id="962592990" label="Dheghûn" category="71" did="1879331648" parentZoneId="1879330412" longitude="-31.18162" latitude="-46.865623"/>
<marker id="962592991" label="Anórien Mountain-lion" category="71" did="1879331636" parentZoneId="1879330412" longitude="-31.18162" latitude="-46.865623"/>
<marker id="962592992" label="Mordor Warg" category="71" did="1879331712" parentZoneId="1879330412" longitude="-30.970165" latitude="-46.86065"/>
<marker id="962592993" label="Grey-weaver" category="71" did="1879331626" parentZoneId="1879330412" longitude="-30.970165" latitude="-46.86065"/>
<marker id="962592994" label="Anórien Mountain-goat" category="71" did="1879331709" parentZoneId="1879330412" longitude="-30.970165" latitude="-46.86065"/>
<marker id="962592995" label="Corrupted Huorn" category="71" did="1879331793" parentZoneId="1879330412" longitude="-30.970165" latitude="-46.86065"/>
<marker id="962592996" label="Anórien Scavenger" category="71" did="1879331629" parentZoneId="1879330412" longitude="-30.970165" latitude="-46.86065"/>
<marker id="962592997" label="Grey-spinner" category="71" did="1879331628" parentZoneId="1879330412" longitude="-30.970165" latitude="-46.86065"/>
<marker id="962592998" label="Wild Anórien-boar" category="71" did="1879331635" parentZoneId="1879330412" longitude="-30.970165" latitude="-46.86065"/>
<marker id="962592999" label="Anórien Fire-fly" category="71" did="1879331632" parentZoneId="1879330412" longitude="-30.970165" latitude="-46.86065"/>
<marker id="962593000" label="Entwash Norbog" category="71" did="1879331633" parentZoneId="1879330412" longitude="-30.970165" latitude="-46.86065"/>
<marker id="962593001" label="Ghûrdhos Warrior" category="71" did="1879331638" parentZoneId="1879330412" longitude="-30.970165" latitude="-46.86065"/>
<marker id="962593002" label="Dheghûn" category="71" did="1879331648" parentZoneId="1879330412" longitude="-30.970165" latitude="-46.86065"/>
<marker id="962593003" label="Anórien Mountain-lion" category="71" did="1879331636" parentZoneId="1879330412" longitude="-30.970165" latitude="-46.86065"/>
<marker id="962593004" label="Mordor Warg" category="71" did="1879331712" parentZoneId="1879330412" longitude="-30.863857" latitude="-47.090576"/>
<marker id="962593005" label="Grey-weaver" category="71" did="1879331626" parentZoneId="1879330412" longitude="-30.863857" latitude="-47.090576"/>
<marker id="962593006" label="Anórien Mountain-goat" category="71" did="1879331709" parentZoneId="1879330412" longitude="-30.863857" latitude="-47.090576"/>
<marker id="962593007" label="Corrupted Huorn" category="71" did="1879331793" parentZoneId="1879330412" longitude="-30.863857" latitude="-47.090576"/>
<marker id="962593008" label="Anórien Scavenger" category="71" did="1879331629" parentZoneId="1879330412" longitude="-30.863857" latitude="-47.090576"/>
<marker id="962593009" label="Grey-spinner" category="71" did="1879331628" parentZoneId="1879330412" longitude="-30.863857" latitude="-47.090576"/>
<marker id="962593010" label="Wild Anórien-boar" category="71" did="1879331635" parentZoneId="1879330412" longitude="-30.863857" latitude="-47.090576"/>
<marker id="962593011" label="Anórien Fire-fly" category="71" did="1879331632" parentZoneId="1879330412" longitude="-30.863857" latitude="-47.090576"/>
<marker id="962593012" label="Entwash Norbog" category="71" did="1879331633" parentZoneId="1879330412" longitude="-30.863857" latitude="-47.090576"/>
<marker id="962593013" label="Ghûrdhos Warrior" category="71" did="1879331638" parentZoneId="1879330412" longitude="-30.863857" latitude="-47.090576"/>
<marker id="962593014" label="Dheghûn" category="71" did="1879331648" parentZoneId="1879330412" longitude="-30.863857" latitude="-47.090576"/>
<marker id="962593015" label="Anórien Mountain-lion" category="71" did="1879331636" parentZoneId="1879330412" longitude="-30.863857" latitude="-47.090576"/>
<marker id="962593016" label="Mordor Warg" category="71" did="1879331712" parentZoneId="1879330412" longitude="-31.121094" latitude="-47.110752"/>
<marker id="962593017" label="Grey-weaver" category="71" did="1879331626" parentZoneId="1879330412" longitude="-31.121094" latitude="-47.110752"/>
<marker id="962593018" label="Anórien Mountain-goat" category="71" did="1879331709" parentZoneId="1879330412" longitude="-31.121094" latitude="-47.110752"/>
<marker id="962593019" label="Corrupted Huorn" category="71" did="1879331793" parentZoneId="1879330412" longitude="-31.121094" latitude="-47.110752"/>
<marker id="962593020" label="Anórien Scavenger" category="71" did="1879331629" parentZoneId="1879330412" longitude="-31.121094" latitude="-47.110752"/>
<marker id="962593021" label="Grey-spinner" category="71" did="1879331628" parentZoneId="1879330412" longitude="-31.121094" latitude="-47.110752"/>
<marker id="962593022" label="Wild Anórien-boar" category="71" did="1879331635" parentZoneId="1879330412" longitude="-31.121094" latitude="-47.110752"/>
<marker id="962593023" label="Anórien Fire-fly" category="71" did="1879331632" parentZoneId="1879330412" longitude="-31.121094" latitude="-47.110752"/>
<marker id="962593024" label="Entwash Norbog" category="71" did="1879331633" parentZoneId="1879330412" longitude="-31.121094" latitude="-47.110752"/>
<marker id="962593025" label="Ghûrdhos Warrior" category="71" did="1879331638" parentZoneId="1879330412" longitude="-31.121094" latitude="-47.110752"/>
<marker id="962593026" label="Dheghûn" category="71" did="1879331648" parentZoneId="1879330412" longitude="-31.121094" latitude="-47.110752"/>
<marker id="962593027" label="Anórien Mountain-lion" category="71" did="1879331636" parentZoneId="1879330412" longitude="-31.121094" latitude="-47.110752"/>
<marker id="962593028" label="Mordor Warg" category="71" did="1879331712" parentZoneId="1879330412" longitude="-31.381289" latitude="-47.133327"/>
<marker id="962593029" label="Grey-weaver" category="71" did="1879331626" parentZoneId="1879330412" longitude="-31.381289" latitude="-47.133327"/>
<marker id="962593030" label="Anórien Mountain-goat" category="71" did="1879331709" parentZoneId="1879330412" longitude="-31.381289" latitude="-47.133327"/>
<marker id="962593031" label="Corrupted Huorn" category="71" did="1879331793" parentZoneId="1879330412" longitude="-31.381289" latitude="-47.133327"/>
<marker id="962593032" label="Anórien Scavenger" category="71" did="1879331629" parentZoneId="1879330412" longitude="-31.381289" latitude="-47.133327"/>
<marker id="962593033" label="Grey-spinner" category="71" did="1879331628" parentZoneId="1879330412" longitude="-31.381289" latitude="-47.133327"/>
<marker id="962593034" label="Wild Anórien-boar" category="71" did="1879331635" parentZoneId="1879330412" longitude="-31.381289" latitude="-47.133327"/>
<marker id="962593035" label="Anórien Fire-fly" category="71" did="1879331632" parentZoneId="1879330412" longitude="-31.381289" latitude="-47.133327"/>
<marker id="962593036" label="Entwash Norbog" category="71" did="1879331633" parentZoneId="1879330412" longitude="-31.381289" latitude="-47.133327"/>
<marker id="962593037" label="Ghûrdhos Warrior" category="71" did="1879331638" parentZoneId="1879330412" longitude="-31.381289" latitude="-47.133327"/>
<marker id="962593038" label="Dheghûn" category="71" did="1879331648" parentZoneId="1879330412" longitude="-31.381289" latitude="-47.133327"/>
<marker id="962593039" label="Anórien Mountain-lion" category="71" did="1879331636" parentZoneId="1879330412" longitude="-31.381289" latitude="-47.133327"/>
<marker id="962593040" label="Mordor Warg" category="71" did="1879331712" parentZoneId="1879330412" longitude="-31.238085" latitude="-47.39656"/>
<marker id="962593041" label="Grey-weaver" category="71" did="1879331626" parentZoneId="1879330412" longitude="-31.238085" latitude="-47.39656"/>
<marker id="962593042" label="Anórien Mountain-goat" category="71" did="1879331709" parentZoneId="1879330412" longitude="-31.238085" latitude="-47.39656"/>
<marker id="962593043" label="Corrupted Huorn" category="71" did="1879331793" parentZoneId="1879330412" longitude="-31.238085" latitude="-47.39656"/>
<marker id="962593044" label="Anórien Scavenger" category="71" did="1879331629" parentZoneId="1879330412" longitude="-31.238085" latitude="-47.39656"/>
<marker id="962593045" label="Grey-spinner" category="71" did="1879331628" parentZoneId="1879330412" longitude="-31.238085" latitude="-47.39656"/>
<marker id="962593046" label="Wild Anórien-boar" category="71" did="1879331635" parentZoneId="1879330412" longitude="-31.238085" latitude="-47.39656"/>
<marker id="962593047" label="Anórien Fire-fly" category="71" did="1879331632" parentZoneId="1879330412" longitude="-31.238085" latitude="-47.39656"/>
<marker id="962593048" label="Entwash Norbog" category="71" did="1879331633" parentZoneId="1879330412" longitude="-31.238085" latitude="-47.39656"/>
<marker id="962593049" label="Ghûrdhos Warrior" category="71" did="1879331638" parentZoneId="1879330412" longitude="-31.238085" latitude="-47.39656"/>
<marker id="962593050" label="Dheghûn" category="71" did="1879331648" parentZoneId="1879330412" longitude="-31.238085" latitude="-47.39656"/>
<marker id="962593051" label="Anórien Mountain-lion" category="71" did="1879331636" parentZoneId="1879330412" longitude="-31.238085" latitude="-47.39656"/>
<marker id="962593052" label="Mordor Warg" category="71" did="1879331712" parentZoneId="1879330412" longitude="-30.952333" latitude="-47.33075"/>
<marker id="962593053" label="Grey-weaver" category="71" did="1879331626" parentZoneId="1879330412" longitude="-30.952333" latitude="-47.33075"/>
<marker id="962593054" label="Anórien Mountain-goat" category="71" did="1879331709" parentZoneId="1879330412" longitude="-30.952333" latitude="-47.33075"/>
<marker id="962593055" label="Corrupted Huorn" category="71" did="1879331793" parentZoneId="1879330412" longitude="-30.952333" latitude="-47.33075"/>
<marker id="962593056" label="Anórien Scavenger" category="71" did="1879331629" parentZoneId="1879330412" longitude="-30.952333" latitude="-47.33075"/>
<marker id="962593057" label="Grey-spinner" category="71" did="1879331628" parentZoneId="1879330412" longitude="-30.952333" latitude="-47.33075"/>
<marker id="962593058" label="Wild Anórien-boar" category="71" did="1879331635" parentZoneId="1879330412" longitude="-30.952333" latitude="-47.33075"/>
<marker id="962593059" label="Anórien Fire-fly" category="71" did="1879331632" parentZoneId="1879330412" longitude="-30.952333" latitude="-47.33075"/>
<marker id="962593060" label="Entwash Norbog" category="71" did="1879331633" parentZoneId="1879330412" longitude="-30.952333" latitude="-47.33075"/>
<marker id="962593061" label="Ghûrdhos Warrior" category="71" did="1879331638" parentZoneId="1879330412" longitude="-30.952333" latitude="-47.33075"/>
<marker id="962593062" label="Dheghûn" category="71" did="1879331648" parentZoneId="1879330412" longitude="-30.952333" latitude="-47.33075"/>
<marker id="962593063" label="Anórien Mountain-lion" category="71" did="1879331636" parentZoneId="1879330412" longitude="-30.952333" latitude="-47.33075"/>
<marker id="962593064" label="Mordor Warg" category="71" did="1879331712" parentZoneId="1879330412" longitude="-31.102148" latitude="-47.570766"/>
<marker id="962593065" label="Grey-weaver" category="71" did="1879331626" parentZoneId="1879330412" longitude="-31.102148" latitude="-47.570766"/>
<marker id="962593066" label="Anórien Mountain-goat" category="71" did="1879331709" parentZoneId="1879330412" longitude="-31.102148" latitude="-47.570766"/>
<marker id="962593067" label="Corrupted Huorn" category="71" did="1879331793" parentZoneId="1879330412" longitude="-31.102148" latitude="-47.570766"/>
<marker id="962593068" label="Anórien Scavenger" category="71" did="1879331629" parentZoneId="1879330412" longitude="-31.102148" latitude="-47.570766"/>
<marker id="962593069" label="Grey-spinner" category="71" did="1879331628" parentZoneId="1879330412" longitude="-31.102148" latitude="-47.570766"/>
<marker id="962593070" label="Wild Anórien-boar" category="71" did="1879331635" parentZoneId="1879330412" longitude="-31.102148" latitude="-47.570766"/>
<marker id="962593071" label="Anórien Fire-fly" category="71" did="1879331632" parentZoneId="1879330412" longitude="-31.102148" latitude="-47.570766"/>
<marker id="962593072" label="Entwash Norbog" category="71" did="1879331633" parentZoneId="1879330412" longitude="-31.102148" latitude="-47.570766"/>
<marker id="962593073" label="Ghûrdhos Warrior" category="71" did="1879331638" parentZoneId="1879330412" longitude="-31.102148" latitude="-47.570766"/>
<marker id="962593074" label="Dheghûn" category="71" did="1879331648" parentZoneId="1879330412" longitude="-31.102148" latitude="-47.570766"/>
<marker id="962593075" label="Anórien Mountain-lion" category="71" did="1879331636" parentZoneId="1879330412" longitude="-31.102148" latitude="-47.570766"/>
<marker id="962596864" label="Deer" category="78" did="1879080635" parentZoneId="1879330412" longitude="-31.02254" latitude="-46.586967"/>
<marker id="962596865" label="Rabbit" category="78" did="1879079062" parentZoneId="1879330412" longitude="-31.02254" latitude="-46.586967"/>
<marker id="962596866" label="Tater" category="77" did="1879061257" parentZoneId="1879330412" longitude="-31.02254" latitude="-46.586967"/>
<marker id="962596867" label="Squirrel" category="78" did="1879078796" parentZoneId="1879330412" longitude="-31.02254" latitude="-46.586967"/>
<marker id="962596868" label="Bunch of Blueberries" category="77" did="1879061342" parentZoneId="1879330412" longitude="-31.02254" latitude="-46.586967"/>
<marker id="962596869" label="Bunch of Strawberries" category="77" did="1879061415" parentZoneId="1879330412" longitude="-31.02254" latitude="-46.586967"/>
<marker id="962596870" label="Bunch of Raspberries" category="77" did="1879061417" parentZoneId="1879330412" longitude="-31.02254" latitude="-46.586967"/>
<marker id="962596871" label="Bunch of Blackberries" category="77" did="1879061418" parentZoneId="1879330412" longitude="-31.02254" latitude="-46.586967"/>
<marker id="962596872" label="Drop of Fine Clover Honey" category="77" did="1879061399" parentZoneId="1879330412" longitude="-31.02254" latitude="-46.586967"/>
<marker id="962596873" label="Fox" category="78" did="1879078196" parentZoneId="1879330412" longitude="-31.02254" latitude="-46.586967"/>
<marker id="962596874" label="Indigo Plant" category="77" did="1879054949" parentZoneId="1879330412" longitude="-31.02254" latitude="-46.586967"/>
<marker id="962596875" label="Corrupted Huorn" category="71" did="1879331793" parentZoneId="1879330412" longitude="-31.018877" latitude="-46.58587"/>
<marker id="962596876" label="Grey-weaver" category="71" did="1879331626" parentZoneId="1879330412" longitude="-31.018877" latitude="-46.58587"/>
<marker id="962596877" label="Anórien Scavenger" category="71" did="1879331629" parentZoneId="1879330412" longitude="-31.018877" latitude="-46.58587"/>
<marker id="962596878" label="Anórien Fire-fly" category="71" did="1879331632" parentZoneId="1879330412" longitude="-31.018877" latitude="-46.58587"/>
<marker id="962596879" label="Ghûrdhos Warrior" category="71" did="1879331638" parentZoneId="1879330412" longitude="-31.018877" latitude="-46.58587"/>
<marker id="962596880" label="Anórien Mountain-lion" category="71" did="1879331636" parentZoneId="1879330412" longitude="-31.018877" latitude="-46.58587"/>
<marker id="962596881" label="Anórien Mountain-goat" category="71" did="1879331709" parentZoneId="1879330412" longitude="-31.018877" latitude="-46.58587"/>
<marker id="962596882" label="Dheghûn" category="71" did="1879331648" parentZoneId="1879330412" longitude="-31.018877" latitude="-46.58587"/>
<marker id="962596883" label="Bunch of Blueberries" category="77" did="1879061342" parentZoneId="1879330412" longitude="-31.27618" latitude="-46.09846"/>
<marker id="962596884" label="Squirrel" category="78" did="1879078796" parentZoneId="1879330412" longitude="-31.27618" latitude="-46.09846"/>
<marker id="962596885" label="Tater" category="77" did="1879061257" parentZoneId="1879330412" longitude="-31.27618" latitude="-46.09846"/>
<marker id="962596886" label="Deer" category="78" did="1879080635" parentZoneId="1879330412" longitude="-31.27618" latitude="-46.09846"/>
<marker id="962596887" label="Fox" category="78" did="1879078196" parentZoneId="1879330412" longitude="-31.27618" latitude="-46.09846"/>
<marker id="962596888" label="Drop of Fine Clover Honey" category="77" did="1879061399" parentZoneId="1879330412" longitude="-31.27618" latitude="-46.09846"/>
<marker id="962596889" label="Rabbit" category="78" did="1879079062" parentZoneId="1879330412" longitude="-31.27618" latitude="-46.09846"/>
<marker id="962596890" label="Bunch of Strawberries" category="77" did="1879061415" parentZoneId="1879330412" longitude="-31.27618" latitude="-46.09846"/>
<marker id="962596891" label="Indigo Plant" category="77" did="1879054949" parentZoneId="1879330412" longitude="-31.27618" latitude="-46.09846"/>
<marker id="962596892" label="Bunch of Raspberries" category="77" did="1879061417" parentZoneId="1879330412" longitude="-31.27618" latitude="-46.09846"/>
<marker id="962596893" label="Bunch of Blackberries" category="77" did="1879061418" parentZoneId="1879330412" longitude="-31.27618" latitude="-46.09846"/>
<marker id="962596894" label="Bunch of Blueberries" category="77" did="1879061342" parentZoneId="1879330412" longitude="-30.857588" latitude="-46.360863"/>
<marker id="962596895" label="Squirrel" category="78" did="1879078796" parentZoneId="1879330412" longitude="-30.857588" latitude="-46.360863"/>
<marker id="962596896" label="Tater" category="77" did="1879061257" parentZoneId="1879330412" longitude="-30.857588" latitude="-46.360863"/>
<marker id="962596897" label="Deer" category="78" did="1879080635" parentZoneId="1879330412" longitude="-30.857588" latitude="-46.360863"/>
<marker id="962596898" label="Fox" category="78" did="1879078196" parentZoneId="1879330412" longitude="-30.857588" latitude="-46.360863"/>
<marker id="962596899" label="Drop of Fine Clover Honey" category="77" did="1879061399" parentZoneId="1879330412" longitude="-30.857588" latitude="-46.360863"/>
<marker id="962596900" label="Rabbit" category="78" did="1879079062" parentZoneId="1879330412" longitude="-30.857588" latitude="-46.360863"/>
<marker id="962596901" label="Bunch of Strawberries" category="77" did="1879061415" parentZoneId="1879330412" longitude="-30.857588" latitude="-46.360863"/>
<marker id="962596902" label="Indigo Plant" category="77" did="1879054949" parentZoneId="1879330412" longitude="-30.857588" latitude="-46.360863"/>
<marker id="962596903" label="Bunch of Raspberries" category="77" did="1879061417" parentZoneId="1879330412" longitude="-30.857588" latitude="-46.360863"/>
<marker id="962596904" label="Bunch of Blackberries" category="77" did="1879061418" parentZoneId="1879330412" longitude="-30.857588" latitude="-46.360863"/>
<marker id="962596905" label="Bunch of Blueberries" category="77" did="1879061342" parentZoneId="1879330412" longitude="-30.828974" latitude="-46.572094"/>
<marker id="962596906" label="Squirrel" category="78" did="1879078796" parentZoneId="1879330412" longitude="-30.828974" latitude="-46.572094"/>
<marker id="962596907" label="Tater" category="77" did="1879061257" parentZoneId="1879330412" longitude="-30.828974" latitude="-46.572094"/>
<marker id="962596908" label="Deer" category="78" did="1879080635" parentZoneId="1879330412" longitude="-30.828974" latitude="-46.572094"/>
<marker id="962596909" label="Fox" category="78" did="1879078196" parentZoneId="1879330412" longitude="-30.828974" latitude="-46.572094"/>
<marker id="962596910" label="Drop of Fine Clover Honey" category="77" did="1879061399" parentZoneId="1879330412" longitude="-30.828974" latitude="-46.572094"/>
<marker id="962596911" label="Rabbit" category="78" did="1879079062" parentZoneId="1879330412" longitude="-30.828974" latitude="-46.572094"/>
<marker id="962596912" label="Bunch of Strawberries" category="77" did="1879061415" parentZoneId="1879330412" longitude="-30.828974" latitude="-46.572094"/>
<marker id="962596913" label="Indigo Plant" category="77" did="1879054949" parentZoneId="1879330412" longitude="-30.828974" latitude="-46.572094"/>
<marker id="962596914" label="Bunch of Raspberries" category="77" did="1879061417" parentZoneId="1879330412" longitude="-30.828974" latitude="-46.572094"/>
<marker id="962596915" label="Bunch of Blackberries" category="77" did="1879061418" parentZoneId="1879330412" longitude="-30.828974" latitude="-46.572094"/>
<marker id="962596916" label="Bunch of Blueberries" category="77" did="1879061342" parentZoneId="1879330412" longitude="-30.991161" latitude="-46.564857"/>
<marker id="962596917" label="Squirrel" category="78" did="1879078796" parentZoneId="1879330412" longitude="-30.991161" latitude="-46.564857"/>
<marker id="962596918" label="Tater" category="77" did="1879061257" parentZoneId="1879330412" longitude="-30.991161" latitude="-46.564857"/>
<marker id="962596919" label="Deer" category="78" did="1879080635" parentZoneId="1879330412" longitude="-30.991161" latitude="-46.564857"/>
<marker id="962596920" label="Fox" category="78" did="1879078196" parentZoneId="1879330412" longitude="-30.991161" latitude="-46.564857"/>
<marker id="962596921" label="Drop of Fine Clover Honey" category="77" did="1879061399" parentZoneId="1879330412" longitude="-30.991161" latitude="-46.564857"/>
<marker id="962596922" label="Rabbit" category="78" did="1879079062" parentZoneId="1879330412" longitude="-30.991161" latitude="-46.564857"/>
<marker id="962596923" label="Bunch of Strawberries" category="77" did="1879061415" parentZoneId="1879330412" longitude="-30.991161" latitude="-46.564857"/>
<marker id="962596924" label="Indigo Plant" category="77" did="1879054949" parentZoneId="1879330412" longitude="-30.991161" latitude="-46.564857"/>
<marker id="962596925" label="Bunch of Raspberries" category="77" did="1879061417" parentZoneId="1879330412" longitude="-30.991161" latitude="-46.564857"/>
<marker id="962596926" label="Bunch of Blackberries" category="77" did="1879061418" parentZoneId="1879330412" longitude="-30.991161" latitude="-46.564857"/>
<marker id="962596927" label="Bunch of Blueberries" category="77" did="1879061342" parentZoneId="1879330412" longitude="-31.285263" latitude="-46.719227"/>
<marker id="962596928" label="Squirrel" category="78" did="1879078796" parentZoneId="1879330412" longitude="-31.285263" latitude="-46.719227"/>
<marker id="962596929" label="Tater" category="77" did="1879061257" parentZoneId="1879330412" longitude="-31.285263" latitude="-46.719227"/>
<marker id="962596930" label="Deer" category="78" did="1879080635" parentZoneId="1879330412" longitude="-31.285263" latitude="-46.719227"/>
<marker id="962596931" label="Fox" category="78" did="1879078196" parentZoneId="1879330412" longitude="-31.285263" latitude="-46.719227"/>
<marker id="962596932" label="Drop of Fine Clover Honey" category="77" did="1879061399" parentZoneId="1879330412" longitude="-31.285263" latitude="-46.719227"/>
<marker id="962596933" label="Rabbit" category="78" did="1879079062" parentZoneId="1879330412" longitude="-31.285263" latitude="-46.719227"/>
<marker id="962596934" label="Bunch of Strawberries" category="77" did="1879061415" parentZoneId="1879330412" longitude="-31.285263" latitude="-46.719227"/>
<marker id="962596935" label="Indigo Plant" category="77" did="1879054949" parentZoneId="1879330412" longitude="-31.285263" latitude="-46.719227"/>
<marker id="962596936" label="Bunch of Raspberries" category="77" did="1879061417" parentZoneId="1879330412" longitude="-31.285263" latitude="-46.719227"/>
<marker id="962596937" label="Bunch of Blackberries" category="77" did="1879061418" parentZoneId="1879330412" longitude="-31.285263" latitude="-46.719227"/>
<marker id="962596938" label="Bunch of Blueberries" category="77" did="1879061342" parentZoneId="1879330412" longitude="-31.46995" latitude="-46.5667"/>
<marker id="962596939" label="Squirrel" category="78" did="1879078796" parentZoneId="1879330412" longitude="-31.46995" latitude="-46.5667"/>
<marker id="962596940" label="Tater" category="77" did="1879061257" parentZoneId="1879330412" longitude="-31.46995" latitude="-46.5667"/>
<marker id="962596941" label="Deer" category="78" did="1879080635" parentZoneId="1879330412" longitude="-31.46995" latitude="-46.5667"/>
<marker id="962596942" label="Fox" category="78" did="1879078196" parentZoneId="1879330412" longitude="-31.46995" latitude="-46.5667"/>
<marker id="962596943" label="Drop of Fine Clover Honey" category="77" did="1879061399" parentZoneId="1879330412" longitude="-31.46995" latitude="-46.5667"/>
<marker id="962596944" label="Rabbit" category="78" did="1879079062" parentZoneId="1879330412" longitude="-31.46995" latitude="-46.5667"/>
<marker id="962596945" label="Bunch of Strawberries" category="77" did="1879061415" parentZoneId="1879330412" longitude="-31.46995" latitude="-46.5667"/>
<marker id="962596946" label="Indigo Plant" category="77" did="1879054949" parentZoneId="1879330412" longitude="-31.46995" latitude="-46.5667"/>
<marker id="962596947" label="Bunch of Raspberries" category="77" did="1879061417" parentZoneId="1879330412" longitude="-31.46995" latitude="-46.5667"/>
<marker id="962596948" label="Bunch of Blackberries" category="77" did="1879061418" parentZoneId="1879330412" longitude="-31.46995" latitude="-46.5667"/>
<marker id="962596949" label="Bunch of Blueberries" category="77" did="1879061342" parentZoneId="1879330412" longitude="-31.53329" latitude="-46.50892"/>
<marker id="962596950" label="Squirrel" category="78" did="1879078796" parentZoneId="1879330412" longitude="-31.53329" latitude="-46.50892"/>
<marker id="962596951" label="Tater" category="77" did="1879061257" parentZoneId="1879330412" longitude="-31.53329" latitude="-46.50892"/>
<marker id="962596952" label="Deer" category="78" did="1879080635" parentZoneId="1879330412" longitude="-31.53329" latitude="-46.50892"/>
<marker id="962596953" label="Fox" category="78" did="1879078196" parentZoneId="1879330412" longitude="-31.53329" latitude="-46.50892"/>
<marker id="962596954" label="Drop of Fine Clover Honey" category="77" did="1879061399" parentZoneId="1879330412" longitude="-31.53329" latitude="-46.50892"/>
<marker id="962596955" label="Rabbit" category="78" did="1879079062" parentZoneId="1879330412" longitude="-31.53329" latitude="-46.50892"/>
<marker id="962596956" label="Bunch of Strawberries" category="77" did="1879061415" parentZoneId="1879330412" longitude="-31.53329" latitude="-46.50892"/>
<marker id="962596957" label="Indigo Plant" category="77" did="1879054949" parentZoneId="1879330412" longitude="-31.53329" latitude="-46.50892"/>
<marker id="962596958" label="Bunch of Raspberries" category="77" did="1879061417" parentZoneId="1879330412" longitude="-31.53329" latitude="-46.50892"/>
<marker id="962596959" label="Bunch of Blackberries" category="77" did="1879061418" parentZoneId="1879330412" longitude="-31.53329" latitude="-46.50892"/>
<marker id="962596960" label="Bunch of Blueberries" category="77" did="1879061342" parentZoneId="1879330412" longitude="-31.510674" latitude="-46.381298"/>
<marker id="962596961" label="Squirrel" category="78" did="1879078796" parentZoneId="1879330412" longitude="-31.510674" latitude="-46.381298"/>
<marker id="962596962" label="Tater" category="77" did="1879061257" parentZoneId="1879330412" longitude="-31.510674" latitude="-46.381298"/>
<marker id="962596963" label="Deer" category="78" did="1879080635" parentZoneId="1879330412" longitude="-31.510674" latitude="-46.381298"/>
<marker id="962596964" label="Fox" category="78" did="1879078196" parentZoneId="1879330412" longitude="-31.510674" latitude="-46.381298"/>
<marker id="962596965" label="Drop of Fine Clover Honey" category="77" did="1879061399" parentZoneId="1879330412" longitude="-31.510674" latitude="-46.381298"/>
<marker id="962596966" label="Rabbit" category="78" did="1879079062" parentZoneId="1879330412" longitude="-31.510674" latitude="-46.381298"/>
<marker id="962596967" label="Bunch of Strawberries" category="77" did="1879061415" parentZoneId="1879330412" longitude="-31.510674" latitude="-46.381298"/>
<marker id="962596968" label="Indigo Plant" category="77" did="1879054949" parentZoneId="1879330412" longitude="-31.510674" latitude="-46.381298"/>
<marker id="962596969" label="Bunch of Raspberries" category="77" did="1879061417" parentZoneId="1879330412" longitude="-31.510674" latitude="-46.381298"/>
<marker id="962596970" label="Bunch of Blackberries" category="77" did="1879061418" parentZoneId="1879330412" longitude="-31.510674" latitude="-46.381298"/>
<marker id="962596971" label="Bunch of Blueberries" category="77" did="1879061342" parentZoneId="1879330412" longitude="-31.447166" latitude="-46.19314"/>
<marker id="962596972" label="Squirrel" category="78" did="1879078796" parentZoneId="1879330412" longitude="-31.447166" latitude="-46.19314"/>
<marker id="962596973" label="Tater" category="77" did="1879061257" parentZoneId="1879330412" longitude="-31.447166" latitude="-46.19314"/>
<marker id="962596974" label="Deer" category="78" did="1879080635" parentZoneId="1879330412" longitude="-31.447166" latitude="-46.19314"/>
<marker id="962596975" label="Fox" category="78" did="1879078196" parentZoneId="1879330412" longitude="-31.447166" latitude="-46.19314"/>
<marker id="962596976" label="Drop of Fine Clover Honey" category="77" did="1879061399" parentZoneId="1879330412" longitude="-31.447166" latitude="-46.19314"/>
<marker id="962596977" label="Rabbit" category="78" did="1879079062" parentZoneId="1879330412" longitude="-31.447166" latitude="-46.19314"/>
<marker id="962596978" label="Bunch of Strawberries" category="77" did="1879061415" parentZoneId="1879330412" longitude="-31.447166" latitude="-46.19314"/>
<marker id="962596979" label="Indigo Plant" category="77" did="1879054949" parentZoneId="1879330412" longitude="-31.447166" latitude="-46.19314"/>
<marker id="962596980" label="Bunch of Raspberries" category="77" did="1879061417" parentZoneId="1879330412" longitude="-31.447166" latitude="-46.19314"/>
<marker id="962596981" label="Bunch of Blackberries" category="77" did="1879061418" parentZoneId="1879330412" longitude="-31.447166" latitude="-46.19314"/>
<marker id="962596982" label="Bunch of Blueberries" category="77" did="1879061342" parentZoneId="1879330412" longitude="-31.29248" latitude="-46.46285"/>
<marker id="962596983" label="Squirrel" category="78" did="1879078796" parentZoneId="1879330412" longitude="-31.29248" latitude="-46.46285"/>
<marker id="962596984" label="Tater" category="77" did="1879061257" parentZoneId="1879330412" longitude="-31.29248" latitude="-46.46285"/>
<marker id="962596985" label="Deer" category="78" did="1879080635" parentZoneId="1879330412" longitude="-31.29248" latitude="-46.46285"/>
<marker id="962596986" label="Fox" category="78" did="1879078196" parentZoneId="1879330412" longitude="-31.29248" latitude="-46.46285"/>
<marker id="962596987" label="Drop of Fine Clover Honey" category="77" did="1879061399" parentZoneId="1879330412" longitude="-31.29248" latitude="-46.46285"/>
<marker id="962596988" label="Rabbit" category="78" did="1879079062" parentZoneId="1879330412" longitude="-31.29248" latitude="-46.46285"/>
<marker id="962596989" label="Bunch of Strawberries" category="77" did="1879061415" parentZoneId="1879330412" longitude="-31.29248" latitude="-46.46285"/>
<marker id="962596990" label="Indigo Plant" category="77" did="1879054949" parentZoneId="1879330412" longitude="-31.29248" latitude="-46.46285"/>
<marker id="962596991" label="Bunch of Raspberries" category="77" did="1879061417" parentZoneId="1879330412" longitude="-31.29248" latitude="-46.46285"/>
<marker id="962596992" label="Bunch of Blackberries" category="77" did="1879061418" parentZoneId="1879330412" longitude="-31.29248" latitude="-46.46285"/>
<marker id="962596993" label="Bunch of Blueberries" category="77" did="1879061342" parentZoneId="1879330412" longitude="-31.049063" latitude="-46.445698"/>
<marker id="962596994" label="Squirrel" category="78" did="1879078796" parentZoneId="1879330412" longitude="-31.049063" latitude="-46.445698"/>
<marker id="962596995" label="Tater" category="77" did="1879061257" parentZoneId="1879330412" longitude="-31.049063" latitude="-46.445698"/>
<marker id="962596996" label="Deer" category="78" did="1879080635" parentZoneId="1879330412" longitude="-31.049063" latitude="-46.445698"/>
<marker id="962596997" label="Fox" category="78" did="1879078196" parentZoneId="1879330412" longitude="-31.049063" latitude="-46.445698"/>
<marker id="962596998" label="Drop of Fine Clover Honey" category="77" did="1879061399" parentZoneId="1879330412" longitude="-31.049063" latitude="-46.445698"/>
<marker id="962596999" label="Rabbit" category="78" did="1879079062" parentZoneId="1879330412" longitude="-31.049063" latitude="-46.445698"/>
<marker id="962597000" label="Bunch of Strawberries" category="77" did="1879061415" parentZoneId="1879330412" longitude="-31.049063" latitude="-46.445698"/>
<marker id="962597001" label="Indigo Plant" category="77" did="1879054949" parentZoneId="1879330412" longitude="-31.049063" latitude="-46.445698"/>
<marker id="962597002" label="Bunch of Raspberries" category="77" did="1879061417" parentZoneId="1879330412" longitude="-31.049063" latitude="-46.445698"/>
<marker id="962597003" label="Bunch of Blackberries" category="77" did="1879061418" parentZoneId="1879330412" longitude="-31.049063" latitude="-46.445698"/>
<marker id="962597004" label="Bunch of Blueberries" category="77" did="1879061342" parentZoneId="1879330412" longitude="-30.958036" latitude="-46.172424"/>
<marker id="962597005" label="Squirrel" category="78" did="1879078796" parentZoneId="1879330412" longitude="-30.958036" latitude="-46.172424"/>
<marker id="962597006" label="Tater" category="77" did="1879061257" parentZoneId="1879330412" longitude="-30.958036" latitude="-46.172424"/>
<marker id="962597007" label="Deer" category="78" did="1879080635" parentZoneId="1879330412" longitude="-30.958036" latitude="-46.172424"/>
<marker id="962597008" label="Fox" category="78" did="1879078196" parentZoneId="1879330412" longitude="-30.958036" latitude="-46.172424"/>
<marker id="962597009" label="Drop of Fine Clover Honey" category="77" did="1879061399" parentZoneId="1879330412" longitude="-30.958036" latitude="-46.172424"/>
<marker id="962597010" label="Rabbit" category="78" did="1879079062" parentZoneId="1879330412" longitude="-30.958036" latitude="-46.172424"/>
<marker id="962597011" label="Bunch of Strawberries" category="77" did="1879061415" parentZoneId="1879330412" longitude="-30.958036" latitude="-46.172424"/>
<marker id="962597012" label="Indigo Plant" category="77" did="1879054949" parentZoneId="1879330412" longitude="-30.958036" latitude="-46.172424"/>
<marker id="962597013" label="Bunch of Raspberries" category="77" did="1879061417" parentZoneId="1879330412" longitude="-30.958036" latitude="-46.172424"/>
<marker id="962597014" label="Bunch of Blackberries" category="77" did="1879061418" parentZoneId="1879330412" longitude="-30.958036" latitude="-46.172424"/>
<marker id="962597015" label="Bunch of Blueberries" category="77" did="1879061342" parentZoneId="1879330412" longitude="-30.857948" latitude="-46.067104"/>
<marker id="962597016" label="Squirrel" category="78" did="1879078796" parentZoneId="1879330412" longitude="-30.857948" latitude="-46.067104"/>
<marker id="962597017" label="Tater" category="77" did="1879061257" parentZoneId="1879330412" longitude="-30.857948" latitude="-46.067104"/>
<marker id="962597018" label="Deer" category="78" did="1879080635" parentZoneId="1879330412" longitude="-30.857948" latitude="-46.067104"/>
<marker id="962597019" label="Fox" category="78" did="1879078196" parentZoneId="1879330412" longitude="-30.857948" latitude="-46.067104"/>
<marker id="962597020" label="Drop of Fine Clover Honey" category="77" did="1879061399" parentZoneId="1879330412" longitude="-30.857948" latitude="-46.067104"/>
<marker id="962597021" label="Rabbit" category="78" did="1879079062" parentZoneId="1879330412" longitude="-30.857948" latitude="-46.067104"/>
<marker id="962597022" label="Bunch of Strawberries" category="77" did="1879061415" parentZoneId="1879330412" longitude="-30.857948" latitude="-46.067104"/>
<marker id="962597023" label="Indigo Plant" category="77" did="1879054949" parentZoneId="1879330412" longitude="-30.857948" latitude="-46.067104"/>
<marker id="962597024" label="Bunch of Raspberries" category="77" did="1879061417" parentZoneId="1879330412" longitude="-30.857948" latitude="-46.067104"/>
<marker id="962597025" label="Bunch of Blackberries" category="77" did="1879061418" parentZoneId="1879330412" longitude="-30.857948" latitude="-46.067104"/>
<marker id="962597026" label="Bunch of Blueberries" category="77" did="1879061342" parentZoneId="1879330412" longitude="-31.106024" latitude="-46.061996"/>
<marker id="962597027" label="Squirrel" category="78" did="1879078796" parentZoneId="1879330412" longitude="-31.106024" latitude="-46.061996"/>
<marker id="962597028" label="Tater" category="77" did="1879061257" parentZoneId="1879330412" longitude="-31.106024" latitude="-46.061996"/>
<marker id="962597029" label="Deer" category="78" did="1879080635" parentZoneId="1879330412" longitude="-31.106024" latitude="-46.061996"/>
<marker id="962597030" label="Fox" category="78" did="1879078196" parentZoneId="1879330412" longitude="-31.106024" latitude="-46.061996"/>
<marker id="962597031" label="Drop of Fine Clover Honey" category="77" did="1879061399" parentZoneId="1879330412" longitude="-31.106024" latitude="-46.061996"/>
<marker id="962597032" label="Rabbit" category="78" did="1879079062" parentZoneId="1879330412" longitude="-31.106024" latitude="-46.061996"/>
<marker id="962597033" label="Bunch of Strawberries" category="77" did="1879061415" parentZoneId="1879330412" longitude="-31.106024" latitude="-46.061996"/>
<marker id="962597034" label="Indigo Plant" category="77" did="1879054949" parentZoneId="1879330412" longitude="-31.106024" latitude="-46.061996"/>
<marker id="962597035" label="Bunch of Raspberries" category="77" did="1879061417" parentZoneId="1879330412" longitude="-31.106024" latitude="-46.061996"/>
<marker id="962597036" label="Bunch of Blackberries" category="77" did="1879061418" parentZoneId="1879330412" longitude="-31.106024" latitude="-46.061996"/>
<marker id="962597037" label="Bunch of Blueberries" category="77" did="1879061342" parentZoneId="1879330412" longitude="-31.18366" latitude="-46.20981"/>
<marker id="962597038" label="Squirrel" category="78" did="1879078796" parentZoneId="1879330412" longitude="-31.18366" latitude="-46.20981"/>
<marker id="962597039" label="Tater" category="77" did="1879061257" parentZoneId="1879330412" longitude="-31.18366" latitude="-46.20981"/>
<marker id="962597040" label="Deer" category="78" did="1879080635" parentZoneId="1879330412" longitude="-31.18366" latitude="-46.20981"/>
<marker id="962597041" label="Fox" category="78" did="1879078196" parentZoneId="1879330412" longitude="-31.18366" latitude="-46.20981"/>
<marker id="962597042" label="Drop of Fine Clover Honey" category="77" did="1879061399" parentZoneId="1879330412" longitude="-31.18366" latitude="-46.20981"/>
<marker id="962597043" label="Rabbit" category="78" did="1879079062" parentZoneId="1879330412" longitude="-31.18366" latitude="-46.20981"/>
<marker id="962597044" label="Bunch of Strawberries" category="77" did="1879061415" parentZoneId="1879330412" longitude="-31.18366" latitude="-46.20981"/>
<marker id="962597045" label="Indigo Plant" category="77" did="1879054949" parentZoneId="1879330412" longitude="-31.18366" latitude="-46.20981"/>
<marker id="962597046" label="Bunch of Raspberries" category="77" did="1879061417" parentZoneId="1879330412" longitude="-31.18366" latitude="-46.20981"/>
<marker id="962597047" label="Bunch of Blackberries" category="77" did="1879061418" parentZoneId="1879330412" longitude="-31.18366" latitude="-46.20981"/>
<marker id="962597048" label="Mordor Warg" category="71" did="1879331712" parentZoneId="1879330412" longitude="-30.902021" latitude="-46.112103"/>
<marker id="962597049" label="Grey-weaver" category="71" did="1879331626" parentZoneId="1879330412" longitude="-30.902021" latitude="-46.112103"/>
<marker id="962597050" label="Anórien Mountain-goat" category="71" did="1879331709" parentZoneId="1879330412" longitude="-30.902021" latitude="-46.112103"/>
<marker id="962597051" label="Corrupted Huorn" category="71" did="1879331793" parentZoneId="1879330412" longitude="-30.902021" latitude="-46.112103"/>
<marker id="962597052" label="Anórien Scavenger" category="71" did="1879331629" parentZoneId="1879330412" longitude="-30.902021" latitude="-46.112103"/>
<marker id="962597053" label="Grey-spinner" category="71" did="1879331628" parentZoneId="1879330412" longitude="-30.902021" latitude="-46.112103"/>
<marker id="962597054" label="Wild Anórien-boar" category="71" did="1879331635" parentZoneId="1879330412" longitude="-30.902021" latitude="-46.112103"/>
<marker id="962597055" label="Anórien Fire-fly" category="71" did="1879331632" parentZoneId="1879330412" longitude="-30.902021" latitude="-46.112103"/>
<marker id="962597056" label="Entwash Norbog" category="71" did="1879331633" parentZoneId="1879330412" longitude="-30.902021" latitude="-46.112103"/>
<marker id="962597057" label="Ghûrdhos Warrior" category="71" did="1879331638" parentZoneId="1879330412" longitude="-30.902021" latitude="-46.112103"/>
<marker id="962597058" label="Dheghûn" category="71" did="1879331648" parentZoneId="1879330412" longitude="-30.902021" latitude="-46.112103"/>
<marker id="962597059" label="Anórien Mountain-lion" category="71" did="1879331636" parentZoneId="1879330412" longitude="-30.902021" latitude="-46.112103"/>
<marker id="962597060" label="Mordor Warg" category="71" did="1879331712" parentZoneId="1879330412" longitude="-31.146719" latitude="-46.110523"/>
<marker id="962597061" label="Grey-weaver" category="71" did="1879331626" parentZoneId="1879330412" longitude="-31.146719" latitude="-46.110523"/>
<marker id="962597062" label="Anórien Mountain-goat" category="71" did="1879331709" parentZoneId="1879330412" longitude="-31.146719" latitude="-46.110523"/>
<marker id="962597063" label="Corrupted Huorn" category="71" did="1879331793" parentZoneId="1879330412" longitude="-31.146719" latitude="-46.110523"/>
<marker id="962597064" label="Anórien Scavenger" category="71" did="1879331629" parentZoneId="1879330412" longitude="-31.146719" latitude="-46.110523"/>
<marker id="962597065" label="Grey-spinner" category="71" did="1879331628" parentZoneId="1879330412" longitude="-31.146719" latitude="-46.110523"/>
<marker id="962597066" label="Wild Anórien-boar" category="71" did="1879331635" parentZoneId="1879330412" longitude="-31.146719" latitude="-46.110523"/>
<marker id="962597067" label="Anórien Fire-fly" category="71" did="1879331632" parentZoneId="1879330412" longitude="-31.146719" latitude="-46.110523"/>
<marker id="962597068" label="Entwash Norbog" category="71" did="1879331633" parentZoneId="1879330412" longitude="-31.146719" latitude="-46.110523"/>
<marker id="962597069" label="Ghûrdhos Warrior" category="71" did="1879331638" parentZoneId="1879330412" longitude="-31.146719" latitude="-46.110523"/>
<marker id="962597070" label="Dheghûn" category="71" did="1879331648" parentZoneId="1879330412" longitude="-31.146719" latitude="-46.110523"/>
<marker id="962597071" label="Anórien Mountain-lion" category="71" did="1879331636" parentZoneId="1879330412" longitude="-31.146719" latitude="-46.110523"/>
<marker id="962597072" label="Mordor Warg" category="71" did="1879331712" parentZoneId="1879330412" longitude="-31.390038" latitude="-46.139187"/>
<marker id="962597073" label="Grey-weaver" category="71" did="1879331626" parentZoneId="1879330412" longitude="-31.390038" latitude="-46.139187"/>
<marker id="962597074" label="Anórien Mountain-goat" category="71" did="1879331709" parentZoneId="1879330412" longitude="-31.390038" latitude="-46.139187"/>
<marker id="962597075" label="Corrupted Huorn" category="71" did="1879331793" parentZoneId="1879330412" longitude="-31.390038" latitude="-46.139187"/>
<marker id="962597076" label="Anórien Scavenger" category="71" did="1879331629" parentZoneId="1879330412" longitude="-31.390038" latitude="-46.139187"/>
<marker id="962597077" label="Grey-spinner" category="71" did="1879331628" parentZoneId="1879330412" longitude="-31.390038" latitude="-46.139187"/>
<marker id="962597078" label="Wild Anórien-boar" category="71" did="1879331635" parentZoneId="1879330412" longitude="-31.390038" latitude="-46.139187"/>
<marker id="962597079" label="Anórien Fire-fly" category="71" did="1879331632" parentZoneId="1879330412" longitude="-31.390038" latitude="-46.139187"/>
<marker id="962597080" label="Entwash Norbog" category="71" did="1879331633" parentZoneId="1879330412" longitude="-31.390038" latitude="-46.139187"/>
<marker id="962597081" label="Ghûrdhos Warrior" category="71" did="1879331638" parentZoneId="1879330412" longitude="-31.390038" latitude="-46.139187"/>
<marker id="962597082" label="Dheghûn" category="71" did="1879331648" parentZoneId="1879330412" longitude="-31.390038" latitude="-46.139187"/>
<marker id="962597083" label="Anórien Mountain-lion" category="71" did="1879331636" parentZoneId="1879330412" longitude="-31.390038" latitude="-46.139187"/>
<marker id="962597084" label="Mordor Warg" category="71" did="1879331712" parentZoneId="1879330412" longitude="-31.39046" latitude="-46.411003"/>
<marker id="962597085" label="Grey-weaver" category="71" did="1879331626" parentZoneId="1879330412" longitude="-31.39046" latitude="-46.411003"/>
<marker id="962597086" label="Anórien Mountain-goat" category="71" did="1879331709" parentZoneId="1879330412" longitude="-31.39046" latitude="-46.411003"/>
<marker id="962597087" label="Corrupted Huorn" category="71" did="1879331793" parentZoneId="1879330412" longitude="-31.39046" latitude="-46.411003"/>
<marker id="962597088" label="Anórien Scavenger" category="71" did="1879331629" parentZoneId="1879330412" longitude="-31.39046" latitude="-46.411003"/>
<marker id="962597089" label="Grey-spinner" category="71" did="1879331628" parentZoneId="1879330412" longitude="-31.39046" latitude="-46.411003"/>
<marker id="962597090" label="Wild Anórien-boar" category="71" did="1879331635" parentZoneId="1879330412" longitude="-31.39046" latitude="-46.411003"/>
<marker id="962597091" label="Anórien Fire-fly" category="71" did="1879331632" parentZoneId="1879330412" longitude="-31.39046" latitude="-46.411003"/>
<marker id="962597092" label="Entwash Norbog" category="71" did="1879331633" parentZoneId="1879330412" longitude="-31.39046" latitude="-46.411003"/>
<marker id="962597093" label="Ghûrdhos Warrior" category="71" did="1879331638" parentZoneId="1879330412" longitude="-31.39046" latitude="-46.411003"/>
<marker id="962597094" label="Dheghûn" category="71" did="1879331648" parentZoneId="1879330412" longitude="-31.39046" latitude="-46.411003"/>
<marker id="962597095" label="Anórien Mountain-lion" category="71" did="1879331636" parentZoneId="1879330412" longitude="-31.39046" latitude="-46.411003"/>
<marker id="962597096" label="Mordor Warg" category="71" did="1879331712" parentZoneId="1879330412" longitude="-31.17038" latitude="-46.34674"/>
<marker id="962597097" label="Grey-weaver" category="71" did="1879331626" parentZoneId="1879330412" longitude="-31.17038" latitude="-46.34674"/>
<marker id="962597098" label="Anórien Mountain-goat" category="71" did="1879331709" parentZoneId="1879330412" longitude="-31.17038" latitude="-46.34674"/>
<marker id="962597099" label="Corrupted Huorn" category="71" did="1879331793" parentZoneId="1879330412" longitude="-31.17038" latitude="-46.34674"/>
<marker id="962597100" label="Anórien Scavenger" category="71" did="1879331629" parentZoneId="1879330412" longitude="-31.17038" latitude="-46.34674"/>
<marker id="962597101" label="Grey-spinner" category="71" did="1879331628" parentZoneId="1879330412" longitude="-31.17038" latitude="-46.34674"/>
<marker id="962597102" label="Wild Anórien-boar" category="71" did="1879331635" parentZoneId="1879330412" longitude="-31.17038" latitude="-46.34674"/>
<marker id="962597103" label="Anórien Fire-fly" category="71" did="1879331632" parentZoneId="1879330412" longitude="-31.17038" latitude="-46.34674"/>
<marker id="962597104" label="Entwash Norbog" category="71" did="1879331633" parentZoneId="1879330412" longitude="-31.17038" latitude="-46.34674"/>
<marker id="962597105" label="Ghûrdhos Warrior" category="71" did="1879331638" parentZoneId="1879330412" longitude="-31.17038" latitude="-46.34674"/>
<marker id="962597106" label="Dheghûn" category="71" did="1879331648" parentZoneId="1879330412" longitude="-31.17038" latitude="-46.34674"/>
<marker id="962597107" label="Anórien Mountain-lion" category="71" did="1879331636" parentZoneId="1879330412" longitude="-31.17038" latitude="-46.34674"/>
<marker id="962597108" label="Mordor Warg" category="71" did="1879331712" parentZoneId="1879330412" longitude="-30.937939" latitude="-46.361694"/>
<marker id="962597109" label="Grey-weaver" category="71" did="1879331626" parentZoneId="1879330412" longitude="-30.937939" latitude="-46.361694"/>
<marker id="962597110" label="Anórien Mountain-goat" category="71" did="1879331709" parentZoneId="1879330412" longitude="-30.937939" latitude="-46.361694"/>
<marker id="962597111" label="Corrupted Huorn" category="71" did="1879331793" parentZoneId="1879330412" longitude="-30.937939" latitude="-46.361694"/>
<marker id="962597112" label="Anórien Scavenger" category="71" did="1879331629" parentZoneId="1879330412" longitude="-30.937939" latitude="-46.361694"/>
<marker id="962597113" label="Grey-spinner" category="71" did="1879331628" parentZoneId="1879330412" longitude="-30.937939" latitude="-46.361694"/>
<marker id="962597114" label="Wild Anórien-boar" category="71" did="1879331635" parentZoneId="1879330412" longitude="-30.937939" latitude="-46.361694"/>
<marker id="962597115" label="Anórien Fire-fly" category="71" did="1879331632" parentZoneId="1879330412" longitude="-30.937939" latitude="-46.361694"/>
<marker id="962597116" label="Entwash Norbog" category="71" did="1879331633" parentZoneId="1879330412" longitude="-30.937939" latitude="-46.361694"/>
<marker id="962597117" label="Ghûrdhos Warrior" category="71" did="1879331638" parentZoneId="1879330412" longitude="-30.937939" latitude="-46.361694"/>
<marker id="962597118" label="Dheghûn" category="71" did="1879331648" parentZoneId="1879330412" longitude="-30.937939" latitude="-46.361694"/>
<marker id="962597119" label="Anórien Mountain-lion" category="71" did="1879331636" parentZoneId="1879330412" longitude="-30.937939" latitude="-46.361694"/>
<marker id="962597120" label="Mordor Warg" category="71" did="1879331712" parentZoneId="1879330412" longitude="-30.868866" latitude="-46.581287"/>
<marker id="962597121" label="Grey-weaver" category="71" did="1879331626" parentZoneId="1879330412" longitude="-30.868866" latitude="-46.581287"/>
<marker id="962597122" label="Anórien Mountain-goat" category="71" did="1879331709" parentZoneId="1879330412" longitude="-30.868866" latitude="-46.581287"/>
<marker id="962597123" label="Corrupted Huorn" category="71" did="1879331793" parentZoneId="1879330412" longitude="-30.868866" latitude="-46.581287"/>
<marker id="962597124" label="Anórien Scavenger" category="71" did="1879331629" parentZoneId="1879330412" longitude="-30.868866" latitude="-46.581287"/>
<marker id="962597125" label="Grey-spinner" category="71" did="1879331628" parentZoneId="1879330412" longitude="-30.868866" latitude="-46.581287"/>
<marker id="962597126" label="Wild Anórien-boar" category="71" did="1879331635" parentZoneId="1879330412" longitude="-30.868866" latitude="-46.581287"/>
<marker id="962597127" label="Anórien Fire-fly" category="71" did="1879331632" parentZoneId="1879330412" longitude="-30.868866" latitude="-46.581287"/>
<marker id="962597128" label="Entwash Norbog" category="71" did="1879331633" parentZoneId="1879330412" longitude="-30.868866" latitude="-46.581287"/>
<marker id="962597129" label="Ghûrdhos Warrior" category="71" did="1879331638" parentZoneId="1879330412" longitude="-30.868866" latitude="-46.581287"/>
<marker id="962597130" label="Dheghûn" category="71" did="1879331648" parentZoneId="1879330412" longitude="-30.868866" latitude="-46.581287"/>
<marker id="962597131" label="Anórien Mountain-lion" category="71" did="1879331636" parentZoneId="1879330412" longitude="-30.868866" latitude="-46.581287"/>
<marker id="962597132" label="Mordor Warg" category="71" did="1879331712" parentZoneId="1879330412" longitude="-31.374218" latitude="-46.619698"/>
<marker id="962597133" label="Grey-weaver" category="71" did="1879331626" parentZoneId="1879330412" longitude="-31.374218" latitude="-46.619698"/>
<marker id="962597134" label="Anórien Mountain-goat" category="71" did="1879331709" parentZoneId="1879330412" longitude="-31.374218" latitude="-46.619698"/>
<marker id="962597135" label="Corrupted Huorn" category="71" did="1879331793" parentZoneId="1879330412" longitude="-31.374218" latitude="-46.619698"/>
<marker id="962597136" label="Anórien Scavenger" category="71" did="1879331629" parentZoneId="1879330412" longitude="-31.374218" latitude="-46.619698"/>
<marker id="962597137" label="Grey-spinner" category="71" did="1879331628" parentZoneId="1879330412" longitude="-31.374218" latitude="-46.619698"/>
<marker id="962597138" label="Wild Anórien-boar" category="71" did="1879331635" parentZoneId="1879330412" longitude="-31.374218" latitude="-46.619698"/>
<marker id="962597139" label="Anórien Fire-fly" category="71" did="1879331632" parentZoneId="1879330412" longitude="-31.374218" latitude="-46.619698"/>
<marker id="962597140" label="Entwash Norbog" category="71" did="1879331633" parentZoneId="1879330412" longitude="-31.374218" latitude="-46.619698"/>
<marker id="962597141" label="Ghûrdhos Warrior" category="71" did="1879331638" parentZoneId="1879330412" longitude="-31.374218" latitude="-46.619698"/>
<marker id="962597142" label="Dheghûn" category="71" did="1879331648" parentZoneId="1879330412" longitude="-31.374218" latitude="-46.619698"/>
<marker id="962597143" label="Anórien Mountain-lion" category="71" did="1879331636" parentZoneId="1879330412" longitude="-31.374218" latitude="-46.619698"/>
<marker id="962600960" label="War-stead of the Helmingas" category="74" did="1879331769" parentZoneId="1879330412" longitude="-30.948242" latitude="-45.237083"/>
<marker id="962600961" label="Deer" category="78" did="1879080635" parentZoneId="1879330412" longitude="-31.340721" latitude="-45.595528"/>
<marker id="962600962" label="Rabbit" category="78" did="1879079062" parentZoneId="1879330412" longitude="-31.340721" latitude="-45.595528"/>
<marker id="962600963" label="Tater" category="77" did="1879061257" parentZoneId="1879330412" longitude="-31.340721" latitude="-45.595528"/>
<marker id="962600964" label="Squirrel" category="78" did="1879078796" parentZoneId="1879330412" longitude="-31.340721" latitude="-45.595528"/>
<marker id="962600965" label="Bunch of Blueberries" category="77" did="1879061342" parentZoneId="1879330412" longitude="-31.340721" latitude="-45.595528"/>
<marker id="962600966" label="Bunch of Strawberries" category="77" did="1879061415" parentZoneId="1879330412" longitude="-31.340721" latitude="-45.595528"/>
<marker id="962600967" label="Bunch of Raspberries" category="77" did="1879061417" parentZoneId="1879330412" longitude="-31.340721" latitude="-45.595528"/>
<marker id="962600968" label="Bunch of Blackberries" category="77" did="1879061418" parentZoneId="1879330412" longitude="-31.340721" latitude="-45.595528"/>
<marker id="962600969" label="Drop of Fine Clover Honey" category="77" did="1879061399" parentZoneId="1879330412" longitude="-31.340721" latitude="-45.595528"/>
<marker id="962600970" label="Fox" category="78" did="1879078196" parentZoneId="1879330412" longitude="-31.340721" latitude="-45.595528"/>
<marker id="962600971" label="Indigo Plant" category="77" did="1879054949" parentZoneId="1879330412" longitude="-31.340721" latitude="-45.595528"/>
<marker id="962600972" label="Corrupted Huorn" category="71" did="1879331793" parentZoneId="1879330412" longitude="-31.337059" latitude="-45.59443"/>
<marker id="962600973" label="Grey-weaver" category="71" did="1879331626" parentZoneId="1879330412" longitude="-31.337059" latitude="-45.59443"/>
<marker id="962600974" label="Anórien Scavenger" category="71" did="1879331629" parentZoneId="1879330412" longitude="-31.337059" latitude="-45.59443"/>
<marker id="962600975" label="Anórien Fire-fly" category="71" did="1879331632" parentZoneId="1879330412" longitude="-31.337059" latitude="-45.59443"/>
<marker id="962600976" label="Ghûrdhos Warrior" category="71" did="1879331638" parentZoneId="1879330412" longitude="-31.337059" latitude="-45.59443"/>
<marker id="962600977" label="Anórien Mountain-lion" category="71" did="1879331636" parentZoneId="1879330412" longitude="-31.337059" latitude="-45.59443"/>
<marker id="962600978" label="Anórien Mountain-goat" category="71" did="1879331709" parentZoneId="1879330412" longitude="-31.337059" latitude="-45.59443"/>
<marker id="962600979" label="Dheghûn" category="71" did="1879331648" parentZoneId="1879330412" longitude="-31.337059" latitude="-45.59443"/>
<marker id="962600980" label="Rich Anórien Skarn Deposit" category="50" did="1879328665" parentZoneId="1879330412" longitude="-31.4512" latitude="-45.62185"/>
<marker id="962600981" label="Anórien Skarn Deposit" category="50" did="1879328667" parentZoneId="1879330412" longitude="-31.4512" latitude="-45.62185"/>
<marker id="962600982" label="Poplar Branches" category="50" did="1879328677" parentZoneId="1879330412" longitude="-31.4512" latitude="-45.62185"/>
<marker id="962600983" label="Heavy Poplar Branches" category="50" did="1879328676" parentZoneId="1879330412" longitude="-31.4512" latitude="-45.62185"/>
<marker id="962600984" label="Bunch of Blueberries" category="77" did="1879061342" parentZoneId="1879330412" longitude="-31.428368" latitude="-45.711132"/>
<marker id="962600985" label="Squirrel" category="78" did="1879078796" parentZoneId="1879330412" longitude="-31.428368" latitude="-45.711132"/>
<marker id="962600986" label="Tater" category="77" did="1879061257" parentZoneId="1879330412" longitude="-31.428368" latitude="-45.711132"/>
<marker id="962600987" label="Deer" category="78" did="1879080635" parentZoneId="1879330412" longitude="-31.428368" latitude="-45.711132"/>
<marker id="962600988" label="Fox" category="78" did="1879078196" parentZoneId="1879330412" longitude="-31.428368" latitude="-45.711132"/>
<marker id="962600989" label="Drop of Fine Clover Honey" category="77" did="1879061399" parentZoneId="1879330412" longitude="-31.428368" latitude="-45.711132"/>
<marker id="962600990" label="Rabbit" category="78" did="1879079062" parentZoneId="1879330412" longitude="-31.428368" latitude="-45.711132"/>
<marker id="962600991" label="Bunch of Strawberries" category="77" did="1879061415" parentZoneId="1879330412" longitude="-31.428368" latitude="-45.711132"/>
<marker id="962600992" label="Indigo Plant" category="77" did="1879054949" parentZoneId="1879330412" longitude="-31.428368" latitude="-45.711132"/>
<marker id="962600993" label="Bunch of Raspberries" category="77" did="1879061417" parentZoneId="1879330412" longitude="-31.428368" latitude="-45.711132"/>
<marker id="962600994" label="Bunch of Blackberries" category="77" did="1879061418" parentZoneId="1879330412" longitude="-31.428368" latitude="-45.711132"/>
<marker id="962600995" label="Bunch of Blueberries" category="77" did="1879061342" parentZoneId="1879330412" longitude="-30.84786" latitude="-45.86782"/>
<marker id="962600996" label="Squirrel" category="78" did="1879078796" parentZoneId="1879330412" longitude="-30.84786" latitude="-45.86782"/>
<marker id="962600997" label="Tater" category="77" did="1879061257" parentZoneId="1879330412" longitude="-30.84786" latitude="-45.86782"/>
<marker id="962600998" label="Deer" category="78" did="1879080635" parentZoneId="1879330412" longitude="-30.84786" latitude="-45.86782"/>
<marker id="962600999" label="Fox" category="78" did="1879078196" parentZoneId="1879330412" longitude="-30.84786" latitude="-45.86782"/>
<marker id="962601000" label="Drop of Fine Clover Honey" category="77" did="1879061399" parentZoneId="1879330412" longitude="-30.84786" latitude="-45.86782"/>
<marker id="962601001" label="Rabbit" category="78" did="1879079062" parentZoneId="1879330412" longitude="-30.84786" latitude="-45.86782"/>
<marker id="962601002" label="Bunch of Strawberries" category="77" did="1879061415" parentZoneId="1879330412" longitude="-30.84786" latitude="-45.86782"/>
<marker id="962601003" label="Indigo Plant" category="77" did="1879054949" parentZoneId="1879330412" longitude="-30.84786" latitude="-45.86782"/>
<marker id="962601004" label="Bunch of Raspberries" category="77" did="1879061417" parentZoneId="1879330412" longitude="-30.84786" latitude="-45.86782"/>
<marker id="962601005" label="Bunch of Blackberries" category="77" did="1879061418" parentZoneId="1879330412" longitude="-30.84786" latitude="-45.86782"/>
<marker id="962601006" label="Bunch of Blueberries" category="77" did="1879061342" parentZoneId="1879330412" longitude="-31.04916" latitude="-45.913372"/>
<marker id="962601007" label="Squirrel" category="78" did="1879078796" parentZoneId="1879330412" longitude="-31.04916" latitude="-45.913372"/>
<marker id="962601008" label="Tater" category="77" did="1879061257" parentZoneId="1879330412" longitude="-31.04916" latitude="-45.913372"/>
<marker id="962601009" label="Deer" category="78" did="1879080635" parentZoneId="1879330412" longitude="-31.04916" latitude="-45.913372"/>
<marker id="962601010" label="Fox" category="78" did="1879078196" parentZoneId="1879330412" longitude="-31.04916" latitude="-45.913372"/>
<marker id="962601011" label="Drop of Fine Clover Honey" category="77" did="1879061399" parentZoneId="1879330412" longitude="-31.04916" latitude="-45.913372"/>
<marker id="962601012" label="Rabbit" category="78" did="1879079062" parentZoneId="1879330412" longitude="-31.04916" latitude="-45.913372"/>
<marker id="962601013" label="Bunch of Strawberries" category="77" did="1879061415" parentZoneId="1879330412" longitude="-31.04916" latitude="-45.913372"/>
<marker id="962601014" label="Indigo Plant" category="77" did="1879054949" parentZoneId="1879330412" longitude="-31.04916" latitude="-45.913372"/>
<marker id="962601015" label="Bunch of Raspberries" category="77" did="1879061417" parentZoneId="1879330412" longitude="-31.04916" latitude="-45.913372"/>
<marker id="962601016" label="Bunch of Blackberries" category="77" did="1879061418" parentZoneId="1879330412" longitude="-31.04916" latitude="-45.913372"/>
<marker id="962601017" label="Bunch of Blueberries" category="77" did="1879061342" parentZoneId="1879330412" longitude="-31.216787" latitude="-45.85088"/>
<marker id="962601018" label="Squirrel" category="78" did="1879078796" parentZoneId="1879330412" longitude="-31.216787" latitude="-45.85088"/>
<marker id="962601019" label="Tater" category="77" did="1879061257" parentZoneId="1879330412" longitude="-31.216787" latitude="-45.85088"/>
<marker id="962601020" label="Deer" category="78" did="1879080635" parentZoneId="1879330412" longitude="-31.216787" latitude="-45.85088"/>
<marker id="962601021" label="Fox" category="78" did="1879078196" parentZoneId="1879330412" longitude="-31.216787" latitude="-45.85088"/>
<marker id="962601022" label="Drop of Fine Clover Honey" category="77" did="1879061399" parentZoneId="1879330412" longitude="-31.216787" latitude="-45.85088"/>
<marker id="962601023" label="Rabbit" category="78" did="1879079062" parentZoneId="1879330412" longitude="-31.216787" latitude="-45.85088"/>
<marker id="962601024" label="Bunch of Strawberries" category="77" did="1879061415" parentZoneId="1879330412" longitude="-31.216787" latitude="-45.85088"/>
<marker id="962601025" label="Indigo Plant" category="77" did="1879054949" parentZoneId="1879330412" longitude="-31.216787" latitude="-45.85088"/>
<marker id="962601026" label="Bunch of Raspberries" category="77" did="1879061417" parentZoneId="1879330412" longitude="-31.216787" latitude="-45.85088"/>
<marker id="962601027" label="Bunch of Blackberries" category="77" did="1879061418" parentZoneId="1879330412" longitude="-31.216787" latitude="-45.85088"/>
<marker id="962601028" label="Bunch of Blueberries" category="77" did="1879061342" parentZoneId="1879330412" longitude="-31.419247" latitude="-45.902874"/>
<marker id="962601029" label="Squirrel" category="78" did="1879078796" parentZoneId="1879330412" longitude="-31.419247" latitude="-45.902874"/>
<marker id="962601030" label="Tater" category="77" did="1879061257" parentZoneId="1879330412" longitude="-31.419247" latitude="-45.902874"/>
<marker id="962601031" label="Deer" category="78" did="1879080635" parentZoneId="1879330412" longitude="-31.419247" latitude="-45.902874"/>
<marker id="962601032" label="Fox" category="78" did="1879078196" parentZoneId="1879330412" longitude="-31.419247" latitude="-45.902874"/>
<marker id="962601033" label="Drop of Fine Clover Honey" category="77" did="1879061399" parentZoneId="1879330412" longitude="-31.419247" latitude="-45.902874"/>
<marker id="962601034" label="Rabbit" category="78" did="1879079062" parentZoneId="1879330412" longitude="-31.419247" latitude="-45.902874"/>
<marker id="962601035" label="Bunch of Strawberries" category="77" did="1879061415" parentZoneId="1879330412" longitude="-31.419247" latitude="-45.902874"/>
<marker id="962601036" label="Indigo Plant" category="77" did="1879054949" parentZoneId="1879330412" longitude="-31.419247" latitude="-45.902874"/>
<marker id="962601037" label="Bunch of Raspberries" category="77" did="1879061417" parentZoneId="1879330412" longitude="-31.419247" latitude="-45.902874"/>
<marker id="962601038" label="Bunch of Blackberries" category="77" did="1879061418" parentZoneId="1879330412" longitude="-31.419247" latitude="-45.902874"/>
