<?xml version="1.0" encoding="UTF-8"?><markers>
<marker id="716197888" label="Scrublands Wolf" category="71" did="1879369228" parentZoneId="1879368364" longitude="-18.47701" latitude="20.941084"/>
<marker id="716197889" label="Rusty Hill-beast" category="71" did="1879369226" parentZoneId="1879368364" longitude="-18.47701" latitude="20.941084"/>
<marker id="716197890" label="Moor-shrew" category="78" did="1879369238" parentZoneId="1879368364" longitude="-18.477158" latitude="20.929922"/>
<marker id="716197891" label="Iron Hill-fox" category="78" did="1879369239" parentZoneId="1879368364" longitude="-18.477158" latitude="20.929922"/>
<marker id="716197892" label="Hill-beast Heaver" category="71" did="1879369232" parentZoneId="1879368364" longitude="-18.47701" latitude="20.941084"/>
<marker id="716197893" label="Scrublands Lynx" category="71" did="1879369234" parentZoneId="1879368364" longitude="-18.47701" latitude="20.941084"/>
<marker id="716197894" label="Hill Grouse" category="78" did="1879369240" parentZoneId="1879368364" longitude="-18.477158" latitude="20.929922"/>
<marker id="716197895" label="Northern Viper" category="78" did="1879369242" parentZoneId="1879368364" longitude="-18.477158" latitude="20.929922"/>
<marker id="716197896" label="Moor-rat" category="78" did="1879369243" parentZoneId="1879368364" longitude="-18.477158" latitude="20.929922"/>
<marker id="716197897" label="Northern Hare" category="78" did="1879363821" parentZoneId="1879368364" longitude="-18.477158" latitude="20.929922"/>
<marker id="716197898" label="Moor-shrew" category="78" did="1879369238" parentZoneId="1879368364" longitude="-18.678555" latitude="21.027422"/>
<marker id="716197899" label="Iron Hill-fox" category="78" did="1879369239" parentZoneId="1879368364" longitude="-18.678555" latitude="21.027422"/>
<marker id="716197900" label="Northern Hare" category="78" did="1879363821" parentZoneId="1879368364" longitude="-18.678555" latitude="21.027422"/>
<marker id="716197901" label="Hill Grouse" category="78" did="1879369240" parentZoneId="1879368364" longitude="-18.678555" latitude="21.027422"/>
<marker id="716197902" label="Northern Viper" category="78" did="1879369242" parentZoneId="1879368364" longitude="-18.678555" latitude="21.027422"/>
<marker id="716197903" label="Moor-rat" category="78" did="1879369243" parentZoneId="1879368364" longitude="-18.678555" latitude="21.027422"/>
<marker id="716197904" label="Moor-shrew" category="78" did="1879369238" parentZoneId="1879368364" longitude="-18.610937" latitude="20.759384"/>
<marker id="716197905" label="Iron Hill-fox" category="78" did="1879369239" parentZoneId="1879368364" longitude="-18.610937" latitude="20.759384"/>
<marker id="716197906" label="Northern Hare" category="78" did="1879363821" parentZoneId="1879368364" longitude="-18.610937" latitude="20.759384"/>
<marker id="716197907" label="Hill Grouse" category="78" did="1879369240" parentZoneId="1879368364" longitude="-18.610937" latitude="20.759384"/>
<marker id="716197908" label="Northern Viper" category="78" did="1879369242" parentZoneId="1879368364" longitude="-18.610937" latitude="20.759384"/>
<marker id="716197909" label="Moor-rat" category="78" did="1879369243" parentZoneId="1879368364" longitude="-18.610937" latitude="20.759384"/>
<marker id="716197910" label="Moor-shrew" category="78" did="1879369238" parentZoneId="1879368364" longitude="-18.375723" latitude="21.013613"/>
<marker id="716197911" label="Iron Hill-fox" category="78" did="1879369239" parentZoneId="1879368364" longitude="-18.375723" latitude="21.013613"/>
<marker id="716197912" label="Northern Hare" category="78" did="1879363821" parentZoneId="1879368364" longitude="-18.375723" latitude="21.013613"/>
<marker id="716197913" label="Hill Grouse" category="78" did="1879369240" parentZoneId="1879368364" longitude="-18.375723" latitude="21.013613"/>
<marker id="716197914" label="Northern Viper" category="78" did="1879369242" parentZoneId="1879368364" longitude="-18.375723" latitude="21.013613"/>
<marker id="716197915" label="Moor-rat" category="78" did="1879369243" parentZoneId="1879368364" longitude="-18.375723" latitude="21.013613"/>
<marker id="716197916" label="Moor-shrew" category="78" did="1879369238" parentZoneId="1879368364" longitude="-18.200077" latitude="20.619541"/>
<marker id="716197917" label="Iron Hill-fox" category="78" did="1879369239" parentZoneId="1879368364" longitude="-18.200077" latitude="20.619541"/>
<marker id="716197918" label="Northern Hare" category="78" did="1879363821" parentZoneId="1879368364" longitude="-18.200077" latitude="20.619541"/>
<marker id="716197919" label="Hill Grouse" category="78" did="1879369240" parentZoneId="1879368364" longitude="-18.200077" latitude="20.619541"/>
<marker id="716197920" label="Northern Viper" category="78" did="1879369242" parentZoneId="1879368364" longitude="-18.200077" latitude="20.619541"/>
<marker id="716197921" label="Moor-rat" category="78" did="1879369243" parentZoneId="1879368364" longitude="-18.200077" latitude="20.619541"/>
<marker id="716197922" label="Moor-shrew" category="78" did="1879369238" parentZoneId="1879368364" longitude="-18.084454" latitude="21.17411"/>
<marker id="716197923" label="Iron Hill-fox" category="78" did="1879369239" parentZoneId="1879368364" longitude="-18.084454" latitude="21.17411"/>
<marker id="716197924" label="Northern Hare" category="78" did="1879363821" parentZoneId="1879368364" longitude="-18.084454" latitude="21.17411"/>
<marker id="716197925" label="Hill Grouse" category="78" did="1879369240" parentZoneId="1879368364" longitude="-18.084454" latitude="21.17411"/>
<marker id="716197926" label="Northern Viper" category="78" did="1879369242" parentZoneId="1879368364" longitude="-18.084454" latitude="21.17411"/>
<marker id="716197927" label="Moor-rat" category="78" did="1879369243" parentZoneId="1879368364" longitude="-18.084454" latitude="21.17411"/>
<marker id="716197928" label="Ironfold Ram" category="71" did="1879369237" parentZoneId="1879368364" longitude="-18.68878" latitude="21.112715"/>
<marker id="716197929" label="Hill-beast Heaver" category="71" did="1879369232" parentZoneId="1879368364" longitude="-18.68878" latitude="21.112715"/>
<marker id="716197930" label="Scrublands Lynx" category="71" did="1879369234" parentZoneId="1879368364" longitude="-18.68878" latitude="21.112715"/>
<marker id="716197931" label="Scrublands Wolf" category="71" did="1879369228" parentZoneId="1879368364" longitude="-18.68878" latitude="21.112715"/>
<marker id="716197932" label="Iron Hill-lizard" category="71" did="1879369229" parentZoneId="1879368364" longitude="-18.68878" latitude="21.112715"/>
<marker id="716197933" label="Ironfold Worker" category="71" did="1879369231" parentZoneId="1879368364" longitude="-18.68878" latitude="21.112715"/>
<marker id="716197934" label="Ironfold Stone-biter" category="71" did="1879369224" parentZoneId="1879368364" longitude="-18.68878" latitude="21.112715"/>
<marker id="716197935" label="Aurochs Herd-cow" category="71" did="1879369225" parentZoneId="1879368364" longitude="-18.68878" latitude="21.112715"/>
<marker id="716197936" label="Rusty Hill-beast" category="71" did="1879369226" parentZoneId="1879368364" longitude="-18.68878" latitude="21.112715"/>
<marker id="716197937" label="Ironfold Burrower" category="71" did="1879369227" parentZoneId="1879368364" longitude="-18.68878" latitude="21.112715"/>
<marker id="716197938" label="Ironfold Ram" category="71" did="1879369237" parentZoneId="1879368364" longitude="-18.487051" latitude="21.108408"/>
<marker id="716197939" label="Hill-beast Heaver" category="71" did="1879369232" parentZoneId="1879368364" longitude="-18.487051" latitude="21.108408"/>
<marker id="716197940" label="Scrublands Lynx" category="71" did="1879369234" parentZoneId="1879368364" longitude="-18.487051" latitude="21.108408"/>
<marker id="716197941" label="Scrublands Wolf" category="71" did="1879369228" parentZoneId="1879368364" longitude="-18.487051" latitude="21.108408"/>
<marker id="716197942" label="Iron Hill-lizard" category="71" did="1879369229" parentZoneId="1879368364" longitude="-18.487051" latitude="21.108408"/>
<marker id="716197943" label="Ironfold Worker" category="71" did="1879369231" parentZoneId="1879368364" longitude="-18.487051" latitude="21.108408"/>
<marker id="716197944" label="Ironfold Stone-biter" category="71" did="1879369224" parentZoneId="1879368364" longitude="-18.487051" latitude="21.108408"/>
<marker id="716197945" label="Aurochs Herd-cow" category="71" did="1879369225" parentZoneId="1879368364" longitude="-18.487051" latitude="21.108408"/>
<marker id="716197946" label="Rusty Hill-beast" category="71" did="1879369226" parentZoneId="1879368364" longitude="-18.487051" latitude="21.108408"/>
<marker id="716197947" label="Ironfold Burrower" category="71" did="1879369227" parentZoneId="1879368364" longitude="-18.487051" latitude="21.108408"/>
<marker id="716197948" label="Ironfold Ram" category="71" did="1879369237" parentZoneId="1879368364" longitude="-18.622177" latitude="20.966562"/>
<marker id="716197949" label="Hill-beast Heaver" category="71" did="1879369232" parentZoneId="1879368364" longitude="-18.622177" latitude="20.966562"/>
<marker id="716197950" label="Scrublands Lynx" category="71" did="1879369234" parentZoneId="1879368364" longitude="-18.622177" latitude="20.966562"/>
<marker id="716197951" label="Scrublands Wolf" category="71" did="1879369228" parentZoneId="1879368364" longitude="-18.622177" latitude="20.966562"/>
<marker id="716197952" label="Iron Hill-lizard" category="71" did="1879369229" parentZoneId="1879368364" longitude="-18.622177" latitude="20.966562"/>
<marker id="716197953" label="Ironfold Worker" category="71" did="1879369231" parentZoneId="1879368364" longitude="-18.622177" latitude="20.966562"/>
<marker id="716197954" label="Ironfold Stone-biter" category="71" did="1879369224" parentZoneId="1879368364" longitude="-18.622177" latitude="20.966562"/>
<marker id="716197955" label="Aurochs Herd-cow" category="71" did="1879369225" parentZoneId="1879368364" longitude="-18.622177" latitude="20.966562"/>
<marker id="716197956" label="Rusty Hill-beast" category="71" did="1879369226" parentZoneId="1879368364" longitude="-18.622177" latitude="20.966562"/>
<marker id="716197957" label="Ironfold Burrower" category="71" did="1879369227" parentZoneId="1879368364" longitude="-18.622177" latitude="20.966562"/>
<marker id="716197958" label="Ironfold Ram" category="71" did="1879369237" parentZoneId="1879368364" longitude="-18.608446" latitude="20.74335"/>
<marker id="716197959" label="Hill-beast Heaver" category="71" did="1879369232" parentZoneId="1879368364" longitude="-18.608446" latitude="20.74335"/>
<marker id="716197960" label="Scrublands Lynx" category="71" did="1879369234" parentZoneId="1879368364" longitude="-18.608446" latitude="20.74335"/>
<marker id="716197961" label="Scrublands Wolf" category="71" did="1879369228" parentZoneId="1879368364" longitude="-18.608446" latitude="20.74335"/>
<marker id="716197962" label="Iron Hill-lizard" category="71" did="1879369229" parentZoneId="1879368364" longitude="-18.608446" latitude="20.74335"/>
<marker id="716197963" label="Ironfold Worker" category="71" did="1879369231" parentZoneId="1879368364" longitude="-18.608446" latitude="20.74335"/>
<marker id="716197964" label="Ironfold Stone-biter" category="71" did="1879369224" parentZoneId="1879368364" longitude="-18.608446" latitude="20.74335"/>
<marker id="716197965" label="Aurochs Herd-cow" category="71" did="1879369225" parentZoneId="1879368364" longitude="-18.608446" latitude="20.74335"/>
<marker id="716197966" label="Rusty Hill-beast" category="71" did="1879369226" parentZoneId="1879368364" longitude="-18.608446" latitude="20.74335"/>
<marker id="716197967" label="Ironfold Burrower" category="71" did="1879369227" parentZoneId="1879368364" longitude="-18.608446" latitude="20.74335"/>
<marker id="716197968" label="Ironfold Ram" category="71" did="1879369237" parentZoneId="1879368364" longitude="-18.4391" latitude="20.61578"/>
<marker id="716197969" label="Hill-beast Heaver" category="71" did="1879369232" parentZoneId="1879368364" longitude="-18.4391" latitude="20.61578"/>
<marker id="716197970" label="Scrublands Lynx" category="71" did="1879369234" parentZoneId="1879368364" longitude="-18.4391" latitude="20.61578"/>
<marker id="716197971" label="Scrublands Wolf" category="71" did="1879369228" parentZoneId="1879368364" longitude="-18.4391" latitude="20.61578"/>
<marker id="716197972" label="Iron Hill-lizard" category="71" did="1879369229" parentZoneId="1879368364" longitude="-18.4391" latitude="20.61578"/>
<marker id="716197973" label="Ironfold Worker" category="71" did="1879369231" parentZoneId="1879368364" longitude="-18.4391" latitude="20.61578"/>
<marker id="716197974" label="Ironfold Stone-biter" category="71" did="1879369224" parentZoneId="1879368364" longitude="-18.4391" latitude="20.61578"/>
<marker id="716197975" label="Aurochs Herd-cow" category="71" did="1879369225" parentZoneId="1879368364" longitude="-18.4391" latitude="20.61578"/>
<marker id="716197976" label="Rusty Hill-beast" category="71" did="1879369226" parentZoneId="1879368364" longitude="-18.4391" latitude="20.61578"/>
<marker id="716197977" label="Ironfold Burrower" category="71" did="1879369227" parentZoneId="1879368364" longitude="-18.4391" latitude="20.61578"/>
<marker id="716197978" label="Ironfold Ram" category="71" did="1879369237" parentZoneId="1879368364" longitude="-18.446856" latitude="20.843779"/>
<marker id="716197979" label="Hill-beast Heaver" category="71" did="1879369232" parentZoneId="1879368364" longitude="-18.446856" latitude="20.843779"/>
<marker id="716197980" label="Scrublands Lynx" category="71" did="1879369234" parentZoneId="1879368364" longitude="-18.446856" latitude="20.843779"/>
<marker id="716197981" label="Scrublands Wolf" category="71" did="1879369228" parentZoneId="1879368364" longitude="-18.446856" latitude="20.843779"/>
<marker id="716197982" label="Iron Hill-lizard" category="71" did="1879369229" parentZoneId="1879368364" longitude="-18.446856" latitude="20.843779"/>
<marker id="716197983" label="Ironfold Worker" category="71" did="1879369231" parentZoneId="1879368364" longitude="-18.446856" latitude="20.843779"/>
<marker id="716197984" label="Ironfold Stone-biter" category="71" did="1879369224" parentZoneId="1879368364" longitude="-18.446856" latitude="20.843779"/>
<marker id="716197985" label="Aurochs Herd-cow" category="71" did="1879369225" parentZoneId="1879368364" longitude="-18.446856" latitude="20.843779"/>
<marker id="716197986" label="Rusty Hill-beast" category="71" did="1879369226" parentZoneId="1879368364" longitude="-18.446856" latitude="20.843779"/>
<marker id="716197987" label="Ironfold Burrower" category="71" did="1879369227" parentZoneId="1879368364" longitude="-18.446856" latitude="20.843779"/>
<marker id="716197988" label="Ironfold Ram" category="71" did="1879369237" parentZoneId="1879368364" longitude="-18.389452" latitude="21.016943"/>
<marker id="716197989" label="Hill-beast Heaver" category="71" did="1879369232" parentZoneId="1879368364" longitude="-18.389452" latitude="21.016943"/>
<marker id="716197990" label="Scrublands Lynx" category="71" did="1879369234" parentZoneId="1879368364" longitude="-18.389452" latitude="21.016943"/>
<marker id="716197991" label="Scrublands Wolf" category="71" did="1879369228" parentZoneId="1879368364" longitude="-18.389452" latitude="21.016943"/>
<marker id="716197992" label="Iron Hill-lizard" category="71" did="1879369229" parentZoneId="1879368364" longitude="-18.389452" latitude="21.016943"/>
<marker id="716197993" label="Ironfold Worker" category="71" did="1879369231" parentZoneId="1879368364" longitude="-18.389452" latitude="21.016943"/>
<marker id="716197994" label="Ironfold Stone-biter" category="71" did="1879369224" parentZoneId="1879368364" longitude="-18.389452" latitude="21.016943"/>
<marker id="716197995" label="Aurochs Herd-cow" category="71" did="1879369225" parentZoneId="1879368364" longitude="-18.389452" latitude="21.016943"/>
<marker id="716197996" label="Rusty Hill-beast" category="71" did="1879369226" parentZoneId="1879368364" longitude="-18.389452" latitude="21.016943"/>
<marker id="716197997" label="Ironfold Burrower" category="71" did="1879369227" parentZoneId="1879368364" longitude="-18.389452" latitude="21.016943"/>
<marker id="716197998" label="Ironfold Ram" category="71" did="1879369237" parentZoneId="1879368364" longitude="-18.290731" latitude="20.82288"/>
<marker id="716197999" label="Hill-beast Heaver" category="71" did="1879369232" parentZoneId="1879368364" longitude="-18.290731" latitude="20.82288"/>
<marker id="716198000" label="Scrublands Lynx" category="71" did="1879369234" parentZoneId="1879368364" longitude="-18.290731" latitude="20.82288"/>
<marker id="716198001" label="Scrublands Wolf" category="71" did="1879369228" parentZoneId="1879368364" longitude="-18.290731" latitude="20.82288"/>
<marker id="716198002" label="Iron Hill-lizard" category="71" did="1879369229" parentZoneId="1879368364" longitude="-18.290731" latitude="20.82288"/>
<marker id="716198003" label="Ironfold Worker" category="71" did="1879369231" parentZoneId="1879368364" longitude="-18.290731" latitude="20.82288"/>
<marker id="716198004" label="Ironfold Stone-biter" category="71" did="1879369224" parentZoneId="1879368364" longitude="-18.290731" latitude="20.82288"/>
<marker id="716198005" label="Aurochs Herd-cow" category="71" did="1879369225" parentZoneId="1879368364" longitude="-18.290731" latitude="20.82288"/>
<marker id="716198006" label="Rusty Hill-beast" category="71" did="1879369226" parentZoneId="1879368364" longitude="-18.290731" latitude="20.82288"/>
<marker id="716198007" label="Ironfold Burrower" category="71" did="1879369227" parentZoneId="1879368364" longitude="-18.290731" latitude="20.82288"/>
<marker id="716198008" label="Ironfold Ram" category="71" did="1879369237" parentZoneId="1879368364" longitude="-18.165976" latitude="20.928057"/>
<marker id="716198009" label="Hill-beast Heaver" category="71" did="1879369232" parentZoneId="1879368364" longitude="-18.165976" latitude="20.928057"/>
<marker id="716198010" label="Scrublands Lynx" category="71" did="1879369234" parentZoneId="1879368364" longitude="-18.165976" latitude="20.928057"/>
<marker id="716198011" label="Scrublands Wolf" category="71" did="1879369228" parentZoneId="1879368364" longitude="-18.165976" latitude="20.928057"/>
<marker id="716198012" label="Iron Hill-lizard" category="71" did="1879369229" parentZoneId="1879368364" longitude="-18.165976" latitude="20.928057"/>
<marker id="716198013" label="Ironfold Worker" category="71" did="1879369231" parentZoneId="1879368364" longitude="-18.165976" latitude="20.928057"/>
<marker id="716198014" label="Ironfold Stone-biter" category="71" did="1879369224" parentZoneId="1879368364" longitude="-18.165976" latitude="20.928057"/>
<marker id="716198015" label="Aurochs Herd-cow" category="71" did="1879369225" parentZoneId="1879368364" longitude="-18.165976" latitude="20.928057"/>
<marker id="716198016" label="Rusty Hill-beast" category="71" did="1879369226" parentZoneId="1879368364" longitude="-18.165976" latitude="20.928057"/>
<marker id="716198017" label="Ironfold Burrower" category="71" did="1879369227" parentZoneId="1879368364" longitude="-18.165976" latitude="20.928057"/>
<marker id="716198018" label="Ironfold Ram" category="71" did="1879369237" parentZoneId="1879368364" longitude="-18.034765" latitude="20.782568"/>
<marker id="716198019" label="Hill-beast Heaver" category="71" did="1879369232" parentZoneId="1879368364" longitude="-18.034765" latitude="20.782568"/>
<marker id="716198020" label="Scrublands Lynx" category="71" did="1879369234" parentZoneId="1879368364" longitude="-18.034765" latitude="20.782568"/>
<marker id="716198021" label="Scrublands Wolf" category="71" did="1879369228" parentZoneId="1879368364" longitude="-18.034765" latitude="20.782568"/>
<marker id="716198022" label="Iron Hill-lizard" category="71" did="1879369229" parentZoneId="1879368364" longitude="-18.034765" latitude="20.782568"/>
<marker id="716198023" label="Ironfold Worker" category="71" did="1879369231" parentZoneId="1879368364" longitude="-18.034765" latitude="20.782568"/>
<marker id="716198024" label="Ironfold Stone-biter" category="71" did="1879369224" parentZoneId="1879368364" longitude="-18.034765" latitude="20.782568"/>
<marker id="716198025" label="Aurochs Herd-cow" category="71" did="1879369225" parentZoneId="1879368364" longitude="-18.034765" latitude="20.782568"/>
<marker id="716198026" label="Rusty Hill-beast" category="71" did="1879369226" parentZoneId="1879368364" longitude="-18.034765" latitude="20.782568"/>
<marker id="716198027" label="Ironfold Burrower" category="71" did="1879369227" parentZoneId="1879368364" longitude="-18.034765" latitude="20.782568"/>
<marker id="716198028" label="Ironfold Ram" category="71" did="1879369237" parentZoneId="1879368364" longitude="-18.241377" latitude="20.623604"/>
<marker id="716198029" label="Hill-beast Heaver" category="71" did="1879369232" parentZoneId="1879368364" longitude="-18.241377" latitude="20.623604"/>
<marker id="716198030" label="Scrublands Lynx" category="71" did="1879369234" parentZoneId="1879368364" longitude="-18.241377" latitude="20.623604"/>
<marker id="716198031" label="Scrublands Wolf" category="71" did="1879369228" parentZoneId="1879368364" longitude="-18.241377" latitude="20.623604"/>
<marker id="716198032" label="Iron Hill-lizard" category="71" did="1879369229" parentZoneId="1879368364" longitude="-18.241377" latitude="20.623604"/>
<marker id="716198033" label="Ironfold Worker" category="71" did="1879369231" parentZoneId="1879368364" longitude="-18.241377" latitude="20.623604"/>
<marker id="716198034" label="Ironfold Stone-biter" category="71" did="1879369224" parentZoneId="1879368364" longitude="-18.241377" latitude="20.623604"/>
<marker id="716198035" label="Aurochs Herd-cow" category="71" did="1879369225" parentZoneId="1879368364" longitude="-18.241377" latitude="20.623604"/>
<marker id="716198036" label="Rusty Hill-beast" category="71" did="1879369226" parentZoneId="1879368364" longitude="-18.241377" latitude="20.623604"/>
<marker id="716198037" label="Ironfold Burrower" category="71" did="1879369227" parentZoneId="1879368364" longitude="-18.241377" latitude="20.623604"/>
<marker id="716198038" label="Ironfold Ram" category="71" did="1879369237" parentZoneId="1879368364" longitude="-18.080254" latitude="21.17289"/>
<marker id="716198039" label="Hill-beast Heaver" category="71" did="1879369232" parentZoneId="1879368364" longitude="-18.080254" latitude="21.17289"/>
<marker id="716198040" label="Scrublands Lynx" category="71" did="1879369234" parentZoneId="1879368364" longitude="-18.080254" latitude="21.17289"/>
<marker id="716198041" label="Scrublands Wolf" category="71" did="1879369228" parentZoneId="1879368364" longitude="-18.080254" latitude="21.17289"/>
<marker id="716198042" label="Iron Hill-lizard" category="71" did="1879369229" parentZoneId="1879368364" longitude="-18.080254" latitude="21.17289"/>
<marker id="716198043" label="Ironfold Worker" category="71" did="1879369231" parentZoneId="1879368364" longitude="-18.080254" latitude="21.17289"/>
<marker id="716198044" label="Ironfold Stone-biter" category="71" did="1879369224" parentZoneId="1879368364" longitude="-18.080254" latitude="21.17289"/>
<marker id="716198045" label="Aurochs Herd-cow" category="71" did="1879369225" parentZoneId="1879368364" longitude="-18.080254" latitude="21.17289"/>
<marker id="716198046" label="Rusty Hill-beast" category="71" did="1879369226" parentZoneId="1879368364" longitude="-18.080254" latitude="21.17289"/>
<marker id="716198047" label="Ironfold Burrower" category="71" did="1879369227" parentZoneId="1879368364" longitude="-18.080254" latitude="21.17289"/>
<marker id="716201984" label="Scrublands Wolf" category="71" did="1879369228" parentZoneId="1879368364" longitude="-18.365185" latitude="21.605019"/>
<marker id="716201985" label="Rusty Hill-beast" category="71" did="1879369226" parentZoneId="1879368364" longitude="-18.365185" latitude="21.605019"/>
<marker id="716201986" label="Moor-shrew" category="78" did="1879369238" parentZoneId="1879368364" longitude="-18.365332" latitude="21.593857"/>
<marker id="716201987" label="Iron Hill-fox" category="78" did="1879369239" parentZoneId="1879368364" longitude="-18.365332" latitude="21.593857"/>
<marker id="716201988" label="Hill-beast Heaver" category="71" did="1879369232" parentZoneId="1879368364" longitude="-18.365185" latitude="21.605019"/>
<marker id="716201989" label="Scrublands Lynx" category="71" did="1879369234" parentZoneId="1879368364" longitude="-18.365185" latitude="21.605019"/>
<marker id="716201990" label="Hill Grouse" category="78" did="1879369240" parentZoneId="1879368364" longitude="-18.365332" latitude="21.593857"/>
<marker id="716201991" label="Northern Viper" category="78" did="1879369242" parentZoneId="1879368364" longitude="-18.365332" latitude="21.593857"/>
<marker id="716201992" label="Moor-rat" category="78" did="1879369243" parentZoneId="1879368364" longitude="-18.365332" latitude="21.593857"/>
<marker id="716201993" label="Rich Ironfold Skarn Deposit" category="50" did="1879370484" parentZoneId="1879368364" longitude="-18.361094" latitude="21.617645"/>
<marker id="716201994" label="Thornholt Branches" category="50" did="1879370486" parentZoneId="1879368364" longitude="-18.361094" latitude="21.617645"/>
<marker id="716201995" label="Ironfold Skarn Deposit" category="50" did="1879370483" parentZoneId="1879368364" longitude="-18.361094" latitude="21.617645"/>
<marker id="716201996" label="Heavy Thornholt Branches" category="50" did="1879370488" parentZoneId="1879368364" longitude="-18.361094" latitude="21.617645"/>
<marker id="716201997" label="Northern Hare" category="78" did="1879363821" parentZoneId="1879368364" longitude="-18.365332" latitude="21.593857"/>
<marker id="716201998" label="Rich Ironfold Skarn Deposit" category="50" did="1879370484" parentZoneId="1879368364" longitude="-18.017792" latitude="21.609003"/>
<marker id="716201999" label="Thornholt Branches" category="50" did="1879370486" parentZoneId="1879368364" longitude="-18.017792" latitude="21.609003"/>
<marker id="716202000" label="Ironfold Skarn Deposit" category="50" did="1879370483" parentZoneId="1879368364" longitude="-18.017792" latitude="21.609003"/>
<marker id="716202001" label="Heavy Thornholt Branches" category="50" did="1879370488" parentZoneId="1879368364" longitude="-18.017792" latitude="21.609003"/>
<marker id="716202002" label="Rich Ironfold Skarn Deposit" category="50" did="1879370484" parentZoneId="1879368364" longitude="-18.118114" latitude="21.912256"/>
<marker id="716202003" label="Thornholt Branches" category="50" did="1879370486" parentZoneId="1879368364" longitude="-18.118114" latitude="21.912256"/>
<marker id="716202004" label="Ironfold Skarn Deposit" category="50" did="1879370483" parentZoneId="1879368364" longitude="-18.118114" latitude="21.912256"/>
<marker id="716202005" label="Heavy Thornholt Branches" category="50" did="1879370488" parentZoneId="1879368364" longitude="-18.118114" latitude="21.912256"/>
<marker id="716202006" label="Rich Ironfold Skarn Deposit" category="50" did="1879370484" parentZoneId="1879368364" longitude="-18.522696" latitude="21.922958"/>
<marker id="716202007" label="Thornholt Branches" category="50" did="1879370486" parentZoneId="1879368364" longitude="-18.522696" latitude="21.922958"/>
<marker id="716202008" label="Ironfold Skarn Deposit" category="50" did="1879370483" parentZoneId="1879368364" longitude="-18.522696" latitude="21.922958"/>
<marker id="716202009" label="Heavy Thornholt Branches" category="50" did="1879370488" parentZoneId="1879368364" longitude="-18.522696" latitude="21.922958"/>
<marker id="716202010" label="Rich Ironfold Skarn Deposit" category="50" did="1879370484" parentZoneId="1879368364" longitude="-18.259102" latitude="21.311064"/>
<marker id="716202011" label="Thornholt Branches" category="50" did="1879370486" parentZoneId="1879368364" longitude="-18.259102" latitude="21.311064"/>
<marker id="716202012" label="Ironfold Skarn Deposit" category="50" did="1879370483" parentZoneId="1879368364" longitude="-18.259102" latitude="21.311064"/>
<marker id="716202013" label="Heavy Thornholt Branches" category="50" did="1879370488" parentZoneId="1879368364" longitude="-18.259102" latitude="21.311064"/>
<marker id="716202014" label="Rich Ironfold Skarn Deposit" category="50" did="1879370484" parentZoneId="1879368364" longitude="-18.65451" latitude="21.38251"/>
<marker id="716202015" label="Thornholt Branches" category="50" did="1879370486" parentZoneId="1879368364" longitude="-18.65451" latitude="21.38251"/>
<marker id="716202016" label="Ironfold Skarn Deposit" category="50" did="1879370483" parentZoneId="1879368364" longitude="-18.65451" latitude="21.38251"/>
<marker id="716202017" label="Heavy Thornholt Branches" category="50" did="1879370488" parentZoneId="1879368364" longitude="-18.65451" latitude="21.38251"/>
<marker id="716202018" label="Rich Ironfold Skarn Deposit" category="50" did="1879370484" parentZoneId="1879368364" longitude="-18.315195" latitude="21.84833"/>
<marker id="716202019" label="Thornholt Branches" category="50" did="1879370486" parentZoneId="1879368364" longitude="-18.315195" latitude="21.84833"/>
<marker id="716202020" label="Ironfold Skarn Deposit" category="50" did="1879370483" parentZoneId="1879368364" longitude="-18.315195" latitude="21.84833"/>
<marker id="716202021" label="Heavy Thornholt Branches" category="50" did="1879370488" parentZoneId="1879368364" longitude="-18.315195" latitude="21.84833"/>
<marker id="716202022" label="Rich Ironfold Skarn Deposit" category="50" did="1879370484" parentZoneId="1879368364" longitude="-18.134882" latitude="21.536747"/>
<marker id="716202023" label="Thornholt Branches" category="50" did="1879370486" parentZoneId="1879368364" longitude="-18.134882" latitude="21.536747"/>
<marker id="716202024" label="Ironfold Skarn Deposit" category="50" did="1879370483" parentZoneId="1879368364" longitude="-18.134882" latitude="21.536747"/>
<marker id="716202025" label="Heavy Thornholt Branches" category="50" did="1879370488" parentZoneId="1879368364" longitude="-18.134882" latitude="21.536747"/>
<marker id="716202026" label="Rich Ironfold Skarn Deposit" category="50" did="1879370484" parentZoneId="1879368364" longitude="-18.690508" latitude="21.88623"/>
<marker id="716202027" label="Thornholt Branches" category="50" did="1879370486" parentZoneId="1879368364" longitude="-18.690508" latitude="21.88623"/>
<marker id="716202028" label="Ironfold Skarn Deposit" category="50" did="1879370483" parentZoneId="1879368364" longitude="-18.690508" latitude="21.88623"/>
<marker id="716202029" label="Heavy Thornholt Branches" category="50" did="1879370488" parentZoneId="1879368364" longitude="-18.690508" latitude="21.88623"/>
<marker id="716202030" label="Rich Ironfold Skarn Deposit" category="50" did="1879370484" parentZoneId="1879368364" longitude="-18.537373" latitude="21.27791"/>
<marker id="716202031" label="Thornholt Branches" category="50" did="1879370486" parentZoneId="1879368364" longitude="-18.537373" latitude="21.27791"/>
<marker id="716202032" label="Ironfold Skarn Deposit" category="50" did="1879370483" parentZoneId="1879368364" longitude="-18.537373" latitude="21.27791"/>
<marker id="716202033" label="Heavy Thornholt Branches" category="50" did="1879370488" parentZoneId="1879368364" longitude="-18.537373" latitude="21.27791"/>
<marker id="716202034" label="Rich Ironfold Skarn Deposit" category="50" did="1879370484" parentZoneId="1879368364" longitude="-18.031445" latitude="21.757988"/>
<marker id="716202035" label="Thornholt Branches" category="50" did="1879370486" parentZoneId="1879368364" longitude="-18.031445" latitude="21.757988"/>
<marker id="716202036" label="Ironfold Skarn Deposit" category="50" did="1879370483" parentZoneId="1879368364" longitude="-18.031445" latitude="21.757988"/>
<marker id="716202037" label="Heavy Thornholt Branches" category="50" did="1879370488" parentZoneId="1879368364" longitude="-18.031445" latitude="21.757988"/>
<marker id="716202038" label="Moor-shrew" category="78" did="1879369238" parentZoneId="1879368364" longitude="-18.098389" latitude="21.295527"/>
<marker id="716202039" label="Iron Hill-fox" category="78" did="1879369239" parentZoneId="1879368364" longitude="-18.098389" latitude="21.295527"/>
<marker id="716202040" label="Northern Hare" category="78" did="1879363821" parentZoneId="1879368364" longitude="-18.098389" latitude="21.295527"/>
<marker id="716202041" label="Hill Grouse" category="78" did="1879369240" parentZoneId="1879368364" longitude="-18.098389" latitude="21.295527"/>
<marker id="716202042" label="Northern Viper" category="78" did="1879369242" parentZoneId="1879368364" longitude="-18.098389" latitude="21.295527"/>
<marker id="716202043" label="Moor-rat" category="78" did="1879369243" parentZoneId="1879368364" longitude="-18.098389" latitude="21.295527"/>
<marker id="716202044" label="Moor-shrew" category="78" did="1879369238" parentZoneId="1879368364" longitude="-18.276846" latitude="21.491903"/>
<marker id="716202045" label="Iron Hill-fox" category="78" did="1879369239" parentZoneId="1879368364" longitude="-18.276846" latitude="21.491903"/>
<marker id="716202046" label="Northern Hare" category="78" did="1879363821" parentZoneId="1879368364" longitude="-18.276846" latitude="21.491903"/>
<marker id="716202047" label="Hill Grouse" category="78" did="1879369240" parentZoneId="1879368364" longitude="-18.276846" latitude="21.491903"/>
<marker id="716202048" label="Northern Viper" category="78" did="1879369242" parentZoneId="1879368364" longitude="-18.276846" latitude="21.491903"/>
<marker id="716202049" label="Moor-rat" category="78" did="1879369243" parentZoneId="1879368364" longitude="-18.276846" latitude="21.491903"/>
<marker id="716202050" label="Moor-shrew" category="78" did="1879369238" parentZoneId="1879368364" longitude="-18.427168" latitude="21.788906"/>
<marker id="716202051" label="Iron Hill-fox" category="78" did="1879369239" parentZoneId="1879368364" longitude="-18.427168" latitude="21.788906"/>
<marker id="716202052" label="Northern Hare" category="78" did="1879363821" parentZoneId="1879368364" longitude="-18.427168" latitude="21.788906"/>
<marker id="716202053" label="Hill Grouse" category="78" did="1879369240" parentZoneId="1879368364" longitude="-18.427168" latitude="21.788906"/>
<marker id="716202054" label="Northern Viper" category="78" did="1879369242" parentZoneId="1879368364" longitude="-18.427168" latitude="21.788906"/>
<marker id="716202055" label="Moor-rat" category="78" did="1879369243" parentZoneId="1879368364" longitude="-18.427168" latitude="21.788906"/>
<marker id="716202056" label="Moor-shrew" category="78" did="1879369238" parentZoneId="1879368364" longitude="-18.718056" latitude="21.725977"/>
<marker id="716202057" label="Iron Hill-fox" category="78" did="1879369239" parentZoneId="1879368364" longitude="-18.718056" latitude="21.725977"/>
<marker id="716202058" label="Northern Hare" category="78" did="1879363821" parentZoneId="1879368364" longitude="-18.718056" latitude="21.725977"/>
<marker id="716202059" label="Hill Grouse" category="78" did="1879369240" parentZoneId="1879368364" longitude="-18.718056" latitude="21.725977"/>
<marker id="716202060" label="Northern Viper" category="78" did="1879369242" parentZoneId="1879368364" longitude="-18.718056" latitude="21.725977"/>
<marker id="716202061" label="Moor-rat" category="78" did="1879369243" parentZoneId="1879368364" longitude="-18.718056" latitude="21.725977"/>
<marker id="716202062" label="Moor-shrew" category="78" did="1879369238" parentZoneId="1879368364" longitude="-18.635576" latitude="21.356737"/>
<marker id="716202063" label="Iron Hill-fox" category="78" did="1879369239" parentZoneId="1879368364" longitude="-18.635576" latitude="21.356737"/>
<marker id="716202064" label="Northern Hare" category="78" did="1879363821" parentZoneId="1879368364" longitude="-18.635576" latitude="21.356737"/>
<marker id="716202065" label="Hill Grouse" category="78" did="1879369240" parentZoneId="1879368364" longitude="-18.635576" latitude="21.356737"/>
<marker id="716202066" label="Northern Viper" category="78" did="1879369242" parentZoneId="1879368364" longitude="-18.635576" latitude="21.356737"/>
<marker id="716202067" label="Moor-rat" category="78" did="1879369243" parentZoneId="1879368364" longitude="-18.635576" latitude="21.356737"/>
<marker id="716202068" label="Ironfold Ram" category="71" did="1879369237" parentZoneId="1879368364" longitude="-18.671387" latitude="21.292305"/>
<marker id="716202069" label="Hill-beast Heaver" category="71" did="1879369232" parentZoneId="1879368364" longitude="-18.671387" latitude="21.292305"/>
<marker id="716202070" label="Scrublands Lynx" category="71" did="1879369234" parentZoneId="1879368364" longitude="-18.671387" latitude="21.292305"/>
<marker id="716202071" label="Scrublands Wolf" category="71" did="1879369228" parentZoneId="1879368364" longitude="-18.671387" latitude="21.292305"/>
<marker id="716202072" label="Iron Hill-lizard" category="71" did="1879369229" parentZoneId="1879368364" longitude="-18.671387" latitude="21.292305"/>
<marker id="716202073" label="Ironfold Worker" category="71" did="1879369231" parentZoneId="1879368364" longitude="-18.671387" latitude="21.292305"/>
<marker id="716202074" label="Ironfold Stone-biter" category="71" did="1879369224" parentZoneId="1879368364" longitude="-18.671387" latitude="21.292305"/>
<marker id="716202075" label="Aurochs Herd-cow" category="71" did="1879369225" parentZoneId="1879368364" longitude="-18.671387" latitude="21.292305"/>
<marker id="716202076" label="Rusty Hill-beast" category="71" did="1879369226" parentZoneId="1879368364" longitude="-18.671387" latitude="21.292305"/>
<marker id="716202077" label="Ironfold Burrower" category="71" did="1879369227" parentZoneId="1879368364" longitude="-18.671387" latitude="21.292305"/>
<marker id="716202078" label="Ironfold Ram" category="71" did="1879369237" parentZoneId="1879368364" longitude="-18.636728" latitude="21.477333"/>
<marker id="716202079" label="Hill-beast Heaver" category="71" did="1879369232" parentZoneId="1879368364" longitude="-18.636728" latitude="21.477333"/>
<marker id="716202080" label="Scrublands Lynx" category="71" did="1879369234" parentZoneId="1879368364" longitude="-18.636728" latitude="21.477333"/>
<marker id="716202081" label="Scrublands Wolf" category="71" did="1879369228" parentZoneId="1879368364" longitude="-18.636728" latitude="21.477333"/>
<marker id="716202082" label="Iron Hill-lizard" category="71" did="1879369229" parentZoneId="1879368364" longitude="-18.636728" latitude="21.477333"/>
<marker id="716202083" label="Ironfold Worker" category="71" did="1879369231" parentZoneId="1879368364" longitude="-18.636728" latitude="21.477333"/>
<marker id="716202084" label="Ironfold Stone-biter" category="71" did="1879369224" parentZoneId="1879368364" longitude="-18.636728" latitude="21.477333"/>
<marker id="716202085" label="Aurochs Herd-cow" category="71" did="1879369225" parentZoneId="1879368364" longitude="-18.636728" latitude="21.477333"/>
<marker id="716202086" label="Rusty Hill-beast" category="71" did="1879369226" parentZoneId="1879368364" longitude="-18.636728" latitude="21.477333"/>
<marker id="716202087" label="Ironfold Burrower" category="71" did="1879369227" parentZoneId="1879368364" longitude="-18.636728" latitude="21.477333"/>
<marker id="716202088" label="Ironfold Ram" category="71" did="1879369237" parentZoneId="1879368364" longitude="-18.784803" latitude="21.503613"/>
<marker id="716202089" label="Hill-beast Heaver" category="71" did="1879369232" parentZoneId="1879368364" longitude="-18.784803" latitude="21.503613"/>
<marker id="716202090" label="Scrublands Lynx" category="71" did="1879369234" parentZoneId="1879368364" longitude="-18.784803" latitude="21.503613"/>
<marker id="716202091" label="Scrublands Wolf" category="71" did="1879369228" parentZoneId="1879368364" longitude="-18.784803" latitude="21.503613"/>
<marker id="716202092" label="Iron Hill-lizard" category="71" did="1879369229" parentZoneId="1879368364" longitude="-18.784803" latitude="21.503613"/>
<marker id="716202093" label="Ironfold Worker" category="71" did="1879369231" parentZoneId="1879368364" longitude="-18.784803" latitude="21.503613"/>
<marker id="716202094" label="Ironfold Stone-biter" category="71" did="1879369224" parentZoneId="1879368364" longitude="-18.784803" latitude="21.503613"/>
<marker id="716202095" label="Aurochs Herd-cow" category="71" did="1879369225" parentZoneId="1879368364" longitude="-18.784803" latitude="21.503613"/>
<marker id="716202096" label="Rusty Hill-beast" category="71" did="1879369226" parentZoneId="1879368364" longitude="-18.784803" latitude="21.503613"/>
<marker id="716202097" label="Ironfold Burrower" category="71" did="1879369227" parentZoneId="1879368364" longitude="-18.784803" latitude="21.503613"/>
<marker id="716202098" label="Ironfold Ram" category="71" did="1879369237" parentZoneId="1879368364" longitude="-18.697832" latitude="21.70666"/>
<marker id="716202099" label="Hill-beast Heaver" category="71" did="1879369232" parentZoneId="1879368364" longitude="-18.697832" latitude="21.70666"/>
<marker id="716202100" label="Scrublands Lynx" category="71" did="1879369234" parentZoneId="1879368364" longitude="-18.697832" latitude="21.70666"/>
<marker id="716202101" label="Scrublands Wolf" category="71" did="1879369228" parentZoneId="1879368364" longitude="-18.697832" latitude="21.70666"/>
<marker id="716202102" label="Iron Hill-lizard" category="71" did="1879369229" parentZoneId="1879368364" longitude="-18.697832" latitude="21.70666"/>
<marker id="716202103" label="Ironfold Worker" category="71" did="1879369231" parentZoneId="1879368364" longitude="-18.697832" latitude="21.70666"/>
<marker id="716202104" label="Ironfold Stone-biter" category="71" did="1879369224" parentZoneId="1879368364" longitude="-18.697832" latitude="21.70666"/>
<marker id="716202105" label="Aurochs Herd-cow" category="71" did="1879369225" parentZoneId="1879368364" longitude="-18.697832" latitude="21.70666"/>
<marker id="716202106" label="Rusty Hill-beast" category="71" did="1879369226" parentZoneId="1879368364" longitude="-18.697832" latitude="21.70666"/>
<marker id="716202107" label="Ironfold Burrower" category="71" did="1879369227" parentZoneId="1879368364" longitude="-18.697832" latitude="21.70666"/>
<marker id="716202108" label="Ironfold Ram" category="71" did="1879369237" parentZoneId="1879368364" longitude="-18.764208" latitude="21.958193"/>
<marker id="716202109" label="Hill-beast Heaver" category="71" did="1879369232" parentZoneId="1879368364" longitude="-18.764208" latitude="21.958193"/>
<marker id="716202110" label="Scrublands Lynx" category="71" did="1879369234" parentZoneId="1879368364" longitude="-18.764208" latitude="21.958193"/>
<marker id="716202111" label="Scrublands Wolf" category="71" did="1879369228" parentZoneId="1879368364" longitude="-18.764208" latitude="21.958193"/>
<marker id="716202112" label="Iron Hill-lizard" category="71" did="1879369229" parentZoneId="1879368364" longitude="-18.764208" latitude="21.958193"/>
<marker id="716202113" label="Ironfold Worker" category="71" did="1879369231" parentZoneId="1879368364" longitude="-18.764208" latitude="21.958193"/>
<marker id="716202114" label="Ironfold Stone-biter" category="71" did="1879369224" parentZoneId="1879368364" longitude="-18.764208" latitude="21.958193"/>
<marker id="716202115" label="Aurochs Herd-cow" category="71" did="1879369225" parentZoneId="1879368364" longitude="-18.764208" latitude="21.958193"/>
<marker id="716202116" label="Rusty Hill-beast" category="71" did="1879369226" parentZoneId="1879368364" longitude="-18.764208" latitude="21.958193"/>
<marker id="716202117" label="Ironfold Burrower" category="71" did="1879369227" parentZoneId="1879368364" longitude="-18.764208" latitude="21.958193"/>
<marker id="716202118" label="Ironfold Ram" category="71" did="1879369237" parentZoneId="1879368364" longitude="-18.521347" latitude="21.955107"/>
<marker id="716202119" label="Hill-beast Heaver" category="71" did="1879369232" parentZoneId="1879368364" longitude="-18.521347" latitude="21.955107"/>
<marker id="716202120" label="Scrublands Lynx" category="71" did="1879369234" parentZoneId="1879368364" longitude="-18.521347" latitude="21.955107"/>
<marker id="716202121" label="Scrublands Wolf" category="71" did="1879369228" parentZoneId="1879368364" longitude="-18.521347" latitude="21.955107"/>
<marker id="716202122" label="Iron Hill-lizard" category="71" did="1879369229" parentZoneId="1879368364" longitude="-18.521347" latitude="21.955107"/>
<marker id="716202123" label="Ironfold Worker" category="71" did="1879369231" parentZoneId="1879368364" longitude="-18.521347" latitude="21.955107"/>
<marker id="716202124" label="Ironfold Stone-biter" category="71" did="1879369224" parentZoneId="1879368364" longitude="-18.521347" latitude="21.955107"/>
<marker id="716202125" label="Aurochs Herd-cow" category="71" did="1879369225" parentZoneId="1879368364" longitude="-18.521347" latitude="21.955107"/>
<marker id="716202126" label="Rusty Hill-beast" category="71" did="1879369226" parentZoneId="1879368364" longitude="-18.521347" latitude="21.955107"/>
<marker id="716202127" label="Ironfold Burrower" category="71" did="1879369227" parentZoneId="1879368364" longitude="-18.521347" latitude="21.955107"/>
<marker id="716202128" label="Ironfold Ram" category="71" did="1879369237" parentZoneId="1879368364" longitude="-18.366474" latitude="21.836573"/>
<marker id="716202129" label="Hill-beast Heaver" category="71" did="1879369232" parentZoneId="1879368364" longitude="-18.366474" latitude="21.836573"/>
<marker id="716202130" label="Scrublands Lynx" category="71" did="1879369234" parentZoneId="1879368364" longitude="-18.366474" latitude="21.836573"/>
<marker id="716202131" label="Scrublands Wolf" category="71" did="1879369228" parentZoneId="1879368364" longitude="-18.366474" latitude="21.836573"/>
<marker id="716202132" label="Iron Hill-lizard" category="71" did="1879369229" parentZoneId="1879368364" longitude="-18.366474" latitude="21.836573"/>
<marker id="716202133" label="Ironfold Worker" category="71" did="1879369231" parentZoneId="1879368364" longitude="-18.366474" latitude="21.836573"/>
<marker id="716202134" label="Ironfold Stone-biter" category="71" did="1879369224" parentZoneId="1879368364" longitude="-18.366474" latitude="21.836573"/>
<marker id="716202135" label="Aurochs Herd-cow" category="71" did="1879369225" parentZoneId="1879368364" longitude="-18.366474" latitude="21.836573"/>
<marker id="716202136" label="Rusty Hill-beast" category="71" did="1879369226" parentZoneId="1879368364" longitude="-18.366474" latitude="21.836573"/>
<marker id="716202137" label="Ironfold Burrower" category="71" did="1879369227" parentZoneId="1879368364" longitude="-18.366474" latitude="21.836573"/>
<marker id="716202138" label="Ironfold Ram" category="71" did="1879369237" parentZoneId="1879368364" longitude="-18.50329" latitude="21.745419"/>
<marker id="716202139" label="Hill-beast Heaver" category="71" did="1879369232" parentZoneId="1879368364" longitude="-18.50329" latitude="21.745419"/>
<marker id="716202140" label="Scrublands Lynx" category="71" did="1879369234" parentZoneId="1879368364" longitude="-18.50329" latitude="21.745419"/>
<marker id="716202141" label="Scrublands Wolf" category="71" did="1879369228" parentZoneId="1879368364" longitude="-18.50329" latitude="21.745419"/>
<marker id="716202142" label="Iron Hill-lizard" category="71" did="1879369229" parentZoneId="1879368364" longitude="-18.50329" latitude="21.745419"/>
<marker id="716202143" label="Ironfold Worker" category="71" did="1879369231" parentZoneId="1879368364" longitude="-18.50329" latitude="21.745419"/>
<marker id="716202144" label="Ironfold Stone-biter" category="71" did="1879369224" parentZoneId="1879368364" longitude="-18.50329" latitude="21.745419"/>
<marker id="716202145" label="Aurochs Herd-cow" category="71" did="1879369225" parentZoneId="1879368364" longitude="-18.50329" latitude="21.745419"/>
<marker id="716202146" label="Rusty Hill-beast" category="71" did="1879369226" parentZoneId="1879368364" longitude="-18.50329" latitude="21.745419"/>
<marker id="716202147" label="Ironfold Burrower" category="71" did="1879369227" parentZoneId="1879368364" longitude="-18.50329" latitude="21.745419"/>
<marker id="716202148" label="Ironfold Ram" category="71" did="1879369237" parentZoneId="1879368364" longitude="-18.29214" latitude="21.617998"/>
<marker id="716202149" label="Hill-beast Heaver" category="71" did="1879369232" parentZoneId="1879368364" longitude="-18.29214" latitude="21.617998"/>
<marker id="716202150" label="Scrublands Lynx" category="71" did="1879369234" parentZoneId="1879368364" longitude="-18.29214" latitude="21.617998"/>
<marker id="716202151" label="Scrublands Wolf" category="71" did="1879369228" parentZoneId="1879368364" longitude="-18.29214" latitude="21.617998"/>
<marker id="716202152" label="Iron Hill-lizard" category="71" did="1879369229" parentZoneId="1879368364" longitude="-18.29214" latitude="21.617998"/>
<marker id="716202153" label="Ironfold Worker" category="71" did="1879369231" parentZoneId="1879368364" longitude="-18.29214" latitude="21.617998"/>
<marker id="716202154" label="Ironfold Stone-biter" category="71" did="1879369224" parentZoneId="1879368364" longitude="-18.29214" latitude="21.617998"/>
<marker id="716202155" label="Aurochs Herd-cow" category="71" did="1879369225" parentZoneId="1879368364" longitude="-18.29214" latitude="21.617998"/>
<marker id="716202156" label="Rusty Hill-beast" category="71" did="1879369226" parentZoneId="1879368364" longitude="-18.29214" latitude="21.617998"/>
<marker id="716202157" label="Ironfold Burrower" category="71" did="1879369227" parentZoneId="1879368364" longitude="-18.29214" latitude="21.617998"/>
<marker id="716202158" label="Ironfold Ram" category="71" did="1879369237" parentZoneId="1879368364" longitude="-18.430098" latitude="21.537401"/>
<marker id="716202159" label="Hill-beast Heaver" category="71" did="1879369232" parentZoneId="1879368364" longitude="-18.430098" latitude="21.537401"/>
<marker id="716202160" label="Scrublands Lynx" category="71" did="1879369234" parentZoneId="1879368364" longitude="-18.430098" latitude="21.537401"/>
<marker id="716202161" label="Scrublands Wolf" category="71" did="1879369228" parentZoneId="1879368364" longitude="-18.430098" latitude="21.537401"/>
<marker id="716202162" label="Iron Hill-lizard" category="71" did="1879369229" parentZoneId="1879368364" longitude="-18.430098" latitude="21.537401"/>
<marker id="716202163" label="Ironfold Worker" category="71" did="1879369231" parentZoneId="1879368364" longitude="-18.430098" latitude="21.537401"/>
<marker id="716202164" label="Ironfold Stone-biter" category="71" did="1879369224" parentZoneId="1879368364" longitude="-18.430098" latitude="21.537401"/>
<marker id="716202165" label="Aurochs Herd-cow" category="71" did="1879369225" parentZoneId="1879368364" longitude="-18.430098" latitude="21.537401"/>
<marker id="716202166" label="Rusty Hill-beast" category="71" did="1879369226" parentZoneId="1879368364" longitude="-18.430098" latitude="21.537401"/>
<marker id="716202167" label="Ironfold Burrower" category="71" did="1879369227" parentZoneId="1879368364" longitude="-18.430098" latitude="21.537401"/>
<marker id="716202168" label="Ironfold Ram" category="71" did="1879369237" parentZoneId="1879368364" longitude="-18.219198" latitude="21.479473"/>
<marker id="716202169" label="Hill-beast Heaver" category="71" did="1879369232" parentZoneId="1879368364" longitude="-18.219198" latitude="21.479473"/>
<marker id="716202170" label="Scrublands Lynx" category="71" did="1879369234" parentZoneId="1879368364" longitude="-18.219198" latitude="21.479473"/>
<marker id="716202171" label="Scrublands Wolf" category="71" did="1879369228" parentZoneId="1879368364" longitude="-18.219198" latitude="21.479473"/>
<marker id="716202172" label="Iron Hill-lizard" category="71" did="1879369229" parentZoneId="1879368364" longitude="-18.219198" latitude="21.479473"/>
<marker id="716202173" label="Ironfold Worker" category="71" did="1879369231" parentZoneId="1879368364" longitude="-18.219198" latitude="21.479473"/>
<marker id="716202174" label="Ironfold Stone-biter" category="71" did="1879369224" parentZoneId="1879368364" longitude="-18.219198" latitude="21.479473"/>
<marker id="716202175" label="Aurochs Herd-cow" category="71" did="1879369225" parentZoneId="1879368364" longitude="-18.219198" latitude="21.479473"/>
<marker id="716202176" label="Rusty Hill-beast" category="71" did="1879369226" parentZoneId="1879368364" longitude="-18.219198" latitude="21.479473"/>
<marker id="716202177" label="Ironfold Burrower" category="71" did="1879369227" parentZoneId="1879368364" longitude="-18.219198" latitude="21.479473"/>
<marker id="716202178" label="Ironfold Ram" category="71" did="1879369237" parentZoneId="1879368364" longitude="-18.06793" latitude="21.35628"/>
<marker id="716202179" label="Hill-beast Heaver" category="71" did="1879369232" parentZoneId="1879368364" longitude="-18.06793" latitude="21.35628"/>
<marker id="716202180" label="Scrublands Lynx" category="71" did="1879369234" parentZoneId="1879368364" longitude="-18.06793" latitude="21.35628"/>
<marker id="716202181" label="Scrublands Wolf" category="71" did="1879369228" parentZoneId="1879368364" longitude="-18.06793" latitude="21.35628"/>
<marker id="716202182" label="Iron Hill-lizard" category="71" did="1879369229" parentZoneId="1879368364" longitude="-18.06793" latitude="21.35628"/>
<marker id="716202183" label="Ironfold Worker" category="71" did="1879369231" parentZoneId="1879368364" longitude="-18.06793" latitude="21.35628"/>
<marker id="716202184" label="Ironfold Stone-biter" category="71" did="1879369224" parentZoneId="1879368364" longitude="-18.06793" latitude="21.35628"/>
<marker id="716202185" label="Aurochs Herd-cow" category="71" did="1879369225" parentZoneId="1879368364" longitude="-18.06793" latitude="21.35628"/>
<marker id="716202186" label="Rusty Hill-beast" category="71" did="1879369226" parentZoneId="1879368364" longitude="-18.06793" latitude="21.35628"/>
<marker id="716202187" label="Ironfold Burrower" category="71" did="1879369227" parentZoneId="1879368364" longitude="-18.06793" latitude="21.35628"/>
<marker id="716202188" label="Ironfold Ram" category="71" did="1879369237" parentZoneId="1879368364" longitude="-18.186504" latitude="21.231758"/>
<marker id="716202189" label="Hill-beast Heaver" category="71" did="1879369232" parentZoneId="1879368364" longitude="-18.186504" latitude="21.231758"/>
<marker id="716202190" label="Scrublands Lynx" category="71" did="1879369234" parentZoneId="1879368364" longitude="-18.186504" latitude="21.231758"/>
<marker id="716202191" label="Scrublands Wolf" category="71" did="1879369228" parentZoneId="1879368364" longitude="-18.186504" latitude="21.231758"/>
<marker id="716202192" label="Iron Hill-lizard" category="71" did="1879369229" parentZoneId="1879368364" longitude="-18.186504" latitude="21.231758"/>
<marker id="716202193" label="Ironfold Worker" category="71" did="1879369231" parentZoneId="1879368364" longitude="-18.186504" latitude="21.231758"/>
<marker id="716202194" label="Ironfold Stone-biter" category="71" did="1879369224" parentZoneId="1879368364" longitude="-18.186504" latitude="21.231758"/>
<marker id="716202195" label="Aurochs Herd-cow" category="71" did="1879369225" parentZoneId="1879368364" longitude="-18.186504" latitude="21.231758"/>
<marker id="716202196" label="Rusty Hill-beast" category="71" did="1879369226" parentZoneId="1879368364" longitude="-18.186504" latitude="21.231758"/>
<marker id="716202197" label="Ironfold Burrower" category="71" did="1879369227" parentZoneId="1879368364" longitude="-18.186504" latitude="21.231758"/>
<marker id="716202198" label="Ironfold Ram" category="71" did="1879369237" parentZoneId="1879368364" longitude="-18.285107" latitude="21.364336"/>
<marker id="716202199" label="Hill-beast Heaver" category="71" did="1879369232" parentZoneId="1879368364" longitude="-18.285107" latitude="21.364336"/>
<marker id="716202200" label="Scrublands Lynx" category="71" did="1879369234" parentZoneId="1879368364" longitude="-18.285107" latitude="21.364336"/>
<marker id="716202201" label="Scrublands Wolf" category="71" did="1879369228" parentZoneId="1879368364" longitude="-18.285107" latitude="21.364336"/>
<marker id="716202202" label="Iron Hill-lizard" category="71" did="1879369229" parentZoneId="1879368364" longitude="-18.285107" latitude="21.364336"/>
<marker id="716202203" label="Ironfold Worker" category="71" did="1879369231" parentZoneId="1879368364" longitude="-18.285107" latitude="21.364336"/>
<marker id="716202204" label="Ironfold Stone-biter" category="71" did="1879369224" parentZoneId="1879368364" longitude="-18.285107" latitude="21.364336"/>
<marker id="716202205" label="Aurochs Herd-cow" category="71" did="1879369225" parentZoneId="1879368364" longitude="-18.285107" latitude="21.364336"/>
<marker id="716202206" label="Rusty Hill-beast" category="71" did="1879369226" parentZoneId="1879368364" longitude="-18.285107" latitude="21.364336"/>
<marker id="716202207" label="Ironfold Burrower" category="71" did="1879369227" parentZoneId="1879368364" longitude="-18.285107" latitude="21.364336"/>
<marker id="716206080" label="Rust-pocked Deposit" category="73" did="1879368823" parentZoneId="1879368364" longitude="-18.37663" latitude="22.205448"/>
<marker id="716206081" label="Scrublands Wolf" category="71" did="1879369228" parentZoneId="1879368364" longitude="-18.466093" latitude="22.43418"/>
<marker id="716206082" label="Rusty Hill-beast" category="71" did="1879369226" parentZoneId="1879368364" longitude="-18.466093" latitude="22.43418"/>
<marker id="716206083" label="Moor-shrew" category="78" did="1879369238" parentZoneId="1879368364" longitude="-18.46625" latitude="22.423008"/>
<marker id="716206084" label="Iron Hill-fox" category="78" did="1879369239" parentZoneId="1879368364" longitude="-18.46625" latitude="22.423008"/>
<marker id="716206085" label="Hill-beast Heaver" category="71" did="1879369232" parentZoneId="1879368364" longitude="-18.466093" latitude="22.43418"/>
<marker id="716206086" label="Scrublands Lynx" category="71" did="1879369234" parentZoneId="1879368364" longitude="-18.466093" latitude="22.43418"/>
<marker id="716206087" label="Hill Grouse" category="78" did="1879369240" parentZoneId="1879368364" longitude="-18.46625" latitude="22.423008"/>
<marker id="716206088" label="Northern Viper" category="78" did="1879369242" parentZoneId="1879368364" longitude="-18.46625" latitude="22.423008"/>
<marker id="716206089" label="Moor-rat" category="78" did="1879369243" parentZoneId="1879368364" longitude="-18.46625" latitude="22.423008"/>
<marker id="716206090" label="Northern Hare" category="78" did="1879363821" parentZoneId="1879368364" longitude="-18.46625" latitude="22.423008"/>
<marker id="716206092" label="Moor-shrew" category="78" did="1879369238" parentZoneId="1879368364" longitude="-18.542255" latitude="22.663925"/>
<marker id="716206093" label="Iron Hill-fox" category="78" did="1879369239" parentZoneId="1879368364" longitude="-18.542255" latitude="22.663925"/>
<marker id="716206094" label="Northern Hare" category="78" did="1879363821" parentZoneId="1879368364" longitude="-18.542255" latitude="22.663925"/>
<marker id="716206095" label="Hill Grouse" category="78" did="1879369240" parentZoneId="1879368364" longitude="-18.542255" latitude="22.663925"/>
<marker id="716206096" label="Northern Viper" category="78" did="1879369242" parentZoneId="1879368364" longitude="-18.542255" latitude="22.663925"/>
<marker id="716206097" label="Moor-rat" category="78" did="1879369243" parentZoneId="1879368364" longitude="-18.542255" latitude="22.663925"/>
<marker id="716206098" label="Moor-shrew" category="78" did="1879369238" parentZoneId="1879368364" longitude="-18.61248" latitude="22.433485"/>
<marker id="716206099" label="Iron Hill-fox" category="78" did="1879369239" parentZoneId="1879368364" longitude="-18.61248" latitude="22.433485"/>
<marker id="716206100" label="Northern Hare" category="78" did="1879363821" parentZoneId="1879368364" longitude="-18.61248" latitude="22.433485"/>
<marker id="716206101" label="Hill Grouse" category="78" did="1879369240" parentZoneId="1879368364" longitude="-18.61248" latitude="22.433485"/>
<marker id="716206102" label="Northern Viper" category="78" did="1879369242" parentZoneId="1879368364" longitude="-18.61248" latitude="22.433485"/>
<marker id="716206103" label="Moor-rat" category="78" did="1879369243" parentZoneId="1879368364" longitude="-18.61248" latitude="22.433485"/>
<marker id="716206104" label="Moor-shrew" category="78" did="1879369238" parentZoneId="1879368364" longitude="-18.620684" latitude="22.08457"/>
<marker id="716206105" label="Iron Hill-fox" category="78" did="1879369239" parentZoneId="1879368364" longitude="-18.620684" latitude="22.08457"/>
<marker id="716206106" label="Northern Hare" category="78" did="1879363821" parentZoneId="1879368364" longitude="-18.620684" latitude="22.08457"/>
<marker id="716206107" label="Hill Grouse" category="78" did="1879369240" parentZoneId="1879368364" longitude="-18.620684" latitude="22.08457"/>
<marker id="716206108" label="Northern Viper" category="78" did="1879369242" parentZoneId="1879368364" longitude="-18.620684" latitude="22.08457"/>
<marker id="716206109" label="Moor-rat" category="78" did="1879369243" parentZoneId="1879368364" longitude="-18.620684" latitude="22.08457"/>
<marker id="716206110" label="Moor-shrew" category="78" did="1879369238" parentZoneId="1879368364" longitude="-18.42626" latitude="22.261904"/>
<marker id="716206111" label="Iron Hill-fox" category="78" did="1879369239" parentZoneId="1879368364" longitude="-18.42626" latitude="22.261904"/>
<marker id="716206112" label="Northern Hare" category="78" did="1879363821" parentZoneId="1879368364" longitude="-18.42626" latitude="22.261904"/>
<marker id="716206113" label="Hill Grouse" category="78" did="1879369240" parentZoneId="1879368364" longitude="-18.42626" latitude="22.261904"/>
<marker id="716206114" label="Northern Viper" category="78" did="1879369242" parentZoneId="1879368364" longitude="-18.42626" latitude="22.261904"/>
<marker id="716206115" label="Moor-rat" category="78" did="1879369243" parentZoneId="1879368364" longitude="-18.42626" latitude="22.261904"/>
<marker id="716206116" label="Moor-shrew" category="78" did="1879369238" parentZoneId="1879368364" longitude="-18.169043" latitude="22.394413"/>
<marker id="716206117" label="Iron Hill-fox" category="78" did="1879369239" parentZoneId="1879368364" longitude="-18.169043" latitude="22.394413"/>
<marker id="716206118" label="Northern Hare" category="78" did="1879363821" parentZoneId="1879368364" longitude="-18.169043" latitude="22.394413"/>
<marker id="716206119" label="Hill Grouse" category="78" did="1879369240" parentZoneId="1879368364" longitude="-18.169043" latitude="22.394413"/>
<marker id="716206120" label="Northern Viper" category="78" did="1879369242" parentZoneId="1879368364" longitude="-18.169043" latitude="22.394413"/>
<marker id="716206121" label="Moor-rat" category="78" did="1879369243" parentZoneId="1879368364" longitude="-18.169043" latitude="22.394413"/>
<marker id="716206122" label="Moor-shrew" category="78" did="1879369238" parentZoneId="1879368364" longitude="-18.085" latitude="22.716309"/>
<marker id="716206123" label="Iron Hill-fox" category="78" did="1879369239" parentZoneId="1879368364" longitude="-18.085" latitude="22.716309"/>
<marker id="716206124" label="Northern Hare" category="78" did="1879363821" parentZoneId="1879368364" longitude="-18.085" latitude="22.716309"/>
<marker id="716206125" label="Hill Grouse" category="78" did="1879369240" parentZoneId="1879368364" longitude="-18.085" latitude="22.716309"/>
<marker id="716206126" label="Northern Viper" category="78" did="1879369242" parentZoneId="1879368364" longitude="-18.085" latitude="22.716309"/>
<marker id="716206127" label="Moor-rat" category="78" did="1879369243" parentZoneId="1879368364" longitude="-18.085" latitude="22.716309"/>
<marker id="716206128" label="Ironfold Ram" category="71" did="1879369237" parentZoneId="1879368364" longitude="-18.369053" latitude="22.634209"/>
<marker id="716206129" label="Hill-beast Heaver" category="71" did="1879369232" parentZoneId="1879368364" longitude="-18.369053" latitude="22.634209"/>
<marker id="716206130" label="Scrublands Lynx" category="71" did="1879369234" parentZoneId="1879368364" longitude="-18.369053" latitude="22.634209"/>
<marker id="716206131" label="Scrublands Wolf" category="71" did="1879369228" parentZoneId="1879368364" longitude="-18.369053" latitude="22.634209"/>
<marker id="716206132" label="Iron Hill-lizard" category="71" did="1879369229" parentZoneId="1879368364" longitude="-18.369053" latitude="22.634209"/>
<marker id="716206133" label="Ironfold Worker" category="71" did="1879369231" parentZoneId="1879368364" longitude="-18.369053" latitude="22.634209"/>
<marker id="716206134" label="Ironfold Stone-biter" category="71" did="1879369224" parentZoneId="1879368364" longitude="-18.369053" latitude="22.634209"/>
<marker id="716206135" label="Aurochs Herd-cow" category="71" did="1879369225" parentZoneId="1879368364" longitude="-18.369053" latitude="22.634209"/>
<marker id="716206136" label="Rusty Hill-beast" category="71" did="1879369226" parentZoneId="1879368364" longitude="-18.369053" latitude="22.634209"/>
<marker id="716206137" label="Ironfold Burrower" category="71" did="1879369227" parentZoneId="1879368364" longitude="-18.369053" latitude="22.634209"/>
<marker id="716206138" label="Ironfold Ram" category="71" did="1879369237" parentZoneId="1879368364" longitude="-18.448261" latitude="22.421923"/>
<marker id="716206139" label="Hill-beast Heaver" category="71" did="1879369232" parentZoneId="1879368364" longitude="-18.448261" latitude="22.421923"/>
<marker id="716206140" label="Scrublands Lynx" category="71" did="1879369234" parentZoneId="1879368364" longitude="-18.448261" latitude="22.421923"/>
<marker id="716206141" label="Scrublands Wolf" category="71" did="1879369228" parentZoneId="1879368364" longitude="-18.448261" latitude="22.421923"/>
<marker id="716206142" label="Iron Hill-lizard" category="71" did="1879369229" parentZoneId="1879368364" longitude="-18.448261" latitude="22.421923"/>
<marker id="716206143" label="Ironfold Worker" category="71" did="1879369231" parentZoneId="1879368364" longitude="-18.448261" latitude="22.421923"/>
<marker id="716206144" label="Ironfold Stone-biter" category="71" did="1879369224" parentZoneId="1879368364" longitude="-18.448261" latitude="22.421923"/>
<marker id="716206145" label="Aurochs Herd-cow" category="71" did="1879369225" parentZoneId="1879368364" longitude="-18.448261" latitude="22.421923"/>
<marker id="716206146" label="Rusty Hill-beast" category="71" did="1879369226" parentZoneId="1879368364" longitude="-18.448261" latitude="22.421923"/>
<marker id="716206147" label="Ironfold Burrower" category="71" did="1879369227" parentZoneId="1879368364" longitude="-18.448261" latitude="22.421923"/>
<marker id="716206148" label="Ironfold Ram" category="71" did="1879369237" parentZoneId="1879368364" longitude="-18.496641" latitude="22.575888"/>
<marker id="716206149" label="Hill-beast Heaver" category="71" did="1879369232" parentZoneId="1879368364" longitude="-18.496641" latitude="22.575888"/>
<marker id="716206150" label="Scrublands Lynx" category="71" did="1879369234" parentZoneId="1879368364" longitude="-18.496641" latitude="22.575888"/>
<marker id="716206151" label="Scrublands Wolf" category="71" did="1879369228" parentZoneId="1879368364" longitude="-18.496641" latitude="22.575888"/>
<marker id="716206152" label="Iron Hill-lizard" category="71" did="1879369229" parentZoneId="1879368364" longitude="-18.496641" latitude="22.575888"/>
<marker id="716206153" label="Ironfold Worker" category="71" did="1879369231" parentZoneId="1879368364" longitude="-18.496641" latitude="22.575888"/>
<marker id="716206154" label="Ironfold Stone-biter" category="71" did="1879369224" parentZoneId="1879368364" longitude="-18.496641" latitude="22.575888"/>
<marker id="716206155" label="Aurochs Herd-cow" category="71" did="1879369225" parentZoneId="1879368364" longitude="-18.496641" latitude="22.575888"/>
<marker id="716206156" label="Rusty Hill-beast" category="71" did="1879369226" parentZoneId="1879368364" longitude="-18.496641" latitude="22.575888"/>
<marker id="716206157" label="Ironfold Burrower" category="71" did="1879369227" parentZoneId="1879368364" longitude="-18.496641" latitude="22.575888"/>
<marker id="716206158" label="Ironfold Ram" category="71" did="1879369237" parentZoneId="1879368364" longitude="-18.531923" latitude="22.226034"/>
<marker id="716206159" label="Hill-beast Heaver" category="71" did="1879369232" parentZoneId="1879368364" longitude="-18.531923" latitude="22.226034"/>
<marker id="716206160" label="Scrublands Lynx" category="71" did="1879369234" parentZoneId="1879368364" longitude="-18.531923" latitude="22.226034"/>
<marker id="716206161" label="Scrublands Wolf" category="71" did="1879369228" parentZoneId="1879368364" longitude="-18.531923" latitude="22.226034"/>
<marker id="716206162" label="Iron Hill-lizard" category="71" did="1879369229" parentZoneId="1879368364" longitude="-18.531923" latitude="22.226034"/>
<marker id="716206163" label="Ironfold Worker" category="71" did="1879369231" parentZoneId="1879368364" longitude="-18.531923" latitude="22.226034"/>
<marker id="716206164" label="Ironfold Stone-biter" category="71" did="1879369224" parentZoneId="1879368364" longitude="-18.531923" latitude="22.226034"/>
<marker id="716206165" label="Aurochs Herd-cow" category="71" did="1879369225" parentZoneId="1879368364" longitude="-18.531923" latitude="22.226034"/>
<marker id="716206166" label="Rusty Hill-beast" category="71" did="1879369226" parentZoneId="1879368364" longitude="-18.531923" latitude="22.226034"/>
<marker id="716206167" label="Ironfold Burrower" category="71" did="1879369227" parentZoneId="1879368364" longitude="-18.531923" latitude="22.226034"/>
<marker id="716206168" label="Ironfold Ram" category="71" did="1879369237" parentZoneId="1879368364" longitude="-18.731092" latitude="22.120674"/>
<marker id="716206169" label="Hill-beast Heaver" category="71" did="1879369232" parentZoneId="1879368364" longitude="-18.731092" latitude="22.120674"/>
<marker id="716206170" label="Scrublands Lynx" category="71" did="1879369234" parentZoneId="1879368364" longitude="-18.731092" latitude="22.120674"/>
<marker id="716206171" label="Scrublands Wolf" category="71" did="1879369228" parentZoneId="1879368364" longitude="-18.731092" latitude="22.120674"/>
<marker id="716206172" label="Iron Hill-lizard" category="71" did="1879369229" parentZoneId="1879368364" longitude="-18.731092" latitude="22.120674"/>
<marker id="716206173" label="Ironfold Worker" category="71" did="1879369231" parentZoneId="1879368364" longitude="-18.731092" latitude="22.120674"/>
<marker id="716206174" label="Ironfold Stone-biter" category="71" did="1879369224" parentZoneId="1879368364" longitude="-18.731092" latitude="22.120674"/>
<marker id="716206175" label="Aurochs Herd-cow" category="71" did="1879369225" parentZoneId="1879368364" longitude="-18.731092" latitude="22.120674"/>
<marker id="716206176" label="Rusty Hill-beast" category="71" did="1879369226" parentZoneId="1879368364" longitude="-18.731092" latitude="22.120674"/>
<marker id="716206177" label="Ironfold Burrower" category="71" did="1879369227" parentZoneId="1879368364" longitude="-18.731092" latitude="22.120674"/>
<marker id="716206178" label="Ironfold Ram" category="71" did="1879369237" parentZoneId="1879368364" longitude="-18.411621" latitude="22.090576"/>
<marker id="716206179" label="Hill-beast Heaver" category="71" did="1879369232" parentZoneId="1879368364" longitude="-18.411621" latitude="22.090576"/>
<marker id="716206180" label="Scrublands Lynx" category="71" did="1879369234" parentZoneId="1879368364" longitude="-18.411621" latitude="22.090576"/>
<marker id="716206181" label="Scrublands Wolf" category="71" did="1879369228" parentZoneId="1879368364" longitude="-18.411621" latitude="22.090576"/>
<marker id="716206182" label="Iron Hill-lizard" category="71" did="1879369229" parentZoneId="1879368364" longitude="-18.411621" latitude="22.090576"/>
<marker id="716206183" label="Ironfold Worker" category="71" did="1879369231" parentZoneId="1879368364" longitude="-18.411621" latitude="22.090576"/>
<marker id="716206184" label="Ironfold Stone-biter" category="71" did="1879369224" parentZoneId="1879368364" longitude="-18.411621" latitude="22.090576"/>
<marker id="716206185" label="Aurochs Herd-cow" category="71" did="1879369225" parentZoneId="1879368364" longitude="-18.411621" latitude="22.090576"/>
<marker id="716206186" label="Rusty Hill-beast" category="71" did="1879369226" parentZoneId="1879368364" longitude="-18.411621" latitude="22.090576"/>
<marker id="716206187" label="Ironfold Burrower" category="71" did="1879369227" parentZoneId="1879368364" longitude="-18.411621" latitude="22.090576"/>
<marker id="716206188" label="Ironfold Ram" category="71" did="1879369237" parentZoneId="1879368364" longitude="-18.16245" latitude="22.120214"/>
<marker id="716206189" label="Hill-beast Heaver" category="71" did="1879369232" parentZoneId="1879368364" longitude="-18.16245" latitude="22.120214"/>
<marker id="716206190" label="Scrublands Lynx" category="71" did="1879369234" parentZoneId="1879368364" longitude="-18.16245" latitude="22.120214"/>
<marker id="716206191" label="Scrublands Wolf" category="71" did="1879369228" parentZoneId="1879368364" longitude="-18.16245" latitude="22.120214"/>
<marker id="716206192" label="Iron Hill-lizard" category="71" did="1879369229" parentZoneId="1879368364" longitude="-18.16245" latitude="22.120214"/>
<marker id="716206193" label="Ironfold Worker" category="71" did="1879369231" parentZoneId="1879368364" longitude="-18.16245" latitude="22.120214"/>
<marker id="716206194" label="Ironfold Stone-biter" category="71" did="1879369224" parentZoneId="1879368364" longitude="-18.16245" latitude="22.120214"/>
<marker id="716206195" label="Aurochs Herd-cow" category="71" did="1879369225" parentZoneId="1879368364" longitude="-18.16245" latitude="22.120214"/>
<marker id="716206196" label="Rusty Hill-beast" category="71" did="1879369226" parentZoneId="1879368364" longitude="-18.16245" latitude="22.120214"/>
<marker id="716206197" label="Ironfold Burrower" category="71" did="1879369227" parentZoneId="1879368364" longitude="-18.16245" latitude="22.120214"/>
<marker id="716206198" label="Ironfold Ram" category="71" did="1879369237" parentZoneId="1879368364" longitude="-18.164902" latitude="22.316153"/>
<marker id="716206199" label="Hill-beast Heaver" category="71" did="1879369232" parentZoneId="1879368364" longitude="-18.164902" latitude="22.316153"/>
<marker id="716206200" label="Scrublands Lynx" category="71" did="1879369234" parentZoneId="1879368364" longitude="-18.164902" latitude="22.316153"/>
<marker id="716206201" label="Scrublands Wolf" category="71" did="1879369228" parentZoneId="1879368364" longitude="-18.164902" latitude="22.316153"/>
<marker id="716206202" label="Iron Hill-lizard" category="71" did="1879369229" parentZoneId="1879368364" longitude="-18.164902" latitude="22.316153"/>
<marker id="716206203" label="Ironfold Worker" category="71" did="1879369231" parentZoneId="1879368364" longitude="-18.164902" latitude="22.316153"/>
<marker id="716206204" label="Ironfold Stone-biter" category="71" did="1879369224" parentZoneId="1879368364" longitude="-18.164902" latitude="22.316153"/>
<marker id="716206205" label="Aurochs Herd-cow" category="71" did="1879369225" parentZoneId="1879368364" longitude="-18.164902" latitude="22.316153"/>
<marker id="716206206" label="Rusty Hill-beast" category="71" did="1879369226" parentZoneId="1879368364" longitude="-18.164902" latitude="22.316153"/>
<marker id="716206207" label="Ironfold Burrower" category="71" did="1879369227" parentZoneId="1879368364" longitude="-18.164902" latitude="22.316153"/>
<marker id="716206208" label="Ironfold Ram" category="71" did="1879369237" parentZoneId="1879368364" longitude="-18.159462" latitude="22.50748"/>
<marker id="716206209" label="Hill-beast Heaver" category="71" did="1879369232" parentZoneId="1879368364" longitude="-18.159462" latitude="22.50748"/>
<marker id="716206210" label="Scrublands Lynx" category="71" did="1879369234" parentZoneId="1879368364" longitude="-18.159462" latitude="22.50748"/>
<marker id="716206211" label="Scrublands Wolf" category="71" did="1879369228" parentZoneId="1879368364" longitude="-18.159462" latitude="22.50748"/>
<marker id="716206212" label="Iron Hill-lizard" category="71" did="1879369229" parentZoneId="1879368364" longitude="-18.159462" latitude="22.50748"/>
<marker id="716206213" label="Ironfold Worker" category="71" did="1879369231" parentZoneId="1879368364" longitude="-18.159462" latitude="22.50748"/>
<marker id="716206214" label="Ironfold Stone-biter" category="71" did="1879369224" parentZoneId="1879368364" longitude="-18.159462" latitude="22.50748"/>
<marker id="716206215" label="Aurochs Herd-cow" category="71" did="1879369225" parentZoneId="1879368364" longitude="-18.159462" latitude="22.50748"/>
<marker id="716206216" label="Rusty Hill-beast" category="71" did="1879369226" parentZoneId="1879368364" longitude="-18.159462" latitude="22.50748"/>
<marker id="716206217" label="Ironfold Burrower" category="71" did="1879369227" parentZoneId="1879368364" longitude="-18.159462" latitude="22.50748"/>
<marker id="716206218" label="Ironfold Ram" category="71" did="1879369237" parentZoneId="1879368364" longitude="-18.111973" latitude="22.71913"/>
<marker id="716206219" label="Hill-beast Heaver" category="71" did="1879369232" parentZoneId="1879368364" longitude="-18.111973" latitude="22.71913"/>
<marker id="716206220" label="Scrublands Lynx" category="71" did="1879369234" parentZoneId="1879368364" longitude="-18.111973" latitude="22.71913"/>
<marker id="716206221" label="Scrublands Wolf" category="71" did="1879369228" parentZoneId="1879368364" longitude="-18.111973" latitude="22.71913"/>
<marker id="716206222" label="Iron Hill-lizard" category="71" did="1879369229" parentZoneId="1879368364" longitude="-18.111973" latitude="22.71913"/>
<marker id="716206223" label="Ironfold Worker" category="71" did="1879369231" parentZoneId="1879368364" longitude="-18.111973" latitude="22.71913"/>
<marker id="716206224" label="Ironfold Stone-biter" category="71" did="1879369224" parentZoneId="1879368364" longitude="-18.111973" latitude="22.71913"/>
<marker id="716206225" label="Aurochs Herd-cow" category="71" did="1879369225" parentZoneId="1879368364" longitude="-18.111973" latitude="22.71913"/>
<marker id="716206226" label="Rusty Hill-beast" category="71" did="1879369226" parentZoneId="1879368364" longitude="-18.111973" latitude="22.71913"/>
<marker id="716206227" label="Ironfold Burrower" category="71" did="1879369227" parentZoneId="1879368364" longitude="-18.111973" latitude="22.71913"/>
<marker id="716206228" label="Ironfold Ram" category="71" did="1879369237" parentZoneId="1879368364" longitude="-18.01166" latitude="22.441797"/>
<marker id="716206229" label="Hill-beast Heaver" category="71" did="1879369232" parentZoneId="1879368364" longitude="-18.01166" latitude="22.441797"/>
<marker id="716206230" label="Scrublands Lynx" category="71" did="1879369234" parentZoneId="1879368364" longitude="-18.01166" latitude="22.441797"/>
<marker id="716206231" label="Scrublands Wolf" category="71" did="1879369228" parentZoneId="1879368364" longitude="-18.01166" latitude="22.441797"/>
<marker id="716206232" label="Iron Hill-lizard" category="71" did="1879369229" parentZoneId="1879368364" longitude="-18.01166" latitude="22.441797"/>
<marker id="716206233" label="Ironfold Worker" category="71" did="1879369231" parentZoneId="1879368364" longitude="-18.01166" latitude="22.441797"/>
<marker id="716206234" label="Ironfold Stone-biter" category="71" did="1879369224" parentZoneId="1879368364" longitude="-18.01166" latitude="22.441797"/>
<marker id="716206235" label="Aurochs Herd-cow" category="71" did="1879369225" parentZoneId="1879368364" longitude="-18.01166" latitude="22.441797"/>
<marker id="716206236" label="Rusty Hill-beast" category="71" did="1879369226" parentZoneId="1879368364" longitude="-18.01166" latitude="22.441797"/>
<marker id="716206237" label="Ironfold Burrower" category="71" did="1879369227" parentZoneId="1879368364" longitude="-18.01166" latitude="22.441797"/>
<marker id="716206238" label="Ironfold Ram" category="71" did="1879369237" parentZoneId="1879368364" longitude="-18.783827" latitude="22.737528"/>
<marker id="716206239" label="Hill-beast Heaver" category="71" did="1879369232" parentZoneId="1879368364" longitude="-18.783827" latitude="22.737528"/>
<marker id="716206240" label="Scrublands Lynx" category="71" did="1879369234" parentZoneId="1879368364" longitude="-18.783827" latitude="22.737528"/>
<marker id="716206241" label="Scrublands Wolf" category="71" did="1879369228" parentZoneId="1879368364" longitude="-18.783827" latitude="22.737528"/>
<marker id="716206242" label="Iron Hill-lizard" category="71" did="1879369229" parentZoneId="1879368364" longitude="-18.783827" latitude="22.737528"/>
<marker id="716206243" label="Ironfold Worker" category="71" did="1879369231" parentZoneId="1879368364" longitude="-18.783827" latitude="22.737528"/>
<marker id="716206244" label="Ironfold Stone-biter" category="71" did="1879369224" parentZoneId="1879368364" longitude="-18.783827" latitude="22.737528"/>
<marker id="716206245" label="Aurochs Herd-cow" category="71" did="1879369225" parentZoneId="1879368364" longitude="-18.783827" latitude="22.737528"/>
<marker id="716206246" label="Rusty Hill-beast" category="71" did="1879369226" parentZoneId="1879368364" longitude="-18.783827" latitude="22.737528"/>
<marker id="716206247" label="Ironfold Burrower" category="71" did="1879369227" parentZoneId="1879368364" longitude="-18.783827" latitude="22.737528"/>
<marker id="716210178" label="Scrublands Wolf" category="71" did="1879369228" parentZoneId="1879368364" longitude="-18.48329" latitude="23.131552"/>
<marker id="716210179" label="Rusty Hill-beast" category="71" did="1879369226" parentZoneId="1879368364" longitude="-18.48329" latitude="23.131552"/>
<marker id="716210180" label="Moor-shrew" category="78" did="1879369238" parentZoneId="1879368364" longitude="-18.483437" latitude="23.12038"/>
<marker id="716210181" label="Iron Hill-fox" category="78" did="1879369239" parentZoneId="1879368364" longitude="-18.483437" latitude="23.12038"/>
<marker id="716210182" label="Hill-beast Heaver" category="71" did="1879369232" parentZoneId="1879368364" longitude="-18.48329" latitude="23.131552"/>
<marker id="716210183" label="Scrublands Lynx" category="71" did="1879369234" parentZoneId="1879368364" longitude="-18.48329" latitude="23.131552"/>
<marker id="716210184" label="Hill Grouse" category="78" did="1879369240" parentZoneId="1879368364" longitude="-18.483437" latitude="23.12038"/>
<marker id="716210185" label="Northern Viper" category="78" did="1879369242" parentZoneId="1879368364" longitude="-18.483437" latitude="23.12038"/>
<marker id="716210186" label="Moor-rat" category="78" did="1879369243" parentZoneId="1879368364" longitude="-18.483437" latitude="23.12038"/>
<marker id="716210187" label="Rich Ironfold Skarn Deposit" category="50" did="1879370484" parentZoneId="1879368364" longitude="-18.479208" latitude="23.144178"/>
<marker id="716210188" label="Thornholt Branches" category="50" did="1879370486" parentZoneId="1879368364" longitude="-18.479208" latitude="23.144178"/>
<marker id="716210189" label="Ironfold Skarn Deposit" category="50" did="1879370483" parentZoneId="1879368364" longitude="-18.479208" latitude="23.144178"/>
<marker id="716210190" label="Heavy Thornholt Branches" category="50" did="1879370488" parentZoneId="1879368364" longitude="-18.479208" latitude="23.144178"/>
<marker id="716210191" label="Northern Hare" category="78" did="1879363821" parentZoneId="1879368364" longitude="-18.483437" latitude="23.12038"/>
<marker id="716210192" label="Rust-pocked Deposit" category="73" did="1879368823" parentZoneId="1879368364" longitude="-18.65247" latitude="23.406034"/>
<marker id="716210193" label="Rich Iron Vein" category="73" did="1879378416" parentZoneId="1879368364" longitude="-18.419052" latitude="23.552402"/>
<marker id="716210194" label="Rich Ironfold Skarn Deposit" category="50" did="1879370484" parentZoneId="1879368364" longitude="-18.281738" latitude="22.894522"/>
<marker id="716210195" label="Thornholt Branches" category="50" did="1879370486" parentZoneId="1879368364" longitude="-18.281738" latitude="22.894522"/>
<marker id="716210196" label="Ironfold Skarn Deposit" category="50" did="1879370483" parentZoneId="1879368364" longitude="-18.281738" latitude="22.894522"/>
<marker id="716210197" label="Heavy Thornholt Branches" category="50" did="1879370488" parentZoneId="1879368364" longitude="-18.281738" latitude="22.894522"/>
<marker id="716210198" label="Rich Ironfold Skarn Deposit" category="50" did="1879370484" parentZoneId="1879368364" longitude="-18.449667" latitude="22.831738"/>
<marker id="716210199" label="Thornholt Branches" category="50" did="1879370486" parentZoneId="1879368364" longitude="-18.449667" latitude="22.831738"/>
<marker id="716210200" label="Ironfold Skarn Deposit" category="50" did="1879370483" parentZoneId="1879368364" longitude="-18.449667" latitude="22.831738"/>
<marker id="716210201" label="Heavy Thornholt Branches" category="50" did="1879370488" parentZoneId="1879368364" longitude="-18.449667" latitude="22.831738"/>
<marker id="716210202" label="Rich Ironfold Skarn Deposit" category="50" did="1879370484" parentZoneId="1879368364" longitude="-18.659765" latitude="22.97746"/>
<marker id="716210203" label="Thornholt Branches" category="50" did="1879370486" parentZoneId="1879368364" longitude="-18.659765" latitude="22.97746"/>
<marker id="716210204" label="Ironfold Skarn Deposit" category="50" did="1879370483" parentZoneId="1879368364" longitude="-18.659765" latitude="22.97746"/>
<marker id="716210205" label="Heavy Thornholt Branches" category="50" did="1879370488" parentZoneId="1879368364" longitude="-18.659765" latitude="22.97746"/>
<marker id="716210206" label="Rich Ironfold Skarn Deposit" category="50" did="1879370484" parentZoneId="1879368364" longitude="-18.572714" latitude="23.315674"/>
<marker id="716210207" label="Thornholt Branches" category="50" did="1879370486" parentZoneId="1879368364" longitude="-18.572714" latitude="23.315674"/>
<marker id="716210208" label="Ironfold Skarn Deposit" category="50" did="1879370483" parentZoneId="1879368364" longitude="-18.572714" latitude="23.315674"/>
<marker id="716210209" label="Heavy Thornholt Branches" category="50" did="1879370488" parentZoneId="1879368364" longitude="-18.572714" latitude="23.315674"/>
<marker id="716210210" label="Rich Ironfold Skarn Deposit" category="50" did="1879370484" parentZoneId="1879368364" longitude="-18.142841" latitude="23.477968"/>
<marker id="716210211" label="Thornholt Branches" category="50" did="1879370486" parentZoneId="1879368364" longitude="-18.142841" latitude="23.477968"/>
<marker id="716210212" label="Ironfold Skarn Deposit" category="50" did="1879370483" parentZoneId="1879368364" longitude="-18.142841" latitude="23.477968"/>
<marker id="716210213" label="Heavy Thornholt Branches" category="50" did="1879370488" parentZoneId="1879368364" longitude="-18.142841" latitude="23.477968"/>
<marker id="716210214" label="Rich Ironfold Skarn Deposit" category="50" did="1879370484" parentZoneId="1879368364" longitude="-18.017881" latitude="23.209843"/>
<marker id="716210215" label="Thornholt Branches" category="50" did="1879370486" parentZoneId="1879368364" longitude="-18.017881" latitude="23.209843"/>
<marker id="716210216" label="Ironfold Skarn Deposit" category="50" did="1879370483" parentZoneId="1879368364" longitude="-18.017881" latitude="23.209843"/>
<marker id="716210217" label="Heavy Thornholt Branches" category="50" did="1879370488" parentZoneId="1879368364" longitude="-18.017881" latitude="23.209843"/>
<marker id="716210218" label="Rich Ironfold Skarn Deposit" category="50" did="1879370484" parentZoneId="1879368364" longitude="-18.144434" latitude="22.826172"/>
<marker id="716210219" label="Thornholt Branches" category="50" did="1879370486" parentZoneId="1879368364" longitude="-18.144434" latitude="22.826172"/>
<marker id="716210220" label="Ironfold Skarn Deposit" category="50" did="1879370483" parentZoneId="1879368364" longitude="-18.144434" latitude="22.826172"/>
<marker id="716210221" label="Heavy Thornholt Branches" category="50" did="1879370488" parentZoneId="1879368364" longitude="-18.144434" latitude="22.826172"/>
<marker id="716210222" label="Rich Ironfold Skarn Deposit" category="50" did="1879370484" parentZoneId="1879368364" longitude="-18.704014" latitude="22.84416"/>
<marker id="716210223" label="Thornholt Branches" category="50" did="1879370486" parentZoneId="1879368364" longitude="-18.704014" latitude="22.84416"/>
<marker id="716210224" label="Ironfold Skarn Deposit" category="50" did="1879370483" parentZoneId="1879368364" longitude="-18.704014" latitude="22.84416"/>
<marker id="716210225" label="Heavy Thornholt Branches" category="50" did="1879370488" parentZoneId="1879368364" longitude="-18.704014" latitude="22.84416"/>
<marker id="716210226" label="Rich Ironfold Skarn Deposit" category="50" did="1879370484" parentZoneId="1879368364" longitude="-18.714296" latitude="23.241415"/>
<marker id="716210227" label="Thornholt Branches" category="50" did="1879370486" parentZoneId="1879368364" longitude="-18.714296" latitude="23.241415"/>
<marker id="716210228" label="Ironfold Skarn Deposit" category="50" did="1879370483" parentZoneId="1879368364" longitude="-18.714296" latitude="23.241415"/>
<marker id="716210229" label="Heavy Thornholt Branches" category="50" did="1879370488" parentZoneId="1879368364" longitude="-18.714296" latitude="23.241415"/>
<marker id="716210230" label="Rich Ironfold Skarn Deposit" category="50" did="1879370484" parentZoneId="1879368364" longitude="-18.394638" latitude="23.482695"/>
<marker id="716210231" label="Thornholt Branches" category="50" did="1879370486" parentZoneId="1879368364" longitude="-18.394638" latitude="23.482695"/>
<marker id="716210232" label="Ironfold Skarn Deposit" category="50" did="1879370483" parentZoneId="1879368364" longitude="-18.394638" latitude="23.482695"/>
<marker id="716210233" label="Heavy Thornholt Branches" category="50" did="1879370488" parentZoneId="1879368364" longitude="-18.394638" latitude="23.482695"/>
<marker id="716210234" label="Moor-shrew" category="78" did="1879369238" parentZoneId="1879368364" longitude="-18.69539" latitude="23.146084"/>
<marker id="716210235" label="Iron Hill-fox" category="78" did="1879369239" parentZoneId="1879368364" longitude="-18.69539" latitude="23.146084"/>
<marker id="716210236" label="Northern Hare" category="78" did="1879363821" parentZoneId="1879368364" longitude="-18.69539" latitude="23.146084"/>
<marker id="716210237" label="Hill Grouse" category="78" did="1879369240" parentZoneId="1879368364" longitude="-18.69539" latitude="23.146084"/>
<marker id="716210238" label="Northern Viper" category="78" did="1879369242" parentZoneId="1879368364" longitude="-18.69539" latitude="23.146084"/>
<marker id="716210239" label="Moor-rat" category="78" did="1879369243" parentZoneId="1879368364" longitude="-18.69539" latitude="23.146084"/>
<marker id="716210240" label="Moor-shrew" category="78" did="1879369238" parentZoneId="1879368364" longitude="-18.568466" latitude="23.377783"/>
<marker id="716210241" label="Iron Hill-fox" category="78" did="1879369239" parentZoneId="1879368364" longitude="-18.568466" latitude="23.377783"/>
<marker id="716210242" label="Northern Hare" category="78" did="1879363821" parentZoneId="1879368364" longitude="-18.568466" latitude="23.377783"/>
<marker id="716210243" label="Hill Grouse" category="78" did="1879369240" parentZoneId="1879368364" longitude="-18.568466" latitude="23.377783"/>
<marker id="716210244" label="Northern Viper" category="78" did="1879369242" parentZoneId="1879368364" longitude="-18.568466" latitude="23.377783"/>
<marker id="716210245" label="Moor-rat" category="78" did="1879369243" parentZoneId="1879368364" longitude="-18.568466" latitude="23.377783"/>
<marker id="716210246" label="Moor-shrew" category="78" did="1879369238" parentZoneId="1879368364" longitude="-18.27452" latitude="23.434893"/>
<marker id="716210247" label="Iron Hill-fox" category="78" did="1879369239" parentZoneId="1879368364" longitude="-18.27452" latitude="23.434893"/>
<marker id="716210248" label="Northern Hare" category="78" did="1879363821" parentZoneId="1879368364" longitude="-18.27452" latitude="23.434893"/>
<marker id="716210249" label="Hill Grouse" category="78" did="1879369240" parentZoneId="1879368364" longitude="-18.27452" latitude="23.434893"/>
<marker id="716210250" label="Northern Viper" category="78" did="1879369242" parentZoneId="1879368364" longitude="-18.27452" latitude="23.434893"/>
<marker id="716210251" label="Moor-rat" category="78" did="1879369243" parentZoneId="1879368364" longitude="-18.27452" latitude="23.434893"/>
<marker id="716210252" label="Moor-shrew" category="78" did="1879369238" parentZoneId="1879368364" longitude="-18.200556" latitude="23.056728"/>
<marker id="716210253" label="Iron Hill-fox" category="78" did="1879369239" parentZoneId="1879368364" longitude="-18.200556" latitude="23.056728"/>
<marker id="716210254" label="Northern Hare" category="78" did="1879363821" parentZoneId="1879368364" longitude="-18.200556" latitude="23.056728"/>
<marker id="716210255" label="Hill Grouse" category="78" did="1879369240" parentZoneId="1879368364" longitude="-18.200556" latitude="23.056728"/>
<marker id="716210256" label="Northern Viper" category="78" did="1879369242" parentZoneId="1879368364" longitude="-18.200556" latitude="23.056728"/>
<marker id="716210257" label="Moor-rat" category="78" did="1879369243" parentZoneId="1879368364" longitude="-18.200556" latitude="23.056728"/>
<marker id="716210258" label="Moor-shrew" category="78" did="1879369238" parentZoneId="1879368364" longitude="-18.3963" latitude="22.853006"/>
<marker id="716210259" label="Iron Hill-fox" category="78" did="1879369239" parentZoneId="1879368364" longitude="-18.3963" latitude="22.853006"/>
<marker id="716210260" label="Northern Hare" category="78" did="1879363821" parentZoneId="1879368364" longitude="-18.3963" latitude="22.853006"/>
<marker id="716210261" label="Hill Grouse" category="78" did="1879369240" parentZoneId="1879368364" longitude="-18.3963" latitude="22.853006"/>
<marker id="716210262" label="Northern Viper" category="78" did="1879369242" parentZoneId="1879368364" longitude="-18.3963" latitude="22.853006"/>
<marker id="716210263" label="Moor-rat" category="78" did="1879369243" parentZoneId="1879368364" longitude="-18.3963" latitude="22.853006"/>
<marker id="716210264" label="Ironfold Ram" category="71" did="1879369237" parentZoneId="1879368364" longitude="-18.692852" latitude="22.927538"/>
<marker id="716210265" label="Hill-beast Heaver" category="71" did="1879369232" parentZoneId="1879368364" longitude="-18.692852" latitude="22.927538"/>
<marker id="716210266" label="Scrublands Lynx" category="71" did="1879369234" parentZoneId="1879368364" longitude="-18.692852" latitude="22.927538"/>
<marker id="716210267" label="Scrublands Wolf" category="71" did="1879369228" parentZoneId="1879368364" longitude="-18.692852" latitude="22.927538"/>
<marker id="716210268" label="Iron Hill-lizard" category="71" did="1879369229" parentZoneId="1879368364" longitude="-18.692852" latitude="22.927538"/>
<marker id="716210269" label="Ironfold Worker" category="71" did="1879369231" parentZoneId="1879368364" longitude="-18.692852" latitude="22.927538"/>
<marker id="716210270" label="Ironfold Stone-biter" category="71" did="1879369224" parentZoneId="1879368364" longitude="-18.692852" latitude="22.927538"/>
<marker id="716210271" label="Aurochs Herd-cow" category="71" did="1879369225" parentZoneId="1879368364" longitude="-18.692852" latitude="22.927538"/>
<marker id="716210272" label="Rusty Hill-beast" category="71" did="1879369226" parentZoneId="1879368364" longitude="-18.692852" latitude="22.927538"/>
<marker id="716210273" label="Ironfold Burrower" category="71" did="1879369227" parentZoneId="1879368364" longitude="-18.692852" latitude="22.927538"/>
<marker id="716210274" label="Ironfold Ram" category="71" did="1879369237" parentZoneId="1879368364" longitude="-18.725674" latitude="23.150614"/>
<marker id="716210275" label="Hill-beast Heaver" category="71" did="1879369232" parentZoneId="1879368364" longitude="-18.725674" latitude="23.150614"/>
<marker id="716210276" label="Scrublands Lynx" category="71" did="1879369234" parentZoneId="1879368364" longitude="-18.725674" latitude="23.150614"/>
<marker id="716210277" label="Scrublands Wolf" category="71" did="1879369228" parentZoneId="1879368364" longitude="-18.725674" latitude="23.150614"/>
<marker id="716210278" label="Iron Hill-lizard" category="71" did="1879369229" parentZoneId="1879368364" longitude="-18.725674" latitude="23.150614"/>
<marker id="716210279" label="Ironfold Worker" category="71" did="1879369231" parentZoneId="1879368364" longitude="-18.725674" latitude="23.150614"/>
<marker id="716210280" label="Ironfold Stone-biter" category="71" did="1879369224" parentZoneId="1879368364" longitude="-18.725674" latitude="23.150614"/>
<marker id="716210281" label="Aurochs Herd-cow" category="71" did="1879369225" parentZoneId="1879368364" longitude="-18.725674" latitude="23.150614"/>
<marker id="716210282" label="Rusty Hill-beast" category="71" did="1879369226" parentZoneId="1879368364" longitude="-18.725674" latitude="23.150614"/>
<marker id="716210283" label="Ironfold Burrower" category="71" did="1879369227" parentZoneId="1879368364" longitude="-18.725674" latitude="23.150614"/>
<marker id="716210284" label="Ironfold Ram" category="71" did="1879369237" parentZoneId="1879368364" longitude="-18.524872" latitude="23.243193"/>
<marker id="716210285" label="Hill-beast Heaver" category="71" did="1879369232" parentZoneId="1879368364" longitude="-18.524872" latitude="23.243193"/>
<marker id="716210286" label="Scrublands Lynx" category="71" did="1879369234" parentZoneId="1879368364" longitude="-18.524872" latitude="23.243193"/>
<marker id="716210287" label="Scrublands Wolf" category="71" did="1879369228" parentZoneId="1879368364" longitude="-18.524872" latitude="23.243193"/>
<marker id="716210288" label="Iron Hill-lizard" category="71" did="1879369229" parentZoneId="1879368364" longitude="-18.524872" latitude="23.243193"/>
<marker id="716210289" label="Ironfold Worker" category="71" did="1879369231" parentZoneId="1879368364" longitude="-18.524872" latitude="23.243193"/>
<marker id="716210290" label="Ironfold Stone-biter" category="71" did="1879369224" parentZoneId="1879368364" longitude="-18.524872" latitude="23.243193"/>
