<?xml version="1.0" encoding="UTF-8"?><markers>
<marker id="412090368" label="White-footed Hare" category="78" did="1879080480" parentZoneId="1879063978" longitude="-44.01652" latitude="-8.844248"/>
<marker id="412090369" label="Downs Hunter" category="71" did="1879081466" parentZoneId="1879063978" longitude="-43.96746" latitude="-8.835019"/>
<marker id="412090370" label="Hunting North-hawk" category="71" did="1879081467" parentZoneId="1879063978" longitude="-43.96746" latitude="-8.835019"/>
<marker id="412090371" label="Downs Wildcat" category="71" did="1879081465" parentZoneId="1879063978" longitude="-43.96746" latitude="-8.835019"/>
<marker id="412090372" label="Hungry Downs-bear" category="71" did="1879081468" parentZoneId="1879063978" longitude="-43.96746" latitude="-8.835019"/>
<marker id="412090373" label="Young Downs-bear" category="71" did="1879081469" parentZoneId="1879063978" longitude="-43.96746" latitude="-8.835019"/>
<marker id="412090374" label="Drop of Honey" category="77" did="1879061395" parentZoneId="1879063978" longitude="-44.0659" latitude="-8.581573"/>
<marker id="412090375" label="Green Onion" category="77" did="1879061259" parentZoneId="1879063978" longitude="-44.0659" latitude="-8.581573"/>
<marker id="412090376" label="Bunch of Blueberries" category="77" did="1879061342" parentZoneId="1879063978" longitude="-44.0659" latitude="-8.581573"/>
<marker id="412090377" label="Downs Hunter" category="71" did="1879081466" parentZoneId="1879063978" longitude="-44.0659" latitude="-8.581573"/>
<marker id="412090378" label="Hunting North-hawk" category="71" did="1879081467" parentZoneId="1879063978" longitude="-44.0659" latitude="-8.581573"/>
<marker id="412090379" label="Tater" category="77" did="1879061257" parentZoneId="1879063978" longitude="-44.0659" latitude="-8.581573"/>
<marker id="412090380" label="Downs Wildcat" category="71" did="1879081465" parentZoneId="1879063978" longitude="-44.0659" latitude="-8.581573"/>
<marker id="412090381" label="Hungry Downs-bear" category="71" did="1879081468" parentZoneId="1879063978" longitude="-44.0659" latitude="-8.581573"/>
<marker id="412090382" label="Young Downs-bear" category="71" did="1879081469" parentZoneId="1879063978" longitude="-44.0659" latitude="-8.581573"/>
<marker id="412090383" label="Bunch of Raspberries" category="77" did="1879061417" parentZoneId="1879063978" longitude="-44.0659" latitude="-8.581573"/>
<marker id="412090384" label="Woad Plant" category="77" did="1879070248" parentZoneId="1879063978" longitude="-44.0659" latitude="-8.581573"/>
<marker id="412090385" label="Drop of Honey" category="77" did="1879061395" parentZoneId="1879063978" longitude="-44.259335" latitude="-9.096621"/>
<marker id="412090386" label="Green Onion" category="77" did="1879061259" parentZoneId="1879063978" longitude="-44.259335" latitude="-9.096621"/>
<marker id="412090387" label="Bunch of Blueberries" category="77" did="1879061342" parentZoneId="1879063978" longitude="-44.259335" latitude="-9.096621"/>
<marker id="412090388" label="Downs Hunter" category="71" did="1879081466" parentZoneId="1879063978" longitude="-44.259335" latitude="-9.096621"/>
<marker id="412090389" label="Hunting North-hawk" category="71" did="1879081467" parentZoneId="1879063978" longitude="-44.259335" latitude="-9.096621"/>
<marker id="412090390" label="Tater" category="77" did="1879061257" parentZoneId="1879063978" longitude="-44.259335" latitude="-9.096621"/>
<marker id="412090391" label="Downs Wildcat" category="71" did="1879081465" parentZoneId="1879063978" longitude="-44.259335" latitude="-9.096621"/>
<marker id="412090392" label="Hungry Downs-bear" category="71" did="1879081468" parentZoneId="1879063978" longitude="-44.259335" latitude="-9.096621"/>
<marker id="412090393" label="Young Downs-bear" category="71" did="1879081469" parentZoneId="1879063978" longitude="-44.259335" latitude="-9.096621"/>
<marker id="412090394" label="Bunch of Raspberries" category="77" did="1879061417" parentZoneId="1879063978" longitude="-44.259335" latitude="-9.096621"/>
<marker id="412090395" label="Woad Plant" category="77" did="1879070248" parentZoneId="1879063978" longitude="-44.259335" latitude="-9.096621"/>
<marker id="412090396" label="Drop of Honey" category="77" did="1879061395" parentZoneId="1879063978" longitude="-44.141006" latitude="-8.877705"/>
<marker id="412090397" label="Green Onion" category="77" did="1879061259" parentZoneId="1879063978" longitude="-44.141006" latitude="-8.877705"/>
<marker id="412090398" label="Bunch of Blueberries" category="77" did="1879061342" parentZoneId="1879063978" longitude="-44.141006" latitude="-8.877705"/>
<marker id="412090399" label="Downs Hunter" category="71" did="1879081466" parentZoneId="1879063978" longitude="-44.141006" latitude="-8.877705"/>
<marker id="412090400" label="Hunting North-hawk" category="71" did="1879081467" parentZoneId="1879063978" longitude="-44.141006" latitude="-8.877705"/>
<marker id="412090401" label="Tater" category="77" did="1879061257" parentZoneId="1879063978" longitude="-44.141006" latitude="-8.877705"/>
<marker id="412090402" label="Downs Wildcat" category="71" did="1879081465" parentZoneId="1879063978" longitude="-44.141006" latitude="-8.877705"/>
<marker id="412090403" label="Hungry Downs-bear" category="71" did="1879081468" parentZoneId="1879063978" longitude="-44.141006" latitude="-8.877705"/>
<marker id="412090404" label="Young Downs-bear" category="71" did="1879081469" parentZoneId="1879063978" longitude="-44.141006" latitude="-8.877705"/>
<marker id="412090405" label="Bunch of Raspberries" category="77" did="1879061417" parentZoneId="1879063978" longitude="-44.141006" latitude="-8.877705"/>
<marker id="412090406" label="Woad Plant" category="77" did="1879070248" parentZoneId="1879063978" longitude="-44.141006" latitude="-8.877705"/>
<marker id="412090407" label="Drop of Honey" category="77" did="1879061395" parentZoneId="1879063978" longitude="-43.90325" latitude="-8.693564"/>
<marker id="412090408" label="Green Onion" category="77" did="1879061259" parentZoneId="1879063978" longitude="-43.90325" latitude="-8.693564"/>
<marker id="412090409" label="Bunch of Blueberries" category="77" did="1879061342" parentZoneId="1879063978" longitude="-43.90325" latitude="-8.693564"/>
<marker id="412090410" label="Downs Hunter" category="71" did="1879081466" parentZoneId="1879063978" longitude="-43.90325" latitude="-8.693564"/>
<marker id="412090411" label="Hunting North-hawk" category="71" did="1879081467" parentZoneId="1879063978" longitude="-43.90325" latitude="-8.693564"/>
<marker id="412090412" label="Tater" category="77" did="1879061257" parentZoneId="1879063978" longitude="-43.90325" latitude="-8.693564"/>
<marker id="412090413" label="Downs Wildcat" category="71" did="1879081465" parentZoneId="1879063978" longitude="-43.90325" latitude="-8.693564"/>
<marker id="412090414" label="Hungry Downs-bear" category="71" did="1879081468" parentZoneId="1879063978" longitude="-43.90325" latitude="-8.693564"/>
<marker id="412090415" label="Young Downs-bear" category="71" did="1879081469" parentZoneId="1879063978" longitude="-43.90325" latitude="-8.693564"/>
<marker id="412090416" label="Bunch of Raspberries" category="77" did="1879061417" parentZoneId="1879063978" longitude="-43.90325" latitude="-8.693564"/>
<marker id="412090417" label="Woad Plant" category="77" did="1879070248" parentZoneId="1879063978" longitude="-43.90325" latitude="-8.693564"/>
<marker id="412090418" label="Drop of Honey" category="77" did="1879061395" parentZoneId="1879063978" longitude="-43.680576" latitude="-8.482431"/>
<marker id="412090419" label="Green Onion" category="77" did="1879061259" parentZoneId="1879063978" longitude="-43.680576" latitude="-8.482431"/>
<marker id="412090420" label="Bunch of Blueberries" category="77" did="1879061342" parentZoneId="1879063978" longitude="-43.680576" latitude="-8.482431"/>
<marker id="412090421" label="Downs Hunter" category="71" did="1879081466" parentZoneId="1879063978" longitude="-43.680576" latitude="-8.482431"/>
<marker id="412090422" label="Hunting North-hawk" category="71" did="1879081467" parentZoneId="1879063978" longitude="-43.680576" latitude="-8.482431"/>
<marker id="412090423" label="Tater" category="77" did="1879061257" parentZoneId="1879063978" longitude="-43.680576" latitude="-8.482431"/>
<marker id="412090424" label="Downs Wildcat" category="71" did="1879081465" parentZoneId="1879063978" longitude="-43.680576" latitude="-8.482431"/>
<marker id="412090425" label="Hungry Downs-bear" category="71" did="1879081468" parentZoneId="1879063978" longitude="-43.680576" latitude="-8.482431"/>
<marker id="412090426" label="Young Downs-bear" category="71" did="1879081469" parentZoneId="1879063978" longitude="-43.680576" latitude="-8.482431"/>
<marker id="412090427" label="Bunch of Raspberries" category="77" did="1879061417" parentZoneId="1879063978" longitude="-43.680576" latitude="-8.482431"/>
<marker id="412090428" label="Woad Plant" category="77" did="1879070248" parentZoneId="1879063978" longitude="-43.680576" latitude="-8.482431"/>
<marker id="412090429" label="Drop of Honey" category="77" did="1879061395" parentZoneId="1879063978" longitude="-43.767303" latitude="-8.871865"/>
<marker id="412090430" label="Green Onion" category="77" did="1879061259" parentZoneId="1879063978" longitude="-43.767303" latitude="-8.871865"/>
<marker id="412090431" label="Bunch of Blueberries" category="77" did="1879061342" parentZoneId="1879063978" longitude="-43.767303" latitude="-8.871865"/>
<marker id="412090432" label="Downs Hunter" category="71" did="1879081466" parentZoneId="1879063978" longitude="-43.767303" latitude="-8.871865"/>
<marker id="412090433" label="Hunting North-hawk" category="71" did="1879081467" parentZoneId="1879063978" longitude="-43.767303" latitude="-8.871865"/>
<marker id="412090434" label="Tater" category="77" did="1879061257" parentZoneId="1879063978" longitude="-43.767303" latitude="-8.871865"/>
<marker id="412090435" label="Downs Wildcat" category="71" did="1879081465" parentZoneId="1879063978" longitude="-43.767303" latitude="-8.871865"/>
<marker id="412090436" label="Hungry Downs-bear" category="71" did="1879081468" parentZoneId="1879063978" longitude="-43.767303" latitude="-8.871865"/>
<marker id="412090437" label="Young Downs-bear" category="71" did="1879081469" parentZoneId="1879063978" longitude="-43.767303" latitude="-8.871865"/>
<marker id="412090438" label="Bunch of Raspberries" category="77" did="1879061417" parentZoneId="1879063978" longitude="-43.767303" latitude="-8.871865"/>
<marker id="412090439" label="Woad Plant" category="77" did="1879070248" parentZoneId="1879063978" longitude="-43.767303" latitude="-8.871865"/>
<marker id="412090440" label="Drop of Honey" category="77" did="1879061395" parentZoneId="1879063978" longitude="-43.948338" latitude="-9.068749"/>
<marker id="412090441" label="Green Onion" category="77" did="1879061259" parentZoneId="1879063978" longitude="-43.948338" latitude="-9.068749"/>
<marker id="412090442" label="Bunch of Blueberries" category="77" did="1879061342" parentZoneId="1879063978" longitude="-43.948338" latitude="-9.068749"/>
<marker id="412090443" label="Downs Hunter" category="71" did="1879081466" parentZoneId="1879063978" longitude="-43.948338" latitude="-9.068749"/>
<marker id="412090444" label="Hunting North-hawk" category="71" did="1879081467" parentZoneId="1879063978" longitude="-43.948338" latitude="-9.068749"/>
<marker id="412090445" label="Tater" category="77" did="1879061257" parentZoneId="1879063978" longitude="-43.948338" latitude="-9.068749"/>
<marker id="412090446" label="Downs Wildcat" category="71" did="1879081465" parentZoneId="1879063978" longitude="-43.948338" latitude="-9.068749"/>
<marker id="412090447" label="Hungry Downs-bear" category="71" did="1879081468" parentZoneId="1879063978" longitude="-43.948338" latitude="-9.068749"/>
<marker id="412090448" label="Young Downs-bear" category="71" did="1879081469" parentZoneId="1879063978" longitude="-43.948338" latitude="-9.068749"/>
<marker id="412090449" label="Bunch of Raspberries" category="77" did="1879061417" parentZoneId="1879063978" longitude="-43.948338" latitude="-9.068749"/>
<marker id="412090450" label="Woad Plant" category="77" did="1879070248" parentZoneId="1879063978" longitude="-43.948338" latitude="-9.068749"/>
<marker id="412090451" label="Drop of Honey" category="77" did="1879061395" parentZoneId="1879063978" longitude="-43.69674" latitude="-9.135019"/>
<marker id="412090452" label="Green Onion" category="77" did="1879061259" parentZoneId="1879063978" longitude="-43.69674" latitude="-9.135019"/>
<marker id="412090453" label="Bunch of Blueberries" category="77" did="1879061342" parentZoneId="1879063978" longitude="-43.69674" latitude="-9.135019"/>
<marker id="412090454" label="Downs Hunter" category="71" did="1879081466" parentZoneId="1879063978" longitude="-43.69674" latitude="-9.135019"/>
<marker id="412090455" label="Hunting North-hawk" category="71" did="1879081467" parentZoneId="1879063978" longitude="-43.69674" latitude="-9.135019"/>
<marker id="412090456" label="Tater" category="77" did="1879061257" parentZoneId="1879063978" longitude="-43.69674" latitude="-9.135019"/>
<marker id="412090457" label="Downs Wildcat" category="71" did="1879081465" parentZoneId="1879063978" longitude="-43.69674" latitude="-9.135019"/>
<marker id="412090458" label="Hungry Downs-bear" category="71" did="1879081468" parentZoneId="1879063978" longitude="-43.69674" latitude="-9.135019"/>
<marker id="412090459" label="Young Downs-bear" category="71" did="1879081469" parentZoneId="1879063978" longitude="-43.69674" latitude="-9.135019"/>
<marker id="412090460" label="Bunch of Raspberries" category="77" did="1879061417" parentZoneId="1879063978" longitude="-43.69674" latitude="-9.135019"/>
<marker id="412090461" label="Woad Plant" category="77" did="1879070248" parentZoneId="1879063978" longitude="-43.69674" latitude="-9.135019"/>
<marker id="412090462" label="Drop of Honey" category="77" did="1879061395" parentZoneId="1879063978" longitude="-43.873497" latitude="-8.432695"/>
<marker id="412090463" label="Green Onion" category="77" did="1879061259" parentZoneId="1879063978" longitude="-43.873497" latitude="-8.432695"/>
<marker id="412090464" label="Bunch of Blueberries" category="77" did="1879061342" parentZoneId="1879063978" longitude="-43.873497" latitude="-8.432695"/>
<marker id="412090465" label="Downs Hunter" category="71" did="1879081466" parentZoneId="1879063978" longitude="-43.873497" latitude="-8.432695"/>
<marker id="412090466" label="Hunting North-hawk" category="71" did="1879081467" parentZoneId="1879063978" longitude="-43.873497" latitude="-8.432695"/>
<marker id="412090467" label="Tater" category="77" did="1879061257" parentZoneId="1879063978" longitude="-43.873497" latitude="-8.432695"/>
<marker id="412090468" label="Downs Wildcat" category="71" did="1879081465" parentZoneId="1879063978" longitude="-43.873497" latitude="-8.432695"/>
<marker id="412090469" label="Hungry Downs-bear" category="71" did="1879081468" parentZoneId="1879063978" longitude="-43.873497" latitude="-8.432695"/>
<marker id="412090470" label="Young Downs-bear" category="71" did="1879081469" parentZoneId="1879063978" longitude="-43.873497" latitude="-8.432695"/>
<marker id="412090471" label="Bunch of Raspberries" category="77" did="1879061417" parentZoneId="1879063978" longitude="-43.873497" latitude="-8.432695"/>
<marker id="412090472" label="Woad Plant" category="77" did="1879070248" parentZoneId="1879063978" longitude="-43.873497" latitude="-8.432695"/>
<marker id="412090473" label="White-footed Fox" category="78" did="1879080468" parentZoneId="1879063978" longitude="-44.053066" latitude="-8.57958"/>
<marker id="412090474" label="Northern Plains Buck" category="78" did="1879080470" parentZoneId="1879063978" longitude="-44.053066" latitude="-8.57958"/>
<marker id="412090475" label="White-footed Hare" category="78" did="1879080480" parentZoneId="1879063978" longitude="-44.053066" latitude="-8.57958"/>
<marker id="412090476" label="Northern Plains Doe" category="78" did="1879080467" parentZoneId="1879063978" longitude="-44.053066" latitude="-8.57958"/>
<marker id="412090477" label="White-footed Fox" category="78" did="1879080468" parentZoneId="1879063978" longitude="-43.962215" latitude="-8.793193"/>
<marker id="412090478" label="Northern Plains Buck" category="78" did="1879080470" parentZoneId="1879063978" longitude="-43.962215" latitude="-8.793193"/>
<marker id="412090479" label="White-footed Hare" category="78" did="1879080480" parentZoneId="1879063978" longitude="-43.962215" latitude="-8.793193"/>
<marker id="412090480" label="Northern Plains Doe" category="78" did="1879080467" parentZoneId="1879063978" longitude="-43.962215" latitude="-8.793193"/>
<marker id="412090481" label="White-footed Fox" category="78" did="1879080468" parentZoneId="1879063978" longitude="-44.246113" latitude="-8.924238"/>
<marker id="412090482" label="Northern Plains Buck" category="78" did="1879080470" parentZoneId="1879063978" longitude="-44.246113" latitude="-8.924238"/>
<marker id="412090483" label="White-footed Hare" category="78" did="1879080480" parentZoneId="1879063978" longitude="-44.246113" latitude="-8.924238"/>
<marker id="412090484" label="Northern Plains Doe" category="78" did="1879080467" parentZoneId="1879063978" longitude="-44.246113" latitude="-8.924238"/>
<marker id="412090485" label="White-footed Fox" category="78" did="1879080468" parentZoneId="1879063978" longitude="-44.30289" latitude="-9.11497"/>
<marker id="412090486" label="Northern Plains Buck" category="78" did="1879080470" parentZoneId="1879063978" longitude="-44.30289" latitude="-9.11497"/>
<marker id="412090487" label="White-footed Hare" category="78" did="1879080480" parentZoneId="1879063978" longitude="-44.30289" latitude="-9.11497"/>
<marker id="412090488" label="Northern Plains Doe" category="78" did="1879080467" parentZoneId="1879063978" longitude="-44.30289" latitude="-9.11497"/>
<marker id="412090489" label="White-footed Fox" category="78" did="1879080468" parentZoneId="1879063978" longitude="-44.040985" latitude="-9.096221"/>
<marker id="412090490" label="Northern Plains Buck" category="78" did="1879080470" parentZoneId="1879063978" longitude="-44.040985" latitude="-9.096221"/>
<marker id="412090491" label="White-footed Hare" category="78" did="1879080480" parentZoneId="1879063978" longitude="-44.040985" latitude="-9.096221"/>
<marker id="412090492" label="Northern Plains Doe" category="78" did="1879080467" parentZoneId="1879063978" longitude="-44.040985" latitude="-9.096221"/>
<marker id="412090493" label="White-footed Fox" category="78" did="1879080468" parentZoneId="1879063978" longitude="-43.90491" latitude="-8.877548"/>
<marker id="412090494" label="Northern Plains Buck" category="78" did="1879080470" parentZoneId="1879063978" longitude="-43.90491" latitude="-8.877548"/>
<marker id="412090495" label="White-footed Hare" category="78" did="1879080480" parentZoneId="1879063978" longitude="-43.90491" latitude="-8.877548"/>
<marker id="412090496" label="Northern Plains Doe" category="78" did="1879080467" parentZoneId="1879063978" longitude="-43.90491" latitude="-8.877548"/>
<marker id="412090497" label="White-footed Fox" category="78" did="1879080468" parentZoneId="1879063978" longitude="-43.69083" latitude="-9.087587"/>
<marker id="412090498" label="Northern Plains Buck" category="78" did="1879080470" parentZoneId="1879063978" longitude="-43.69083" latitude="-9.087587"/>
<marker id="412090499" label="White-footed Hare" category="78" did="1879080480" parentZoneId="1879063978" longitude="-43.69083" latitude="-9.087587"/>
<marker id="412090500" label="Northern Plains Doe" category="78" did="1879080467" parentZoneId="1879063978" longitude="-43.69083" latitude="-9.087587"/>
<marker id="412090501" label="White-footed Fox" category="78" did="1879080468" parentZoneId="1879063978" longitude="-43.745663" latitude="-8.552793"/>
<marker id="412090502" label="Northern Plains Buck" category="78" did="1879080470" parentZoneId="1879063978" longitude="-43.745663" latitude="-8.552793"/>
<marker id="412090503" label="White-footed Hare" category="78" did="1879080480" parentZoneId="1879063978" longitude="-43.745663" latitude="-8.552793"/>
<marker id="412090504" label="Northern Plains Doe" category="78" did="1879080467" parentZoneId="1879063978" longitude="-43.745663" latitude="-8.552793"/>
<marker id="412090505" label="White-footed Fox" category="78" did="1879080468" parentZoneId="1879063978" longitude="-43.78042" latitude="-8.738837"/>
<marker id="412090506" label="Northern Plains Buck" category="78" did="1879080470" parentZoneId="1879063978" longitude="-43.78042" latitude="-8.738837"/>
<marker id="412090507" label="White-footed Hare" category="78" did="1879080480" parentZoneId="1879063978" longitude="-43.78042" latitude="-8.738837"/>
<marker id="412090508" label="Northern Plains Doe" category="78" did="1879080467" parentZoneId="1879063978" longitude="-43.78042" latitude="-8.738837"/>
<marker id="412094464" label="White-footed Hare" category="78" did="1879080480" parentZoneId="1879063978" longitude="-43.83286" latitude="-8.124082"/>
<marker id="412094465" label="Downs Hunter" category="71" did="1879081466" parentZoneId="1879063978" longitude="-43.88875" latitude="-8.120009"/>
<marker id="412094466" label="Hunting North-hawk" category="71" did="1879081467" parentZoneId="1879063978" longitude="-43.88875" latitude="-8.120009"/>
<marker id="412094467" label="Downs Wildcat" category="71" did="1879081465" parentZoneId="1879063978" longitude="-43.88875" latitude="-8.120009"/>
<marker id="412094468" label="Hungry Downs-bear" category="71" did="1879081468" parentZoneId="1879063978" longitude="-43.88875" latitude="-8.120009"/>
<marker id="412094469" label="Young Downs-bear" category="71" did="1879081469" parentZoneId="1879063978" longitude="-43.88875" latitude="-8.120009"/>
<marker id="412094470" label="Rich Iron Deposit" category="50" did="1879079516" parentZoneId="1879063978" longitude="-44.1207" latitude="-7.7218847"/>
<marker id="412094471" label="Rich Gold Deposit" category="50" did="1879087927" parentZoneId="1879063978" longitude="-44.1207" latitude="-7.7218847"/>
<marker id="412094472" label="Gold Deposit" category="50" did="1879079517" parentZoneId="1879063978" longitude="-44.1207" latitude="-7.7218847"/>
<marker id="412094473" label="Heavy Yew Branches" category="50" did="1879087931" parentZoneId="1879063978" longitude="-44.1207" latitude="-7.7218847"/>
<marker id="412094474" label="Bountiful Iron Deposit" category="50" did="1879087933" parentZoneId="1879063978" longitude="-44.1207" latitude="-7.7218847"/>
<marker id="412094475" label="Yew Branches" category="50" did="1879079511" parentZoneId="1879063978" longitude="-44.1207" latitude="-7.7218847"/>
<marker id="412094476" label="Rich Iron Deposit" category="50" did="1879079516" parentZoneId="1879063978" longitude="-44.15901" latitude="-7.8832617"/>
<marker id="412094477" label="Rich Gold Deposit" category="50" did="1879087927" parentZoneId="1879063978" longitude="-44.15901" latitude="-7.8832617"/>
<marker id="412094478" label="Gold Deposit" category="50" did="1879079517" parentZoneId="1879063978" longitude="-44.15901" latitude="-7.8832617"/>
<marker id="412094479" label="Heavy Yew Branches" category="50" did="1879087931" parentZoneId="1879063978" longitude="-44.15901" latitude="-7.8832617"/>
<marker id="412094480" label="Bountiful Iron Deposit" category="50" did="1879087933" parentZoneId="1879063978" longitude="-44.15901" latitude="-7.8832617"/>
<marker id="412094481" label="Yew Branches" category="50" did="1879079511" parentZoneId="1879063978" longitude="-44.15901" latitude="-7.8832617"/>
<marker id="412094482" label="Rich Iron Deposit" category="50" did="1879079516" parentZoneId="1879063978" longitude="-43.876972" latitude="-7.9385157"/>
<marker id="412094483" label="Rich Gold Deposit" category="50" did="1879087927" parentZoneId="1879063978" longitude="-43.876972" latitude="-7.9385157"/>
<marker id="412094484" label="Gold Deposit" category="50" did="1879079517" parentZoneId="1879063978" longitude="-43.876972" latitude="-7.9385157"/>
<marker id="412094485" label="Heavy Yew Branches" category="50" did="1879087931" parentZoneId="1879063978" longitude="-43.876972" latitude="-7.9385157"/>
<marker id="412094486" label="Bountiful Iron Deposit" category="50" did="1879087933" parentZoneId="1879063978" longitude="-43.876972" latitude="-7.9385157"/>
<marker id="412094487" label="Yew Branches" category="50" did="1879079511" parentZoneId="1879063978" longitude="-43.876972" latitude="-7.9385157"/>
<marker id="412094488" label="Rich Iron Deposit" category="50" did="1879079516" parentZoneId="1879063978" longitude="-43.63317" latitude="-7.69124"/>
<marker id="412094489" label="Rich Gold Deposit" category="50" did="1879087927" parentZoneId="1879063978" longitude="-43.63317" latitude="-7.69124"/>
<marker id="412094490" label="Gold Deposit" category="50" did="1879079517" parentZoneId="1879063978" longitude="-43.63317" latitude="-7.69124"/>
<marker id="412094491" label="Heavy Yew Branches" category="50" did="1879087931" parentZoneId="1879063978" longitude="-43.63317" latitude="-7.69124"/>
<marker id="412094492" label="Bountiful Iron Deposit" category="50" did="1879087933" parentZoneId="1879063978" longitude="-43.63317" latitude="-7.69124"/>
<marker id="412094493" label="Yew Branches" category="50" did="1879079511" parentZoneId="1879063978" longitude="-43.63317" latitude="-7.69124"/>
<marker id="412094494" label="Rich Iron Deposit" category="50" did="1879079516" parentZoneId="1879063978" longitude="-43.796925" latitude="-7.7043066"/>
<marker id="412094495" label="Rich Gold Deposit" category="50" did="1879087927" parentZoneId="1879063978" longitude="-43.796925" latitude="-7.7043066"/>
<marker id="412094496" label="Gold Deposit" category="50" did="1879079517" parentZoneId="1879063978" longitude="-43.796925" latitude="-7.7043066"/>
<marker id="412094497" label="Heavy Yew Branches" category="50" did="1879087931" parentZoneId="1879063978" longitude="-43.796925" latitude="-7.7043066"/>
<marker id="412094498" label="Bountiful Iron Deposit" category="50" did="1879087933" parentZoneId="1879063978" longitude="-43.796925" latitude="-7.7043066"/>
<marker id="412094499" label="Yew Branches" category="50" did="1879079511" parentZoneId="1879063978" longitude="-43.796925" latitude="-7.7043066"/>
<marker id="412094500" label="Rich Iron Deposit" category="50" did="1879079516" parentZoneId="1879063978" longitude="-44.340557" latitude="-7.9423633"/>
<marker id="412094501" label="Rich Gold Deposit" category="50" did="1879087927" parentZoneId="1879063978" longitude="-44.340557" latitude="-7.9423633"/>
<marker id="412094502" label="Gold Deposit" category="50" did="1879079517" parentZoneId="1879063978" longitude="-44.340557" latitude="-7.9423633"/>
<marker id="412094503" label="Heavy Yew Branches" category="50" did="1879087931" parentZoneId="1879063978" longitude="-44.340557" latitude="-7.9423633"/>
<marker id="412094504" label="Bountiful Iron Deposit" category="50" did="1879087933" parentZoneId="1879063978" longitude="-44.340557" latitude="-7.9423633"/>
<marker id="412094505" label="Yew Branches" category="50" did="1879079511" parentZoneId="1879063978" longitude="-44.340557" latitude="-7.9423633"/>
<marker id="412094506" label="Rich Iron Deposit" category="50" did="1879079516" parentZoneId="1879063978" longitude="-44.07633" latitude="-8.33084"/>
<marker id="412094507" label="Rich Gold Deposit" category="50" did="1879087927" parentZoneId="1879063978" longitude="-44.07633" latitude="-8.33084"/>
<marker id="412094508" label="Gold Deposit" category="50" did="1879079517" parentZoneId="1879063978" longitude="-44.07633" latitude="-8.33084"/>
<marker id="412094509" label="Heavy Yew Branches" category="50" did="1879087931" parentZoneId="1879063978" longitude="-44.07633" latitude="-8.33084"/>
<marker id="412094510" label="Bountiful Iron Deposit" category="50" did="1879087933" parentZoneId="1879063978" longitude="-44.07633" latitude="-8.33084"/>
<marker id="412094511" label="Yew Branches" category="50" did="1879079511" parentZoneId="1879063978" longitude="-44.07633" latitude="-8.33084"/>
<marker id="412094512" label="Rich Iron Deposit" category="50" did="1879079516" parentZoneId="1879063978" longitude="-44.281815" latitude="-8.184854"/>
<marker id="412094513" label="Rich Gold Deposit" category="50" did="1879087927" parentZoneId="1879063978" longitude="-44.281815" latitude="-8.184854"/>
<marker id="412094514" label="Gold Deposit" category="50" did="1879079517" parentZoneId="1879063978" longitude="-44.281815" latitude="-8.184854"/>
<marker id="412094515" label="Heavy Yew Branches" category="50" did="1879087931" parentZoneId="1879063978" longitude="-44.281815" latitude="-8.184854"/>
<marker id="412094516" label="Bountiful Iron Deposit" category="50" did="1879087933" parentZoneId="1879063978" longitude="-44.281815" latitude="-8.184854"/>
<marker id="412094517" label="Yew Branches" category="50" did="1879079511" parentZoneId="1879063978" longitude="-44.281815" latitude="-8.184854"/>
<marker id="412094518" label="Rich Iron Deposit" category="50" did="1879079516" parentZoneId="1879063978" longitude="-43.61255" latitude="-8.34542"/>
<marker id="412094519" label="Rich Gold Deposit" category="50" did="1879087927" parentZoneId="1879063978" longitude="-43.61255" latitude="-8.34542"/>
<marker id="412094520" label="Gold Deposit" category="50" did="1879079517" parentZoneId="1879063978" longitude="-43.61255" latitude="-8.34542"/>
<marker id="412094521" label="Heavy Yew Branches" category="50" did="1879087931" parentZoneId="1879063978" longitude="-43.61255" latitude="-8.34542"/>
<marker id="412094522" label="Bountiful Iron Deposit" category="50" did="1879087933" parentZoneId="1879063978" longitude="-43.61255" latitude="-8.34542"/>
<marker id="412094523" label="Yew Branches" category="50" did="1879079511" parentZoneId="1879063978" longitude="-43.61255" latitude="-8.34542"/>
<marker id="412094524" label="Rich Iron Deposit" category="50" did="1879079516" parentZoneId="1879063978" longitude="-43.850994" latitude="-8.126211"/>
<marker id="412094525" label="Rich Gold Deposit" category="50" did="1879087927" parentZoneId="1879063978" longitude="-43.850994" latitude="-8.126211"/>
<marker id="412094526" label="Gold Deposit" category="50" did="1879079517" parentZoneId="1879063978" longitude="-43.850994" latitude="-8.126211"/>
<marker id="412094527" label="Heavy Yew Branches" category="50" did="1879087931" parentZoneId="1879063978" longitude="-43.850994" latitude="-8.126211"/>
<marker id="412094528" label="Bountiful Iron Deposit" category="50" did="1879087933" parentZoneId="1879063978" longitude="-43.850994" latitude="-8.126211"/>
<marker id="412094529" label="Yew Branches" category="50" did="1879079511" parentZoneId="1879063978" longitude="-43.850994" latitude="-8.126211"/>
<marker id="412094530" label="Drop of Honey" category="77" did="1879061395" parentZoneId="1879063978" longitude="-44.0004" latitude="-8.287499"/>
<marker id="412094531" label="Green Onion" category="77" did="1879061259" parentZoneId="1879063978" longitude="-44.0004" latitude="-8.287499"/>
<marker id="412094532" label="Bunch of Blueberries" category="77" did="1879061342" parentZoneId="1879063978" longitude="-44.0004" latitude="-8.287499"/>
<marker id="412094533" label="Downs Hunter" category="71" did="1879081466" parentZoneId="1879063978" longitude="-44.0004" latitude="-8.287499"/>
<marker id="412094534" label="Hunting North-hawk" category="71" did="1879081467" parentZoneId="1879063978" longitude="-44.0004" latitude="-8.287499"/>
<marker id="412094535" label="Tater" category="77" did="1879061257" parentZoneId="1879063978" longitude="-44.0004" latitude="-8.287499"/>
<marker id="412094536" label="Downs Wildcat" category="71" did="1879081465" parentZoneId="1879063978" longitude="-44.0004" latitude="-8.287499"/>
<marker id="412094537" label="Hungry Downs-bear" category="71" did="1879081468" parentZoneId="1879063978" longitude="-44.0004" latitude="-8.287499"/>
<marker id="412094538" label="Young Downs-bear" category="71" did="1879081469" parentZoneId="1879063978" longitude="-44.0004" latitude="-8.287499"/>
<marker id="412094539" label="Bunch of Raspberries" category="77" did="1879061417" parentZoneId="1879063978" longitude="-44.0004" latitude="-8.287499"/>
<marker id="412094540" label="Woad Plant" category="77" did="1879070248" parentZoneId="1879063978" longitude="-44.0004" latitude="-8.287499"/>
<marker id="412094541" label="Drop of Honey" category="77" did="1879061395" parentZoneId="1879063978" longitude="-43.711277" latitude="-8.317412"/>
<marker id="412094542" label="Green Onion" category="77" did="1879061259" parentZoneId="1879063978" longitude="-43.711277" latitude="-8.317412"/>
<marker id="412094543" label="Bunch of Blueberries" category="77" did="1879061342" parentZoneId="1879063978" longitude="-43.711277" latitude="-8.317412"/>
<marker id="412094544" label="Downs Hunter" category="71" did="1879081466" parentZoneId="1879063978" longitude="-43.711277" latitude="-8.317412"/>
<marker id="412094545" label="Hunting North-hawk" category="71" did="1879081467" parentZoneId="1879063978" longitude="-43.711277" latitude="-8.317412"/>
<marker id="412094546" label="Tater" category="77" did="1879061257" parentZoneId="1879063978" longitude="-43.711277" latitude="-8.317412"/>
<marker id="412094547" label="Downs Wildcat" category="71" did="1879081465" parentZoneId="1879063978" longitude="-43.711277" latitude="-8.317412"/>
<marker id="412094548" label="Hungry Downs-bear" category="71" did="1879081468" parentZoneId="1879063978" longitude="-43.711277" latitude="-8.317412"/>
<marker id="412094549" label="Young Downs-bear" category="71" did="1879081469" parentZoneId="1879063978" longitude="-43.711277" latitude="-8.317412"/>
<marker id="412094550" label="Bunch of Raspberries" category="77" did="1879061417" parentZoneId="1879063978" longitude="-43.711277" latitude="-8.317412"/>
<marker id="412094551" label="Woad Plant" category="77" did="1879070248" parentZoneId="1879063978" longitude="-43.711277" latitude="-8.317412"/>
<marker id="412094552" label="Drop of Honey" category="77" did="1879061395" parentZoneId="1879063978" longitude="-43.84794" latitude="-8.213681"/>
<marker id="412094553" label="Green Onion" category="77" did="1879061259" parentZoneId="1879063978" longitude="-43.84794" latitude="-8.213681"/>
<marker id="412094554" label="Bunch of Blueberries" category="77" did="1879061342" parentZoneId="1879063978" longitude="-43.84794" latitude="-8.213681"/>
<marker id="412094555" label="Downs Hunter" category="71" did="1879081466" parentZoneId="1879063978" longitude="-43.84794" latitude="-8.213681"/>
<marker id="412094556" label="Hunting North-hawk" category="71" did="1879081467" parentZoneId="1879063978" longitude="-43.84794" latitude="-8.213681"/>
<marker id="412094557" label="Tater" category="77" did="1879061257" parentZoneId="1879063978" longitude="-43.84794" latitude="-8.213681"/>
<marker id="412094558" label="Downs Wildcat" category="71" did="1879081465" parentZoneId="1879063978" longitude="-43.84794" latitude="-8.213681"/>
<marker id="412094559" label="Hungry Downs-bear" category="71" did="1879081468" parentZoneId="1879063978" longitude="-43.84794" latitude="-8.213681"/>
<marker id="412094560" label="Young Downs-bear" category="71" did="1879081469" parentZoneId="1879063978" longitude="-43.84794" latitude="-8.213681"/>
<marker id="412094561" label="Bunch of Raspberries" category="77" did="1879061417" parentZoneId="1879063978" longitude="-43.84794" latitude="-8.213681"/>
<marker id="412094562" label="Woad Plant" category="77" did="1879070248" parentZoneId="1879063978" longitude="-43.84794" latitude="-8.213681"/>
<marker id="412094563" label="Drop of Honey" category="77" did="1879061395" parentZoneId="1879063978" longitude="-43.667343" latitude="-7.891299"/>
<marker id="412094564" label="Green Onion" category="77" did="1879061259" parentZoneId="1879063978" longitude="-43.667343" latitude="-7.891299"/>
<marker id="412094565" label="Bunch of Blueberries" category="77" did="1879061342" parentZoneId="1879063978" longitude="-43.667343" latitude="-7.891299"/>
<marker id="412094566" label="Downs Hunter" category="71" did="1879081466" parentZoneId="1879063978" longitude="-43.667343" latitude="-7.891299"/>
<marker id="412094567" label="Hunting North-hawk" category="71" did="1879081467" parentZoneId="1879063978" longitude="-43.667343" latitude="-7.891299"/>
<marker id="412094568" label="Tater" category="77" did="1879061257" parentZoneId="1879063978" longitude="-43.667343" latitude="-7.891299"/>
<marker id="412094569" label="Downs Wildcat" category="71" did="1879081465" parentZoneId="1879063978" longitude="-43.667343" latitude="-7.891299"/>
<marker id="412094570" label="Hungry Downs-bear" category="71" did="1879081468" parentZoneId="1879063978" longitude="-43.667343" latitude="-7.891299"/>
<marker id="412094571" label="Young Downs-bear" category="71" did="1879081469" parentZoneId="1879063978" longitude="-43.667343" latitude="-7.891299"/>
<marker id="412094572" label="Bunch of Raspberries" category="77" did="1879061417" parentZoneId="1879063978" longitude="-43.667343" latitude="-7.891299"/>
<marker id="412094573" label="Woad Plant" category="77" did="1879070248" parentZoneId="1879063978" longitude="-43.667343" latitude="-7.891299"/>
<marker id="412094574" label="Drop of Honey" category="77" did="1879061395" parentZoneId="1879063978" longitude="-43.676464" latitude="-8.071269"/>
<marker id="412094575" label="Green Onion" category="77" did="1879061259" parentZoneId="1879063978" longitude="-43.676464" latitude="-8.071269"/>
<marker id="412094576" label="Bunch of Blueberries" category="77" did="1879061342" parentZoneId="1879063978" longitude="-43.676464" latitude="-8.071269"/>
<marker id="412094577" label="Downs Hunter" category="71" did="1879081466" parentZoneId="1879063978" longitude="-43.676464" latitude="-8.071269"/>
<marker id="412094578" label="Hunting North-hawk" category="71" did="1879081467" parentZoneId="1879063978" longitude="-43.676464" latitude="-8.071269"/>
<marker id="412094579" label="Tater" category="77" did="1879061257" parentZoneId="1879063978" longitude="-43.676464" latitude="-8.071269"/>
<marker id="412094580" label="Downs Wildcat" category="71" did="1879081465" parentZoneId="1879063978" longitude="-43.676464" latitude="-8.071269"/>
<marker id="412094581" label="Hungry Downs-bear" category="71" did="1879081468" parentZoneId="1879063978" longitude="-43.676464" latitude="-8.071269"/>
<marker id="412094582" label="Young Downs-bear" category="71" did="1879081469" parentZoneId="1879063978" longitude="-43.676464" latitude="-8.071269"/>
<marker id="412094583" label="Bunch of Raspberries" category="77" did="1879061417" parentZoneId="1879063978" longitude="-43.676464" latitude="-8.071269"/>
<marker id="412094584" label="Woad Plant" category="77" did="1879070248" parentZoneId="1879063978" longitude="-43.676464" latitude="-8.071269"/>
<marker id="412094585" label="White-footed Fox" category="78" did="1879080468" parentZoneId="1879063978" longitude="-44.342266" latitude="-7.663935"/>
<marker id="412094586" label="Northern Plains Buck" category="78" did="1879080470" parentZoneId="1879063978" longitude="-44.342266" latitude="-7.663935"/>
<marker id="412094587" label="White-footed Hare" category="78" did="1879080480" parentZoneId="1879063978" longitude="-44.342266" latitude="-7.663935"/>
<marker id="412094588" label="Northern Plains Doe" category="78" did="1879080467" parentZoneId="1879063978" longitude="-44.342266" latitude="-7.663935"/>
<marker id="412094589" label="White-footed Fox" category="78" did="1879080468" parentZoneId="1879063978" longitude="-44.31448" latitude="-8.04333"/>
<marker id="412094590" label="Northern Plains Buck" category="78" did="1879080470" parentZoneId="1879063978" longitude="-44.31448" latitude="-8.04333"/>
<marker id="412094591" label="White-footed Hare" category="78" did="1879080480" parentZoneId="1879063978" longitude="-44.31448" latitude="-8.04333"/>
<marker id="412094592" label="Northern Plains Doe" category="78" did="1879080467" parentZoneId="1879063978" longitude="-44.31448" latitude="-8.04333"/>
<marker id="412094593" label="White-footed Fox" category="78" did="1879080468" parentZoneId="1879063978" longitude="-44.342686" latitude="-8.273095"/>
<marker id="412094594" label="Northern Plains Buck" category="78" did="1879080470" parentZoneId="1879063978" longitude="-44.342686" latitude="-8.273095"/>
<marker id="412094595" label="White-footed Hare" category="78" did="1879080480" parentZoneId="1879063978" longitude="-44.342686" latitude="-8.273095"/>
<marker id="412094596" label="Northern Plains Doe" category="78" did="1879080467" parentZoneId="1879063978" longitude="-44.342686" latitude="-8.273095"/>
<marker id="412094597" label="White-footed Fox" category="78" did="1879080468" parentZoneId="1879063978" longitude="-44.003994" latitude="-8.329834"/>
<marker id="412094598" label="Northern Plains Buck" category="78" did="1879080470" parentZoneId="1879063978" longitude="-44.003994" latitude="-8.329834"/>
<marker id="412094599" label="White-footed Hare" category="78" did="1879080480" parentZoneId="1879063978" longitude="-44.003994" latitude="-8.329834"/>
<marker id="412094600" label="Northern Plains Doe" category="78" did="1879080467" parentZoneId="1879063978" longitude="-44.003994" latitude="-8.329834"/>
<marker id="412094601" label="White-footed Fox" category="78" did="1879080468" parentZoneId="1879063978" longitude="-43.781853" latitude="-8.3041115"/>
<marker id="412094602" label="Northern Plains Buck" category="78" did="1879080470" parentZoneId="1879063978" longitude="-43.781853" latitude="-8.3041115"/>
<marker id="412094603" label="White-footed Hare" category="78" did="1879080480" parentZoneId="1879063978" longitude="-43.781853" latitude="-8.3041115"/>
<marker id="412094604" label="Northern Plains Doe" category="78" did="1879080467" parentZoneId="1879063978" longitude="-43.781853" latitude="-8.3041115"/>
<marker id="412094605" label="White-footed Fox" category="78" did="1879080468" parentZoneId="1879063978" longitude="-43.874325" latitude="-8.075332"/>
<marker id="412094606" label="Northern Plains Buck" category="78" did="1879080470" parentZoneId="1879063978" longitude="-43.874325" latitude="-8.075332"/>
<marker id="412094607" label="White-footed Hare" category="78" did="1879080480" parentZoneId="1879063978" longitude="-43.874325" latitude="-8.075332"/>
<marker id="412094608" label="Northern Plains Doe" category="78" did="1879080467" parentZoneId="1879063978" longitude="-43.874325" latitude="-8.075332"/>
<marker id="412094609" label="White-footed Fox" category="78" did="1879080468" parentZoneId="1879063978" longitude="-43.742733" latitude="-7.745176"/>
<marker id="412094610" label="Northern Plains Buck" category="78" did="1879080470" parentZoneId="1879063978" longitude="-43.742733" latitude="-7.745176"/>
<marker id="412094611" label="White-footed Hare" category="78" did="1879080480" parentZoneId="1879063978" longitude="-43.742733" latitude="-7.745176"/>
<marker id="412094612" label="Northern Plains Doe" category="78" did="1879080467" parentZoneId="1879063978" longitude="-43.742733" latitude="-7.745176"/>
<marker id="412098560" label="Northern Squirrel" category="78" did="1879080469" parentZoneId="1879063977" longitude="-43.95531" latitude="-7.1805563"/>
<marker id="412098561" label="Periwinkle" category="73" did="1879054413" parentZoneId="1879063977" longitude="-43.777256" latitude="-7.464287"/>
<marker id="412098562" label="Darting North-hawk" category="71" did="1879081495" parentZoneId="1879063977" longitude="-43.83779" latitude="-7.293447"/>
<marker id="412098563" label="Downs Stalker" category="71" did="1879081494" parentZoneId="1879063977" longitude="-43.83779" latitude="-7.293447"/>
<marker id="412098564" label="Downs Lynx" category="71" did="1879081493" parentZoneId="1879063977" longitude="-43.83779" latitude="-7.293447"/>
<marker id="412098565" label="Periwinkle" category="73" did="1879054413" parentZoneId="1879063977" longitude="-43.70461" latitude="-6.9996777"/>
<marker id="412098566" label="Periwinkle" category="73" did="1879054413" parentZoneId="1879063977" longitude="-44.206005" latitude="-6.869795"/>
<marker id="412098567" label="Periwinkle" category="73" did="1879054413" parentZoneId="1879063977" longitude="-43.652588" latitude="-7.3353124"/>
<marker id="412098569" label="Drop of Honey" category="77" did="1879061395" parentZoneId="1879063977" longitude="-43.798367" latitude="-7.2909765"/>
<marker id="412098570" label="Green Onion" category="77" did="1879061259" parentZoneId="1879063977" longitude="-43.798367" latitude="-7.2909765"/>
<marker id="412098571" label="Bunch of Blueberries" category="77" did="1879061342" parentZoneId="1879063977" longitude="-43.798367" latitude="-7.2909765"/>
<marker id="412098572" label="Tater" category="77" did="1879061257" parentZoneId="1879063977" longitude="-43.798367" latitude="-7.2909765"/>
<marker id="412098573" label="Darting North-hawk" category="71" did="1879081495" parentZoneId="1879063977" longitude="-43.798367" latitude="-7.2909765"/>
<marker id="412098574" label="Downs Stalker" category="71" did="1879081494" parentZoneId="1879063977" longitude="-43.798367" latitude="-7.2909765"/>
<marker id="412098575" label="Downs Lynx" category="71" did="1879081493" parentZoneId="1879063977" longitude="-43.798367" latitude="-7.2909765"/>
<marker id="412098576" label="Dourhand Foreman" category="71" did="1879081498" parentZoneId="1879063977" longitude="-43.798367" latitude="-7.2909765"/>
<marker id="412098577" label="Bunch of Raspberries" category="77" did="1879061417" parentZoneId="1879063977" longitude="-43.798367" latitude="-7.2909765"/>
<marker id="412098578" label="Dourhand Ruffian" category="71" did="1879081497" parentZoneId="1879063977" longitude="-43.798367" latitude="-7.2909765"/>
<marker id="412098579" label="Dourhand Miner" category="71" did="1879081496" parentZoneId="1879063977" longitude="-43.798367" latitude="-7.2909765"/>
<marker id="412098580" label="Woad Plant" category="77" did="1879070248" parentZoneId="1879063977" longitude="-43.798367" latitude="-7.2909765"/>
<marker id="412098581" label="Drop of Honey" category="77" did="1879061395" parentZoneId="1879063977" longitude="-43.676025" latitude="-6.9471874"/>
<marker id="412098582" label="Green Onion" category="77" did="1879061259" parentZoneId="1879063977" longitude="-43.676025" latitude="-6.9471874"/>
<marker id="412098583" label="Bunch of Blueberries" category="77" did="1879061342" parentZoneId="1879063977" longitude="-43.676025" latitude="-6.9471874"/>
<marker id="412098584" label="Tater" category="77" did="1879061257" parentZoneId="1879063977" longitude="-43.676025" latitude="-6.9471874"/>
<marker id="412098585" label="Darting North-hawk" category="71" did="1879081495" parentZoneId="1879063977" longitude="-43.676025" latitude="-6.9471874"/>
<marker id="412098586" label="Downs Stalker" category="71" did="1879081494" parentZoneId="1879063977" longitude="-43.676025" latitude="-6.9471874"/>
<marker id="412098587" label="Downs Lynx" category="71" did="1879081493" parentZoneId="1879063977" longitude="-43.676025" latitude="-6.9471874"/>
<marker id="412098588" label="Dourhand Foreman" category="71" did="1879081498" parentZoneId="1879063977" longitude="-43.676025" latitude="-6.9471874"/>
<marker id="412098589" label="Bunch of Raspberries" category="77" did="1879061417" parentZoneId="1879063977" longitude="-43.676025" latitude="-6.9471874"/>
<marker id="412098590" label="Dourhand Ruffian" category="71" did="1879081497" parentZoneId="1879063977" longitude="-43.676025" latitude="-6.9471874"/>
<marker id="412098591" label="Dourhand Miner" category="71" did="1879081496" parentZoneId="1879063977" longitude="-43.676025" latitude="-6.9471874"/>
<marker id="412098592" label="Woad Plant" category="77" did="1879070248" parentZoneId="1879063977" longitude="-43.676025" latitude="-6.9471874"/>
<marker id="412098593" label="Drop of Honey" category="77" did="1879061395" parentZoneId="1879063977" longitude="-43.8351" latitude="-7.4878416"/>
<marker id="412098594" label="Green Onion" category="77" did="1879061259" parentZoneId="1879063977" longitude="-43.8351" latitude="-7.4878416"/>
<marker id="412098595" label="Bunch of Blueberries" category="77" did="1879061342" parentZoneId="1879063977" longitude="-43.8351" latitude="-7.4878416"/>
<marker id="412098596" label="Tater" category="77" did="1879061257" parentZoneId="1879063977" longitude="-43.8351" latitude="-7.4878416"/>
<marker id="412098597" label="Darting North-hawk" category="71" did="1879081495" parentZoneId="1879063977" longitude="-43.8351" latitude="-7.4878416"/>
<marker id="412098598" label="Downs Stalker" category="71" did="1879081494" parentZoneId="1879063977" longitude="-43.8351" latitude="-7.4878416"/>
<marker id="412098599" label="Downs Lynx" category="71" did="1879081493" parentZoneId="1879063977" longitude="-43.8351" latitude="-7.4878416"/>
<marker id="412098600" label="Dourhand Foreman" category="71" did="1879081498" parentZoneId="1879063977" longitude="-43.8351" latitude="-7.4878416"/>
<marker id="412098601" label="Bunch of Raspberries" category="77" did="1879061417" parentZoneId="1879063977" longitude="-43.8351" latitude="-7.4878416"/>
<marker id="412098602" label="Dourhand Ruffian" category="71" did="1879081497" parentZoneId="1879063977" longitude="-43.8351" latitude="-7.4878416"/>
<marker id="412098603" label="Dourhand Miner" category="71" did="1879081496" parentZoneId="1879063977" longitude="-43.8351" latitude="-7.4878416"/>
<marker id="412098604" label="Woad Plant" category="77" did="1879070248" parentZoneId="1879063977" longitude="-43.8351" latitude="-7.4878416"/>
<marker id="412098605" label="Drop of Honey" category="77" did="1879061395" parentZoneId="1879063977" longitude="-43.6672" latitude="-7.5555367"/>
<marker id="412098606" label="Green Onion" category="77" did="1879061259" parentZoneId="1879063977" longitude="-43.6672" latitude="-7.5555367"/>
<marker id="412098607" label="Bunch of Blueberries" category="77" did="1879061342" parentZoneId="1879063977" longitude="-43.6672" latitude="-7.5555367"/>
<marker id="412098608" label="Tater" category="77" did="1879061257" parentZoneId="1879063977" longitude="-43.6672" latitude="-7.5555367"/>
<marker id="412098609" label="Darting North-hawk" category="71" did="1879081495" parentZoneId="1879063977" longitude="-43.6672" latitude="-7.5555367"/>
<marker id="412098610" label="Downs Stalker" category="71" did="1879081494" parentZoneId="1879063977" longitude="-43.6672" latitude="-7.5555367"/>
<marker id="412098611" label="Downs Lynx" category="71" did="1879081493" parentZoneId="1879063977" longitude="-43.6672" latitude="-7.5555367"/>
<marker id="412098612" label="Dourhand Foreman" category="71" did="1879081498" parentZoneId="1879063977" longitude="-43.6672" latitude="-7.5555367"/>
<marker id="412098613" label="Bunch of Raspberries" category="77" did="1879061417" parentZoneId="1879063977" longitude="-43.6672" latitude="-7.5555367"/>
<marker id="412098614" label="Dourhand Ruffian" category="71" did="1879081497" parentZoneId="1879063977" longitude="-43.6672" latitude="-7.5555367"/>
<marker id="412098615" label="Dourhand Miner" category="71" did="1879081496" parentZoneId="1879063977" longitude="-43.6672" latitude="-7.5555367"/>
<marker id="412098616" label="Woad Plant" category="77" did="1879070248" parentZoneId="1879063977" longitude="-43.6672" latitude="-7.5555367"/>
<marker id="412098617" label="Drop of Honey" category="77" did="1879061395" parentZoneId="1879063977" longitude="-44.251648" latitude="-7.561367"/>
<marker id="412098618" label="Green Onion" category="77" did="1879061259" parentZoneId="1879063977" longitude="-44.251648" latitude="-7.561367"/>
<marker id="412098619" label="Bunch of Blueberries" category="77" did="1879061342" parentZoneId="1879063977" longitude="-44.251648" latitude="-7.561367"/>
<marker id="412098620" label="Tater" category="77" did="1879061257" parentZoneId="1879063977" longitude="-44.251648" latitude="-7.561367"/>
<marker id="412098621" label="Darting North-hawk" category="71" did="1879081495" parentZoneId="1879063977" longitude="-44.251648" latitude="-7.561367"/>
<marker id="412098622" label="Downs Stalker" category="71" did="1879081494" parentZoneId="1879063977" longitude="-44.251648" latitude="-7.561367"/>
<marker id="412098623" label="Downs Lynx" category="71" did="1879081493" parentZoneId="1879063977" longitude="-44.251648" latitude="-7.561367"/>
<marker id="412098624" label="Dourhand Foreman" category="71" did="1879081498" parentZoneId="1879063977" longitude="-44.251648" latitude="-7.561367"/>
<marker id="412098625" label="Bunch of Raspberries" category="77" did="1879061417" parentZoneId="1879063977" longitude="-44.251648" latitude="-7.561367"/>
<marker id="412098626" label="Dourhand Ruffian" category="71" did="1879081497" parentZoneId="1879063977" longitude="-44.251648" latitude="-7.561367"/>
<marker id="412098627" label="Dourhand Miner" category="71" did="1879081496" parentZoneId="1879063977" longitude="-44.251648" latitude="-7.561367"/>
<marker id="412098628" label="Woad Plant" category="77" did="1879070248" parentZoneId="1879063977" longitude="-44.251648" latitude="-7.561367"/>
<marker id="412098629" label="Drop of Honey" category="77" did="1879061395" parentZoneId="1879063977" longitude="-44.307587" latitude="-6.915498"/>
<marker id="412098630" label="Green Onion" category="77" did="1879061259" parentZoneId="1879063977" longitude="-44.307587" latitude="-6.915498"/>
<marker id="412098631" label="Bunch of Blueberries" category="77" did="1879061342" parentZoneId="1879063977" longitude="-44.307587" latitude="-6.915498"/>
<marker id="412098632" label="Tater" category="77" did="1879061257" parentZoneId="1879063977" longitude="-44.307587" latitude="-6.915498"/>
<marker id="412098633" label="Darting North-hawk" category="71" did="1879081495" parentZoneId="1879063977" longitude="-44.307587" latitude="-6.915498"/>
<marker id="412098634" label="Downs Stalker" category="71" did="1879081494" parentZoneId="1879063977" longitude="-44.307587" latitude="-6.915498"/>
<marker id="412098635" label="Downs Lynx" category="71" did="1879081493" parentZoneId="1879063977" longitude="-44.307587" latitude="-6.915498"/>
<marker id="412098636" label="Dourhand Foreman" category="71" did="1879081498" parentZoneId="1879063977" longitude="-44.307587" latitude="-6.915498"/>
<marker id="412098637" label="Bunch of Raspberries" category="77" did="1879061417" parentZoneId="1879063977" longitude="-44.307587" latitude="-6.915498"/>
<marker id="412098638" label="Dourhand Ruffian" category="71" did="1879081497" parentZoneId="1879063977" longitude="-44.307587" latitude="-6.915498"/>
<marker id="412098639" label="Dourhand Miner" category="71" did="1879081496" parentZoneId="1879063977" longitude="-44.307587" latitude="-6.915498"/>
<marker id="412098640" label="Woad Plant" category="77" did="1879070248" parentZoneId="1879063977" longitude="-44.307587" latitude="-6.915498"/>
<marker id="412098641" label="Drop of Honey" category="77" did="1879061395" parentZoneId="1879063977" longitude="-44.087566" latitude="-6.937285"/>
<marker id="412098642" label="Green Onion" category="77" did="1879061259" parentZoneId="1879063977" longitude="-44.087566" latitude="-6.937285"/>
<marker id="412098643" label="Bunch of Blueberries" category="77" did="1879061342" parentZoneId="1879063977" longitude="-44.087566" latitude="-6.937285"/>
<marker id="412098644" label="Tater" category="77" did="1879061257" parentZoneId="1879063977" longitude="-44.087566" latitude="-6.937285"/>
<marker id="412098645" label="Darting North-hawk" category="71" did="1879081495" parentZoneId="1879063977" longitude="-44.087566" latitude="-6.937285"/>
<marker id="412098646" label="Downs Stalker" category="71" did="1879081494" parentZoneId="1879063977" longitude="-44.087566" latitude="-6.937285"/>
<marker id="412098647" label="Downs Lynx" category="71" did="1879081493" parentZoneId="1879063977" longitude="-44.087566" latitude="-6.937285"/>
<marker id="412098648" label="Dourhand Foreman" category="71" did="1879081498" parentZoneId="1879063977" longitude="-44.087566" latitude="-6.937285"/>
<marker id="412098649" label="Bunch of Raspberries" category="77" did="1879061417" parentZoneId="1879063977" longitude="-44.087566" latitude="-6.937285"/>
<marker id="412098650" label="Dourhand Ruffian" category="71" did="1879081497" parentZoneId="1879063977" longitude="-44.087566" latitude="-6.937285"/>
<marker id="412098651" label="Dourhand Miner" category="71" did="1879081496" parentZoneId="1879063977" longitude="-44.087566" latitude="-6.937285"/>
<marker id="412098652" label="Woad Plant" category="77" did="1879070248" parentZoneId="1879063977" longitude="-44.087566" latitude="-6.937285"/>
<marker id="412098653" label="White-footed Fox" category="78" did="1879080468" parentZoneId="1879063977" longitude="-44.268837" latitude="-7.5572753"/>
<marker id="412098654" label="Northern Squirrel" category="78" did="1879080469" parentZoneId="1879063977" longitude="-44.268837" latitude="-7.5572753"/>
<marker id="412098655" label="Northern Plains Buck" category="78" did="1879080470" parentZoneId="1879063977" longitude="-44.268837" latitude="-7.5572753"/>
<marker id="412098656" label="Northern Plains Doe" category="78" did="1879080467" parentZoneId="1879063977" longitude="-44.268837" latitude="-7.5572753"/>
<marker id="412098657" label="White-footed Fox" category="78" did="1879080468" parentZoneId="1879063977" longitude="-44.00129" latitude="-7.1887693"/>
<marker id="412098658" label="Northern Squirrel" category="78" did="1879080469" parentZoneId="1879063977" longitude="-44.00129" latitude="-7.1887693"/>
<marker id="412098659" label="Northern Plains Buck" category="78" did="1879080470" parentZoneId="1879063977" longitude="-44.00129" latitude="-7.1887693"/>
<marker id="412098660" label="Northern Plains Doe" category="78" did="1879080467" parentZoneId="1879063977" longitude="-44.00129" latitude="-7.1887693"/>
<marker id="412098661" label="White-footed Fox" category="78" did="1879080468" parentZoneId="1879063977" longitude="-43.891182" latitude="-7.470254"/>
<marker id="412098662" label="Northern Squirrel" category="78" did="1879080469" parentZoneId="1879063977" longitude="-43.891182" latitude="-7.470254"/>
<marker id="412098663" label="Northern Plains Buck" category="78" did="1879080470" parentZoneId="1879063977" longitude="-43.891182" latitude="-7.470254"/>
<marker id="412098664" label="Northern Plains Doe" category="78" did="1879080467" parentZoneId="1879063977" longitude="-43.891182" latitude="-7.470254"/>
<marker id="412098665" label="White-footed Fox" category="78" did="1879080468" parentZoneId="1879063977" longitude="-43.639843" latitude="-7.537695"/>
<marker id="412098666" label="Northern Squirrel" category="78" did="1879080469" parentZoneId="1879063977" longitude="-43.639843" latitude="-7.537695"/>
<marker id="412098667" label="Northern Plains Buck" category="78" did="1879080470" parentZoneId="1879063977" longitude="-43.639843" latitude="-7.537695"/>
<marker id="412098668" label="Northern Plains Doe" category="78" did="1879080467" parentZoneId="1879063977" longitude="-43.639843" latitude="-7.537695"/>
<marker id="412098669" label="White-footed Fox" category="78" did="1879080468" parentZoneId="1879063977" longitude="-43.6512" latitude="-7.3792186"/>
<marker id="412098670" label="Northern Squirrel" category="78" did="1879080469" parentZoneId="1879063977" longitude="-43.6512" latitude="-7.3792186"/>
<marker id="412098671" label="Northern Plains Buck" category="78" did="1879080470" parentZoneId="1879063977" longitude="-43.6512" latitude="-7.3792186"/>
<marker id="412098672" label="Northern Plains Doe" category="78" did="1879080467" parentZoneId="1879063977" longitude="-43.6512" latitude="-7.3792186"/>
<marker id="412098673" label="White-footed Fox" category="78" did="1879080468" parentZoneId="1879063977" longitude="-44.25196" latitude="-6.8638086"/>
<marker id="412098674" label="Northern Squirrel" category="78" did="1879080469" parentZoneId="1879063977" longitude="-44.25196" latitude="-6.8638086"/>
<marker id="412098675" label="Northern Plains Buck" category="78" did="1879080470" parentZoneId="1879063977" longitude="-44.25196" latitude="-6.8638086"/>
<marker id="412098676" label="Northern Plains Doe" category="78" did="1879080467" parentZoneId="1879063977" longitude="-44.25196" latitude="-6.8638086"/>
<marker id="412098677" label="White-footed Fox" category="78" did="1879080468" parentZoneId="1879063977" longitude="-43.920887" latitude="-6.918623"/>
<marker id="412098678" label="Northern Squirrel" category="78" did="1879080469" parentZoneId="1879063977" longitude="-43.920887" latitude="-6.918623"/>
<marker id="412098679" label="Northern Plains Buck" category="78" did="1879080470" parentZoneId="1879063977" longitude="-43.920887" latitude="-6.918623"/>
<marker id="412098680" label="Northern Plains Doe" category="78" did="1879080467" parentZoneId="1879063977" longitude="-43.920887" latitude="-6.918623"/>
<marker id="412098681" label="White-footed Fox" category="78" did="1879080468" parentZoneId="1879063977" longitude="-43.68996" latitude="-6.887568"/>
<marker id="412098682" label="Northern Squirrel" category="78" did="1879080469" parentZoneId="1879063977" longitude="-43.68996" latitude="-6.887568"/>
<marker id="412098683" label="Northern Plains Buck" category="78" did="1879080470" parentZoneId="1879063977" longitude="-43.68996" latitude="-6.887568"/>
<marker id="412098684" label="Northern Plains Doe" category="78" did="1879080467" parentZoneId="1879063977" longitude="-43.68996" latitude="-6.887568"/>
<marker id="412102656" label="Northern Squirrel" category="78" did="1879080469" parentZoneId="1879063977" longitude="-43.994717" latitude="-6.4718456"/>
<marker id="412102657" label="Darting North-hawk" category="71" did="1879081495" parentZoneId="1879063977" longitude="-44.192772" latitude="-6.1769137"/>
<marker id="412102658" label="Downs Stalker" category="71" did="1879081494" parentZoneId="1879063977" longitude="-44.192772" latitude="-6.1769137"/>
<marker id="412102659" label="Downs Lynx" category="71" did="1879081493" parentZoneId="1879063977" longitude="-44.192772" latitude="-6.1769137"/>
<marker id="412102660" label="Drop of Honey" category="77" did="1879061395" parentZoneId="1879063977" longitude="-44.34375" latitude="-6.6191893"/>
<marker id="412102661" label="Green Onion" category="77" did="1879061259" parentZoneId="1879063977" longitude="-44.34375" latitude="-6.6191893"/>
<marker id="412102662" label="Bunch of Blueberries" category="77" did="1879061342" parentZoneId="1879063977" longitude="-44.34375" latitude="-6.6191893"/>
<marker id="412102663" label="Tater" category="77" did="1879061257" parentZoneId="1879063977" longitude="-44.34375" latitude="-6.6191893"/>
<marker id="412102664" label="Darting North-hawk" category="71" did="1879081495" parentZoneId="1879063977" longitude="-44.34375" latitude="-6.6191893"/>
<marker id="412102665" label="Downs Stalker" category="71" did="1879081494" parentZoneId="1879063977" longitude="-44.34375" latitude="-6.6191893"/>
<marker id="412102666" label="Downs Lynx" category="71" did="1879081493" parentZoneId="1879063977" longitude="-44.34375" latitude="-6.6191893"/>
<marker id="412102667" label="Dourhand Foreman" category="71" did="1879081498" parentZoneId="1879063977" longitude="-44.34375" latitude="-6.6191893"/>
<marker id="412102668" label="Bunch of Raspberries" category="77" did="1879061417" parentZoneId="1879063977" longitude="-44.34375" latitude="-6.6191893"/>
<marker id="412102669" label="Dourhand Ruffian" category="71" did="1879081497" parentZoneId="1879063977" longitude="-44.34375" latitude="-6.6191893"/>
<marker id="412102670" label="Dourhand Miner" category="71" did="1879081496" parentZoneId="1879063977" longitude="-44.34375" latitude="-6.6191893"/>
<marker id="412102671" label="Woad Plant" category="77" did="1879070248" parentZoneId="1879063977" longitude="-44.34375" latitude="-6.6191893"/>
<marker id="412102672" label="Drop of Honey" category="77" did="1879061395" parentZoneId="1879063977" longitude="-44.291817" latitude="-6.4740524"/>
<marker id="412102673" label="Green Onion" category="77" did="1879061259" parentZoneId="1879063977" longitude="-44.291817" latitude="-6.4740524"/>
<marker id="412102674" label="Bunch of Blueberries" category="77" did="1879061342" parentZoneId="1879063977" longitude="-44.291817" latitude="-6.4740524"/>
<marker id="412102675" label="Tater" category="77" did="1879061257" parentZoneId="1879063977" longitude="-44.291817" latitude="-6.4740524"/>
<marker id="412102676" label="Darting North-hawk" category="71" did="1879081495" parentZoneId="1879063977" longitude="-44.291817" latitude="-6.4740524"/>
<marker id="412102677" label="Downs Stalker" category="71" did="1879081494" parentZoneId="1879063977" longitude="-44.291817" latitude="-6.4740524"/>
<marker id="412102678" label="Downs Lynx" category="71" did="1879081493" parentZoneId="1879063977" longitude="-44.291817" latitude="-6.4740524"/>
<marker id="412102679" label="Dourhand Foreman" category="71" did="1879081498" parentZoneId="1879063977" longitude="-44.291817" latitude="-6.4740524"/>
<marker id="412102680" label="Bunch of Raspberries" category="77" did="1879061417" parentZoneId="1879063977" longitude="-44.291817" latitude="-6.4740524"/>
<marker id="412102681" label="Dourhand Ruffian" category="71" did="1879081497" parentZoneId="1879063977" longitude="-44.291817" latitude="-6.4740524"/>
<marker id="412102682" label="Dourhand Miner" category="71" did="1879081496" parentZoneId="1879063977" longitude="-44.291817" latitude="-6.4740524"/>
<marker id="412102683" label="Woad Plant" category="77" did="1879070248" parentZoneId="1879063977" longitude="-44.291817" latitude="-6.4740524"/>
<marker id="412102684" label="Drop of Honey" category="77" did="1879061395" parentZoneId="1879063977" longitude="-43.731873" latitude="-6.4308395"/>
<marker id="412102685" label="Green Onion" category="77" did="1879061259" parentZoneId="1879063977" longitude="-43.731873" latitude="-6.4308395"/>
<marker id="412102686" label="Bunch of Blueberries" category="77" did="1879061342" parentZoneId="1879063977" longitude="-43.731873" latitude="-6.4308395"/>
<marker id="412102687" label="Tater" category="77" did="1879061257" parentZoneId="1879063977" longitude="-43.731873" latitude="-6.4308395"/>
<marker id="412102688" label="Darting North-hawk" category="71" did="1879081495" parentZoneId="1879063977" longitude="-43.731873" latitude="-6.4308395"/>
<marker id="412102689" label="Downs Stalker" category="71" did="1879081494" parentZoneId="1879063977" longitude="-43.731873" latitude="-6.4308395"/>
<marker id="412102690" label="Downs Lynx" category="71" did="1879081493" parentZoneId="1879063977" longitude="-43.731873" latitude="-6.4308395"/>
<marker id="412102691" label="Dourhand Foreman" category="71" did="1879081498" parentZoneId="1879063977" longitude="-43.731873" latitude="-6.4308395"/>
<marker id="412102692" label="Bunch of Raspberries" category="77" did="1879061417" parentZoneId="1879063977" longitude="-43.731873" latitude="-6.4308395"/>
<marker id="412102693" label="Dourhand Ruffian" category="71" did="1879081497" parentZoneId="1879063977" longitude="-43.731873" latitude="-6.4308395"/>
<marker id="412102694" label="Dourhand Miner" category="71" did="1879081496" parentZoneId="1879063977" longitude="-43.731873" latitude="-6.4308395"/>
<marker id="412102695" label="Woad Plant" category="77" did="1879070248" parentZoneId="1879063977" longitude="-43.731873" latitude="-6.4308395"/>
<marker id="412102696" label="Drop of Honey" category="77" did="1879061395" parentZoneId="1879063977" longitude="-44.274708" latitude="-6.0580077"/>
<marker id="412102697" label="Green Onion" category="77" did="1879061259" parentZoneId="1879063977" longitude="-44.274708" latitude="-6.0580077"/>
<marker id="412102698" label="Bunch of Blueberries" category="77" did="1879061342" parentZoneId="1879063977" longitude="-44.274708" latitude="-6.0580077"/>
<marker id="412102699" label="Tater" category="77" did="1879061257" parentZoneId="1879063977" longitude="-44.274708" latitude="-6.0580077"/>
<marker id="412102700" label="Darting North-hawk" category="71" did="1879081495" parentZoneId="1879063977" longitude="-44.274708" latitude="-6.0580077"/>
<marker id="412102701" label="Downs Stalker" category="71" did="1879081494" parentZoneId="1879063977" longitude="-44.274708" latitude="-6.0580077"/>
<marker id="412102702" label="Downs Lynx" category="71" did="1879081493" parentZoneId="1879063977" longitude="-44.274708" latitude="-6.0580077"/>
<marker id="412102703" label="Dourhand Foreman" category="71" did="1879081498" parentZoneId="1879063977" longitude="-44.274708" latitude="-6.0580077"/>
<marker id="412102704" label="Bunch of Raspberries" category="77" did="1879061417" parentZoneId="1879063977" longitude="-44.274708" latitude="-6.0580077"/>
<marker id="412102705" label="Dourhand Ruffian" category="71" did="1879081497" parentZoneId="1879063977" longitude="-44.274708" latitude="-6.0580077"/>
<marker id="412102706" label="Dourhand Miner" category="71" did="1879081496" parentZoneId="1879063977" longitude="-44.274708" latitude="-6.0580077"/>
<marker id="412102707" label="Woad Plant" category="77" did="1879070248" parentZoneId="1879063977" longitude="-44.274708" latitude="-6.0580077"/>
<marker id="412102708" label="Drop of Honey" category="77" did="1879061395" parentZoneId="1879063977" longitude="-43.899597" latitude="-6.1018457"/>
<marker id="412102709" label="Green Onion" category="77" did="1879061259" parentZoneId="1879063977" longitude="-43.899597" latitude="-6.1018457"/>
<marker id="412102710" label="Bunch of Blueberries" category="77" did="1879061342" parentZoneId="1879063977" longitude="-43.899597" latitude="-6.1018457"/>
<marker id="412102711" label="Tater" category="77" did="1879061257" parentZoneId="1879063977" longitude="-43.899597" latitude="-6.1018457"/>
<marker id="412102712" label="Darting North-hawk" category="71" did="1879081495" parentZoneId="1879063977" longitude="-43.899597" latitude="-6.1018457"/>
<marker id="412102713" label="Downs Stalker" category="71" did="1879081494" parentZoneId="1879063977" longitude="-43.899597" latitude="-6.1018457"/>
<marker id="412102714" label="Downs Lynx" category="71" did="1879081493" parentZoneId="1879063977" longitude="-43.899597" latitude="-6.1018457"/>
<marker id="412102715" label="Dourhand Foreman" category="71" did="1879081498" parentZoneId="1879063977" longitude="-43.899597" latitude="-6.1018457"/>
<marker id="412102716" label="Bunch of Raspberries" category="77" did="1879061417" parentZoneId="1879063977" longitude="-43.899597" latitude="-6.1018457"/>
<marker id="412102717" label="Dourhand Ruffian" category="71" did="1879081497" parentZoneId="1879063977" longitude="-43.899597" latitude="-6.1018457"/>
<marker id="412102718" label="Dourhand Miner" category="71" did="1879081496" parentZoneId="1879063977" longitude="-43.899597" latitude="-6.1018457"/>
<marker id="412102719" label="Woad Plant" category="77" did="1879070248" parentZoneId="1879063977" longitude="-43.899597" latitude="-6.1018457"/>
<marker id="412102720" label="Drop of Honey" category="77" did="1879061395" parentZoneId="1879063977" longitude="-44.005486" latitude="-6.6151757"/>
<marker id="412102721" label="Green Onion" category="77" did="1879061259" parentZoneId="1879063977" longitude="-44.005486" latitude="-6.6151757"/>
<marker id="412102722" label="Bunch of Blueberries" category="77" did="1879061342" parentZoneId="1879063977" longitude="-44.005486" latitude="-6.6151757"/>
<marker id="412102723" label="Tater" category="77" did="1879061257" parentZoneId="1879063977" longitude="-44.005486" latitude="-6.6151757"/>
<marker id="412102724" label="Darting North-hawk" category="71" did="1879081495" parentZoneId="1879063977" longitude="-44.005486" latitude="-6.6151757"/>
<marker id="412102725" label="Downs Stalker" category="71" did="1879081494" parentZoneId="1879063977" longitude="-44.005486" latitude="-6.6151757"/>
<marker id="412102726" label="Downs Lynx" category="71" did="1879081493" parentZoneId="1879063977" longitude="-44.005486" latitude="-6.6151757"/>
<marker id="412102727" label="Dourhand Foreman" category="71" did="1879081498" parentZoneId="1879063977" longitude="-44.005486" latitude="-6.6151757"/>
<marker id="412102728" label="Bunch of Raspberries" category="77" did="1879061417" parentZoneId="1879063977" longitude="-44.005486" latitude="-6.6151757"/>
<marker id="412102729" label="Dourhand Ruffian" category="71" did="1879081497" parentZoneId="1879063977" longitude="-44.005486" latitude="-6.6151757"/>
<marker id="412102730" label="Dourhand Miner" category="71" did="1879081496" parentZoneId="1879063977" longitude="-44.005486" latitude="-6.6151757"/>
<marker id="412102731" label="Woad Plant" category="77" did="1879070248" parentZoneId="1879063977" longitude="-44.005486" latitude="-6.6151757"/>
<marker id="412102732" label="Drop of Honey" category="77" did="1879061395" parentZoneId="1879063977" longitude="-43.79677" latitude="-6.602373"/>
<marker id="412102733" label="Green Onion" category="77" did="1879061259" parentZoneId="1879063977" longitude="-43.79677" latitude="-6.602373"/>
<marker id="412102734" label="Bunch of Blueberries" category="77" did="1879061342" parentZoneId="1879063977" longitude="-43.79677" latitude="-6.602373"/>
<marker id="412102735" label="Tater" category="77" did="1879061257" parentZoneId="1879063977" longitude="-43.79677" latitude="-6.602373"/>
<marker id="412102736" label="Darting North-hawk" category="71" did="1879081495" parentZoneId="1879063977" longitude="-43.79677" latitude="-6.602373"/>
<marker id="412102737" label="Downs Stalker" category="71" did="1879081494" parentZoneId="1879063977" longitude="-43.79677" latitude="-6.602373"/>
<marker id="412102738" label="Downs Lynx" category="71" did="1879081493" parentZoneId="1879063977" longitude="-43.79677" latitude="-6.602373"/>
<marker id="412102739" label="Dourhand Foreman" category="71" did="1879081498" parentZoneId="1879063977" longitude="-43.79677" latitude="-6.602373"/>
<marker id="412102740" label="Bunch of Raspberries" category="77" did="1879061417" parentZoneId="1879063977" longitude="-43.79677" latitude="-6.602373"/>
<marker id="412102741" label="Dourhand Ruffian" category="71" did="1879081497" parentZoneId="1879063977" longitude="-43.79677" latitude="-6.602373"/>
<marker id="412102742" label="Dourhand Miner" category="71" did="1879081496" parentZoneId="1879063977" longitude="-43.79677" latitude="-6.602373"/>
<marker id="412102743" label="Woad Plant" category="77" did="1879070248" parentZoneId="1879063977" longitude="-43.79677" latitude="-6.602373"/>
<marker id="412102744" label="Rich Iron Deposit" category="50" did="1879079516" parentZoneId="1879063977" longitude="-44.070274" latitude="-6.272158"/>
<marker id="412102745" label="Rich Gold Deposit" category="50" did="1879087927" parentZoneId="1879063977" longitude="-44.070274" latitude="-6.272158"/>
<marker id="412102746" label="Gold Deposit" category="50" did="1879079517" parentZoneId="1879063977" longitude="-44.070274" latitude="-6.272158"/>
<marker id="412102747" label="Heavy Yew Branches" category="50" did="1879087931" parentZoneId="1879063977" longitude="-44.070274" latitude="-6.272158"/>
<marker id="412102748" label="Bountiful Iron Deposit" category="50" did="1879087933" parentZoneId="1879063977" longitude="-44.070274" latitude="-6.272158"/>
<marker id="412102749" label="Yew Branches" category="50" did="1879079511" parentZoneId="1879063977" longitude="-44.070274" latitude="-6.272158"/>
<marker id="412102750" label="Rich Iron Deposit" category="50" did="1879079516" parentZoneId="1879063977" longitude="-44.22992" latitude="-6.44751"/>
<marker id="412102751" label="Rich Gold Deposit" category="50" did="1879087927" parentZoneId="1879063977" longitude="-44.22992" latitude="-6.44751"/>
<marker id="412102752" label="Gold Deposit" category="50" did="1879079517" parentZoneId="1879063977" longitude="-44.22992" latitude="-6.44751"/>
<marker id="412102753" label="Heavy Yew Branches" category="50" did="1879087931" parentZoneId="1879063977" longitude="-44.22992" latitude="-6.44751"/>
<marker id="412102754" label="Bountiful Iron Deposit" category="50" did="1879087933" parentZoneId="1879063977" longitude="-44.22992" latitude="-6.44751"/>
<marker id="412102755" label="Yew Branches" category="50" did="1879079511" parentZoneId="1879063977" longitude="-44.22992" latitude="-6.44751"/>
<marker id="412102756" label="Rich Iron Deposit" category="50" did="1879079516" parentZoneId="1879063977" longitude="-44.24925" latitude="-6.7396774"/>
<marker id="412102757" label="Rich Gold Deposit" category="50" did="1879087927" parentZoneId="1879063977" longitude="-44.24925" latitude="-6.7396774"/>
<marker id="412102758" label="Gold Deposit" category="50" did="1879079517" parentZoneId="1879063977" longitude="-44.24925" latitude="-6.7396774"/>
<marker id="412102759" label="Heavy Yew Branches" category="50" did="1879087931" parentZoneId="1879063977" longitude="-44.24925" latitude="-6.7396774"/>
<marker id="412102760" label="Bountiful Iron Deposit" category="50" did="1879087933" parentZoneId="1879063977" longitude="-44.24925" latitude="-6.7396774"/>
<marker id="412102761" label="Yew Branches" category="50" did="1879079511" parentZoneId="1879063977" longitude="-44.24925" latitude="-6.7396774"/>
<marker id="412102762" label="Rich Iron Deposit" category="50" did="1879079516" parentZoneId="1879063977" longitude="-44.04864" latitude="-6.457285"/>
<marker id="412102763" label="Rich Gold Deposit" category="50" did="1879087927" parentZoneId="1879063977" longitude="-44.04864" latitude="-6.457285"/>
<marker id="412102764" label="Gold Deposit" category="50" did="1879079517" parentZoneId="1879063977" longitude="-44.04864" latitude="-6.457285"/>
<marker id="412102765" label="Heavy Yew Branches" category="50" did="1879087931" parentZoneId="1879063977" longitude="-44.04864" latitude="-6.457285"/>
<marker id="412102766" label="Bountiful Iron Deposit" category="50" did="1879087933" parentZoneId="1879063977" longitude="-44.04864" latitude="-6.457285"/>
<marker id="412102767" label="Yew Branches" category="50" did="1879079511" parentZoneId="1879063977" longitude="-44.04864" latitude="-6.457285"/>
<marker id="412102768" label="Rich Iron Deposit" category="50" did="1879079516" parentZoneId="1879063977" longitude="-43.756504" latitude="-6.7732906"/>
<marker id="412102769" label="Rich Gold Deposit" category="50" did="1879087927" parentZoneId="1879063977" longitude="-43.756504" latitude="-6.7732906"/>
<marker id="412102770" label="Gold Deposit" category="50" did="1879079517" parentZoneId="1879063977" longitude="-43.756504" latitude="-6.7732906"/>
<marker id="412102771" label="Heavy Yew Branches" category="50" did="1879087931" parentZoneId="1879063977" longitude="-43.756504" latitude="-6.7732906"/>
<marker id="412102772" label="Bountiful Iron Deposit" category="50" did="1879087933" parentZoneId="1879063977" longitude="-43.756504" latitude="-6.7732906"/>
<marker id="412102773" label="Yew Branches" category="50" did="1879079511" parentZoneId="1879063977" longitude="-43.756504" latitude="-6.7732906"/>
<marker id="412102774" label="Rich Iron Deposit" category="50" did="1879079516" parentZoneId="1879063977" longitude="-44.240517" latitude="-6.553984"/>
<marker id="412102775" label="Rich Gold Deposit" category="50" did="1879087927" parentZoneId="1879063977" longitude="-44.240517" latitude="-6.553984"/>
<marker id="412102776" label="Gold Deposit" category="50" did="1879079517" parentZoneId="1879063977" longitude="-44.240517" latitude="-6.553984"/>
<marker id="412102777" label="Heavy Yew Branches" category="50" did="1879087931" parentZoneId="1879063977" longitude="-44.240517" latitude="-6.553984"/>
<marker id="412102778" label="Bountiful Iron Deposit" category="50" did="1879087933" parentZoneId="1879063977" longitude="-44.240517" latitude="-6.553984"/>
<marker id="412102779" label="Yew Branches" category="50" did="1879079511" parentZoneId="1879063977" longitude="-44.240517" latitude="-6.553984"/>
<marker id="412102780" label="Rich Iron Deposit" category="50" did="1879079516" parentZoneId="1879063977" longitude="-44.04325" latitude="-6.6838965"/>
<marker id="412102781" label="Rich Gold Deposit" category="50" did="1879087927" parentZoneId="1879063977" longitude="-44.04325" latitude="-6.6838965"/>
<marker id="412102782" label="Gold Deposit" category="50" did="1879079517" parentZoneId="1879063977" longitude="-44.04325" latitude="-6.6838965"/>
<marker id="412102783" label="Heavy Yew Branches" category="50" did="1879087931" parentZoneId="1879063977" longitude="-44.04325" latitude="-6.6838965"/>
<marker id="412102784" label="Bountiful Iron Deposit" category="50" did="1879087933" parentZoneId="1879063977" longitude="-44.04325" latitude="-6.6838965"/>
<marker id="412102785" label="Yew Branches" category="50" did="1879079511" parentZoneId="1879063977" longitude="-44.04325" latitude="-6.6838965"/>
<marker id="412102786" label="Rich Iron Deposit" category="50" did="1879079516" parentZoneId="1879063977" longitude="-43.657654" latitude="-6.7362695"/>
<marker id="412102787" label="Rich Gold Deposit" category="50" did="1879087927" parentZoneId="1879063977" longitude="-43.657654" latitude="-6.7362695"/>
<marker id="412102788" label="Gold Deposit" category="50" did="1879079517" parentZoneId="1879063977" longitude="-43.657654" latitude="-6.7362695"/>
<marker id="412102789" label="Heavy Yew Branches" category="50" did="1879087931" parentZoneId="1879063977" longitude="-43.657654" latitude="-6.7362695"/>
<marker id="412102790" label="Bountiful Iron Deposit" category="50" did="1879087933" parentZoneId="1879063977" longitude="-43.657654" latitude="-6.7362695"/>
<marker id="412102791" label="Yew Branches" category="50" did="1879079511" parentZoneId="1879063977" longitude="-43.657654" latitude="-6.7362695"/>
<marker id="412102792" label="Rich Iron Deposit" category="50" did="1879079516" parentZoneId="1879063977" longitude="-43.896297" latitude="-6.446416"/>
<marker id="412102793" label="Rich Gold Deposit" category="50" did="1879087927" parentZoneId="1879063977" longitude="-43.896297" latitude="-6.446416"/>
<marker id="412102794" label="Gold Deposit" category="50" did="1879079517" parentZoneId="1879063977" longitude="-43.896297" latitude="-6.446416"/>
<marker id="412102795" label="Heavy Yew Branches" category="50" did="1879087931" parentZoneId="1879063977" longitude="-43.896297" latitude="-6.446416"/>
<marker id="412102796" label="Bountiful Iron Deposit" category="50" did="1879087933" parentZoneId="1879063977" longitude="-43.896297" latitude="-6.446416"/>
<marker id="412102797" label="Yew Branches" category="50" did="1879079511" parentZoneId="1879063977" longitude="-43.896297" latitude="-6.446416"/>
<marker id="412102798" label="Drop of Honey" category="77" did="1879061395" parentZoneId="1879063977" longitude="-44.157433" latitude="-6.275879"/>
<marker id="412102799" label="Green Onion" category="77" did="1879061259" parentZoneId="1879063977" longitude="-44.157433" latitude="-6.275879"/>
<marker id="412102800" label="Bunch of Blueberries" category="77" did="1879061342" parentZoneId="1879063977" longitude="-44.157433" latitude="-6.275879"/>
<marker id="412102801" label="Tater" category="77" did="1879061257" parentZoneId="1879063977" longitude="-44.157433" latitude="-6.275879"/>
<marker id="412102802" label="Darting North-hawk" category="71" did="1879081495" parentZoneId="1879063977" longitude="-44.157433" latitude="-6.275879"/>
<marker id="412102803" label="Downs Stalker" category="71" did="1879081494" parentZoneId="1879063977" longitude="-44.157433" latitude="-6.275879"/>
<marker id="412102804" label="Downs Lynx" category="71" did="1879081493" parentZoneId="1879063977" longitude="-44.157433" latitude="-6.275879"/>
<marker id="412102805" label="Dourhand Foreman" category="71" did="1879081498" parentZoneId="1879063977" longitude="-44.157433" latitude="-6.275879"/>
<marker id="412102806" label="Bunch of Raspberries" category="77" did="1879061417" parentZoneId="1879063977" longitude="-44.157433" latitude="-6.275879"/>
<marker id="412102807" label="Dourhand Ruffian" category="71" did="1879081497" parentZoneId="1879063977" longitude="-44.157433" latitude="-6.275879"/>
<marker id="412102808" label="Dourhand Miner" category="71" did="1879081496" parentZoneId="1879063977" longitude="-44.157433" latitude="-6.275879"/>
<marker id="412102809" label="Woad Plant" category="77" did="1879070248" parentZoneId="1879063977" longitude="-44.157433" latitude="-6.275879"/>
<marker id="412102810" label="Drop of Honey" category="77" did="1879061395" parentZoneId="1879063977" longitude="-44.198845" latitude="-6.231357"/>
<marker id="412102811" label="Green Onion" category="77" did="1879061259" parentZoneId="1879063977" longitude="-44.198845" latitude="-6.231357"/>
<marker id="412102812" label="Bunch of Blueberries" category="77" did="1879061342" parentZoneId="1879063977" longitude="-44.198845" latitude="-6.231357"/>
<marker id="412102813" label="Tater" category="77" did="1879061257" parentZoneId="1879063977" longitude="-44.198845" latitude="-6.231357"/>
<marker id="412102814" label="Darting North-hawk" category="71" did="1879081495" parentZoneId="1879063977" longitude="-44.198845" latitude="-6.231357"/>
<marker id="412102815" label="Downs Stalker" category="71" did="1879081494" parentZoneId="1879063977" longitude="-44.198845" latitude="-6.231357"/>
<marker id="412102816" label="Downs Lynx" category="71" did="1879081493" parentZoneId="1879063977" longitude="-44.198845" latitude="-6.231357"/>
<marker id="412102817" label="Dourhand Foreman" category="71" did="1879081498" parentZoneId="1879063977" longitude="-44.198845" latitude="-6.231357"/>
<marker id="412102818" label="Bunch of Raspberries" category="77" did="1879061417" parentZoneId="1879063977" longitude="-44.198845" latitude="-6.231357"/>
<marker id="412102819" label="Dourhand Ruffian" category="71" did="1879081497" parentZoneId="1879063977" longitude="-44.198845" latitude="-6.231357"/>
<marker id="412102820" label="Dourhand Miner" category="71" did="1879081496" parentZoneId="1879063977" longitude="-44.198845" latitude="-6.231357"/>
<marker id="412102821" label="Woad Plant" category="77" did="1879070248" parentZoneId="1879063977" longitude="-44.198845" latitude="-6.231357"/>
<marker id="412102822" label="Drop of Honey" category="77" did="1879061395" parentZoneId="1879063977" longitude="-44.117214" latitude="-6.2053223"/>
<marker id="412102823" label="Green Onion" category="77" did="1879061259" parentZoneId="1879063977" longitude="-44.117214" latitude="-6.2053223"/>
<marker id="412102824" label="Bunch of Blueberries" category="77" did="1879061342" parentZoneId="1879063977" longitude="-44.117214" latitude="-6.2053223"/>
<marker id="412102825" label="Tater" category="77" did="1879061257" parentZoneId="1879063977" longitude="-44.117214" latitude="-6.2053223"/>
<marker id="412102826" label="Darting North-hawk" category="71" did="1879081495" parentZoneId="1879063977" longitude="-44.117214" latitude="-6.2053223"/>
<marker id="412102827" label="Downs Stalker" category="71" did="1879081494" parentZoneId="1879063977" longitude="-44.117214" latitude="-6.2053223"/>
<marker id="412102828" label="Downs Lynx" category="71" did="1879081493" parentZoneId="1879063977" longitude="-44.117214" latitude="-6.2053223"/>
<marker id="412102829" label="Dourhand Foreman" category="71" did="1879081498" parentZoneId="1879063977" longitude="-44.117214" latitude="-6.2053223"/>
<marker id="412102830" label="Bunch of Raspberries" category="77" did="1879061417" parentZoneId="1879063977" longitude="-44.117214" latitude="-6.2053223"/>
<marker id="412102831" label="Dourhand Ruffian" category="71" did="1879081497" parentZoneId="1879063977" longitude="-44.117214" latitude="-6.2053223"/>
<marker id="412102832" label="Dourhand Miner" category="71" did="1879081496" parentZoneId="1879063977" longitude="-44.117214" latitude="-6.2053223"/>
<marker id="412102833" label="Woad Plant" category="77" did="1879070248" parentZoneId="1879063977" longitude="-44.117214" latitude="-6.2053223"/>
<marker id="412102834" label="Drop of Honey" category="77" did="1879061395" parentZoneId="1879063977" longitude="-44.157276" latitude="-6.1603904"/>
<marker id="412102835" label="Green Onion" category="77" did="1879061259" parentZoneId="1879063977" longitude="-44.157276" latitude="-6.1603904"/>
<marker id="412102836" label="Bunch of Blueberries" category="77" did="1879061342" parentZoneId="1879063977" longitude="-44.157276" latitude="-6.1603904"/>
<marker id="412102837" label="Tater" category="77" did="1879061257" parentZoneId="1879063977" longitude="-44.157276" latitude="-6.1603904"/>
<marker id="412102838" label="Darting North-hawk" category="71" did="1879081495" parentZoneId="1879063977" longitude="-44.157276" latitude="-6.1603904"/>
<marker id="412102839" label="Downs Stalker" category="71" did="1879081494" parentZoneId="1879063977" longitude="-44.157276" latitude="-6.1603904"/>
<marker id="412102840" label="Downs Lynx" category="71" did="1879081493" parentZoneId="1879063977" longitude="-44.157276" latitude="-6.1603904"/>
<marker id="412102841" label="Dourhand Foreman" category="71" did="1879081498" parentZoneId="1879063977" longitude="-44.157276" latitude="-6.1603904"/>
<marker id="412102842" label="Bunch of Raspberries" category="77" did="1879061417" parentZoneId="1879063977" longitude="-44.157276" latitude="-6.1603904"/>
<marker id="412102843" label="Dourhand Ruffian" category="71" did="1879081497" parentZoneId="1879063977" longitude="-44.157276" latitude="-6.1603904"/>
<marker id="412102844" label="Dourhand Miner" category="71" did="1879081496" parentZoneId="1879063977" longitude="-44.157276" latitude="-6.1603904"/>
<marker id="412102845" label="Woad Plant" category="77" did="1879070248" parentZoneId="1879063977" longitude="-44.157276" latitude="-6.1603904"/>
<marker id="412102846" label="Drop of Honey" category="77" did="1879061395" parentZoneId="1879063977" longitude="-44.35038" latitude="-6.7308397"/>
<marker id="412102847" label="Green Onion" category="77" did="1879061259" parentZoneId="1879063977" longitude="-44.35038" latitude="-6.7308397"/>
<marker id="412102848" label="Bunch of Blueberries" category="77" did="1879061342" parentZoneId="1879063977" longitude="-44.35038" latitude="-6.7308397"/>
<marker id="412102849" label="Tater" category="77" did="1879061257" parentZoneId="1879063977" longitude="-44.35038" latitude="-6.7308397"/>
<marker id="412102850" label="Darting North-hawk" category="71" did="1879081495" parentZoneId="1879063977" longitude="-44.35038" latitude="-6.7308397"/>
<marker id="412102851" label="Downs Stalker" category="71" did="1879081494" parentZoneId="1879063977" longitude="-44.35038" latitude="-6.7308397"/>
<marker id="412102852" label="Downs Lynx" category="71" did="1879081493" parentZoneId="1879063977" longitude="-44.35038" latitude="-6.7308397"/>
<marker id="412102853" label="Dourhand Foreman" category="71" did="1879081498" parentZoneId="1879063977" longitude="-44.35038" latitude="-6.7308397"/>
<marker id="412102854" label="Bunch of Raspberries" category="77" did="1879061417" parentZoneId="1879063977" longitude="-44.35038" latitude="-6.7308397"/>
<marker id="412102855" label="Dourhand Ruffian" category="71" did="1879081497" parentZoneId="1879063977" longitude="-44.35038" latitude="-6.7308397"/>
<marker id="412102856" label="Dourhand Miner" category="71" did="1879081496" parentZoneId="1879063977" longitude="-44.35038" latitude="-6.7308397"/>
<marker id="412102857" label="Woad Plant" category="77" did="1879070248" parentZoneId="1879063977" longitude="-44.35038" latitude="-6.7308397"/>
<marker id="412102858" label="Drop of Honey" category="77" did="1879061395" parentZoneId="1879063977" longitude="-43.6725" latitude="-6.2408886"/>
<marker id="412102859" label="Green Onion" category="77" did="1879061259" parentZoneId="1879063977" longitude="-43.6725" latitude="-6.2408886"/>
<marker id="412102860" label="Bunch of Blueberries" category="77" did="1879061342" parentZoneId="1879063977" longitude="-43.6725" latitude="-6.2408886"/>
<marker id="412102861" label="Tater" category="77" did="1879061257" parentZoneId="1879063977" longitude="-43.6725" latitude="-6.2408886"/>
<marker id="412102862" label="Darting North-hawk" category="71" did="1879081495" parentZoneId="1879063977" longitude="-43.6725" latitude="-6.2408886"/>
<marker id="412102863" label="Downs Stalker" category="71" did="1879081494" parentZoneId="1879063977" longitude="-43.6725" latitude="-6.2408886"/>
<marker id="412102864" label="Downs Lynx" category="71" did="1879081493" parentZoneId="1879063977" longitude="-43.6725" latitude="-6.2408886"/>
<marker id="412102865" label="Dourhand Foreman" category="71" did="1879081498" parentZoneId="1879063977" longitude="-43.6725" latitude="-6.2408886"/>
<marker id="412102866" label="Bunch of Raspberries" category="77" did="1879061417" parentZoneId="1879063977" longitude="-43.6725" latitude="-6.2408886"/>
<marker id="412102867" label="Dourhand Ruffian" category="71" did="1879081497" parentZoneId="1879063977" longitude="-43.6725" latitude="-6.2408886"/>
<marker id="412102868" label="Dourhand Miner" category="71" did="1879081496" parentZoneId="1879063977" longitude="-43.6725" latitude="-6.2408886"/>
<marker id="412102869" label="Woad Plant" category="77" did="1879070248" parentZoneId="1879063977" longitude="-43.6725" latitude="-6.2408886"/>
<marker id="412102870" label="White-footed Fox" category="78" did="1879080468" parentZoneId="1879063977" longitude="-44.289795" latitude="-6.683496"/>
<marker id="412102871" label="Northern Squirrel" category="78" did="1879080469" parentZoneId="1879063977" longitude="-44.289795" latitude="-6.683496"/>
<marker id="412102872" label="Northern Plains Buck" category="78" did="1879080470" parentZoneId="1879063977" longitude="-44.289795" latitude="-6.683496"/>
<marker id="412102873" label="Northern Plains Doe" category="78" did="1879080467" parentZoneId="1879063977" longitude="-44.289795" latitude="-6.683496"/>
<marker id="412102874" label="White-footed Fox" category="78" did="1879080468" parentZoneId="1879063977" longitude="-44.345684" latitude="-6.4758105"/>
<marker id="412102875" label="Northern Squirrel" category="78" did="1879080469" parentZoneId="1879063977" longitude="-44.345684" latitude="-6.4758105"/>
<marker id="412102876" label="Northern Plains Buck" category="78" did="1879080470" parentZoneId="1879063977" longitude="-44.345684" latitude="-6.4758105"/>
<marker id="412102877" label="Northern Plains Doe" category="78" did="1879080467" parentZoneId="1879063977" longitude="-44.345684" latitude="-6.4758105"/>
<marker id="412102878" label="White-footed Fox" category="78" did="1879080468" parentZoneId="1879063977" longitude="-44.06111" latitude="-6.5087204"/>
<marker id="412102879" label="Northern Squirrel" category="78" did="1879080469" parentZoneId="1879063977" longitude="-44.06111" latitude="-6.5087204"/>
<marker id="412102880" label="Northern Plains Buck" category="78" did="1879080470" parentZoneId="1879063977" longitude="-44.06111" latitude="-6.5087204"/>
<marker id="412102881" label="Northern Plains Doe" category="78" did="1879080467" parentZoneId="1879063977" longitude="-44.06111" latitude="-6.5087204"/>
<marker id="412102882" label="White-footed Fox" category="78" did="1879080468" parentZoneId="1879063977" longitude="-43.94496" latitude="-6.7233787"/>
<marker id="412102883" label="Northern Squirrel" category="78" did="1879080469" parentZoneId="1879063977" longitude="-43.94496" latitude="-6.7233787"/>
<marker id="412102884" label="Northern Plains Buck" category="78" did="1879080470" parentZoneId="1879063977" longitude="-43.94496" latitude="-6.7233787"/>
<marker id="412102885" label="Northern Plains Doe" category="78" did="1879080467" parentZoneId="1879063977" longitude="-43.94496" latitude="-6.7233787"/>
<marker id="412102886" label="White-footed Fox" category="78" did="1879080468" parentZoneId="1879063977" longitude="-44.131443" latitude="-6.0911036"/>
<marker id="412102887" label="Northern Squirrel" category="78" did="1879080469" parentZoneId="1879063977" longitude="-44.131443" latitude="-6.0911036"/>
<marker id="412102888" label="Northern Plains Buck" category="78" did="1879080470" parentZoneId="1879063977" longitude="-44.131443" latitude="-6.0911036"/>
<marker id="412102889" label="Northern Plains Doe" category="78" did="1879080467" parentZoneId="1879063977" longitude="-44.131443" latitude="-6.0911036"/>
<marker id="412102890" label="White-footed Fox" category="78" did="1879080468" parentZoneId="1879063977" longitude="-44.327957" latitude="-6.0838866"/>
<marker id="412102891" label="Northern Squirrel" category="78" did="1879080469" parentZoneId="1879063977" longitude="-44.327957" latitude="-6.0838866"/>
<marker id="412102892" label="Northern Plains Buck" category="78" did="1879080470" parentZoneId="1879063977" longitude="-44.327957" latitude="-6.0838866"/>
<marker id="412102893" label="Northern Plains Doe" category="78" did="1879080467" parentZoneId="1879063977" longitude="-44.327957" latitude="-6.0838866"/>
<marker id="412102894" label="White-footed Fox" category="78" did="1879080468" parentZoneId="1879063977" longitude="-43.65003" latitude="-6.5010448"/>
<marker id="412102895" label="Northern Squirrel" category="78" did="1879080469" parentZoneId="1879063977" longitude="-43.65003" latitude="-6.5010448"/>
<marker id="412102896" label="Northern Plains Buck" category="78" did="1879080470" parentZoneId="1879063977" longitude="-43.65003" latitude="-6.5010448"/>
<marker id="412102897" label="Northern Plains Doe" category="78" did="1879080467" parentZoneId="1879063977" longitude="-43.65003" latitude="-6.5010448"/>
<marker id="412102898" label="White-footed Fox" category="78" did="1879080468" parentZoneId="1879063977" longitude="-43.88914" latitude="-6.0425"/>
<marker id="412102899" label="Northern Squirrel" category="78" did="1879080469" parentZoneId="1879063977" longitude="-43.88914" latitude="-6.0425"/>
<marker id="412102900" label="Northern Plains Buck" category="78" did="1879080470" parentZoneId="1879063977" longitude="-43.88914" latitude="-6.0425"/>
<marker id="412102901" label="Northern Plains Doe" category="78" did="1879080467" parentZoneId="1879063977" longitude="-43.88914" latitude="-6.0425"/>
<marker id="412155904" label="White-footed Hare" category="78" did="1879080480" parentZoneId="1879063978" longitude="-43.3395" latitude="-8.8185835"/>
<marker id="412155905" label="Downs Hunter" category="71" did="1879081466" parentZoneId="1879063978" longitude="-43.36413" latitude="-8.910205"/>
<marker id="412155906" label="Hunting North-hawk" category="71" did="1879081467" parentZoneId="1879063978" longitude="-43.36413" latitude="-8.910205"/>
<marker id="412155907" label="Downs Wildcat" category="71" did="1879081465" parentZoneId="1879063978" longitude="-43.36413" latitude="-8.910205"/>
<marker id="412155908" label="Hungry Downs-bear" category="71" did="1879081468" parentZoneId="1879063978" longitude="-43.36413" latitude="-8.910205"/>
<marker id="412155909" label="Young Downs-bear" category="71" did="1879081469" parentZoneId="1879063978" longitude="-43.36413" latitude="-8.910205"/>
