<?xml version="1.0" encoding="UTF-8"?><markers>
<marker id="683687936" label="Goat" category="78" did="1879358942" parentZoneId="1879368366" longitude="-44.18082" latitude="32.961727"/>
<marker id="683687937" label="Heavy Thornholt Branches" category="50" did="1879370488" parentZoneId="1879368366" longitude="-43.76528" latitude="33.08572"/>
<marker id="683687938" label="Thornholt Branches" category="50" did="1879370486" parentZoneId="1879368366" longitude="-43.76528" latitude="33.08572"/>
<marker id="683687939" label="Rich Ironfold Skarn Deposit" category="50" did="1879370484" parentZoneId="1879368366" longitude="-43.76528" latitude="33.08572"/>
<marker id="683687940" label="Ironfold Skarn Deposit" category="50" did="1879370483" parentZoneId="1879368366" longitude="-43.76528" latitude="33.08572"/>
<marker id="683687941" label="Taurog Warrior" category="71" did="1879369931" parentZoneId="1879368366" longitude="-44.193428" latitude="32.966045"/>
<marker id="683687942" label="Mithrin Wolf" category="71" did="1879369933" parentZoneId="1879368366" longitude="-44.193428" latitude="32.966045"/>
<marker id="683687943" label="Grey-mountain Ram" category="71" did="1879369934" parentZoneId="1879368366" longitude="-44.193428" latitude="32.966045"/>
<marker id="683687944" label="Mithrin Lath-bear" category="71" did="1879369923" parentZoneId="1879368366" longitude="-44.193428" latitude="32.966045"/>
<marker id="683687945" label="Taurog Elder" category="71" did="1879369925" parentZoneId="1879368366" longitude="-44.193428" latitude="32.966045"/>
<marker id="683687946" label="Mithrin Worm" category="71" did="1879369924" parentZoneId="1879368366" longitude="-44.193428" latitude="32.966045"/>
<marker id="683687947" label="Grey Hawk" category="71" did="1879369918" parentZoneId="1879368366" longitude="-44.193428" latitude="32.966045"/>
<marker id="683687948" label="Mountain-hart" category="71" did="1879370023" parentZoneId="1879368366" longitude="-44.193428" latitude="32.966045"/>
<marker id="683687949" label="Mountain-hind" category="71" did="1879370024" parentZoneId="1879368366" longitude="-44.193428" latitude="32.966045"/>
<marker id="683687950" label="Northern Viper" category="78" did="1879369242" parentZoneId="1879368366" longitude="-44.18082" latitude="32.961727"/>
<marker id="683687951" label="Mithrin Wolverine" category="71" did="1879378384" parentZoneId="1879368366" longitude="-44.193428" latitude="32.966045"/>
<marker id="683687952" label="Northern Fox" category="78" did="1879363816" parentZoneId="1879368366" longitude="-44.18082" latitude="32.961727"/>
<marker id="683687953" label="Northern Hare" category="78" did="1879363821" parentZoneId="1879368366" longitude="-44.18082" latitude="32.961727"/>
<marker id="683687954" label="Cold-drake" category="71" did="1879369929" parentZoneId="1879368366" longitude="-43.965282" latitude="32.54827"/>
<marker id="683687955" label="Grey Hawk" category="71" did="1879369918" parentZoneId="1879368366" longitude="-43.965282" latitude="32.54827"/>
<marker id="683687956" label="Taurog Warrior" category="71" did="1879369931" parentZoneId="1879368366" longitude="-43.965282" latitude="32.54827"/>
<marker id="683687957" label="Mountain-hart" category="71" did="1879370023" parentZoneId="1879368366" longitude="-43.965282" latitude="32.54827"/>
<marker id="683687958" label="Mithrin Wolf" category="71" did="1879369933" parentZoneId="1879368366" longitude="-43.965282" latitude="32.54827"/>
<marker id="683687959" label="Mithrin Wolverine" category="71" did="1879378384" parentZoneId="1879368366" longitude="-43.965282" latitude="32.54827"/>
<marker id="683687960" label="Grey-mountain Ram" category="71" did="1879369934" parentZoneId="1879368366" longitude="-43.965282" latitude="32.54827"/>
<marker id="683687961" label="Mithrin Lath-bear" category="71" did="1879369923" parentZoneId="1879368366" longitude="-43.965282" latitude="32.54827"/>
<marker id="683687962" label="Mountain-hind" category="71" did="1879370024" parentZoneId="1879368366" longitude="-43.965282" latitude="32.54827"/>
<marker id="683687963" label="Taurog Elder" category="71" did="1879369925" parentZoneId="1879368366" longitude="-43.965282" latitude="32.54827"/>
<marker id="683687964" label="Mithrin Worm" category="71" did="1879369924" parentZoneId="1879368366" longitude="-43.965282" latitude="32.54827"/>
<marker id="683687965" label="Young Cold-drake" category="71" did="1879369926" parentZoneId="1879368366" longitude="-43.965282" latitude="32.54827"/>
<marker id="683687966" label="Cold-drake" category="71" did="1879369929" parentZoneId="1879368366" longitude="-43.97327" latitude="32.7529"/>
<marker id="683687967" label="Grey Hawk" category="71" did="1879369918" parentZoneId="1879368366" longitude="-43.97327" latitude="32.7529"/>
<marker id="683687968" label="Taurog Warrior" category="71" did="1879369931" parentZoneId="1879368366" longitude="-43.97327" latitude="32.7529"/>
<marker id="683687969" label="Mountain-hart" category="71" did="1879370023" parentZoneId="1879368366" longitude="-43.97327" latitude="32.7529"/>
<marker id="683687970" label="Mithrin Wolf" category="71" did="1879369933" parentZoneId="1879368366" longitude="-43.97327" latitude="32.7529"/>
<marker id="683687971" label="Mithrin Wolverine" category="71" did="1879378384" parentZoneId="1879368366" longitude="-43.97327" latitude="32.7529"/>
<marker id="683687972" label="Grey-mountain Ram" category="71" did="1879369934" parentZoneId="1879368366" longitude="-43.97327" latitude="32.7529"/>
<marker id="683687973" label="Mithrin Lath-bear" category="71" did="1879369923" parentZoneId="1879368366" longitude="-43.97327" latitude="32.7529"/>
<marker id="683687974" label="Mountain-hind" category="71" did="1879370024" parentZoneId="1879368366" longitude="-43.97327" latitude="32.7529"/>
<marker id="683687975" label="Taurog Elder" category="71" did="1879369925" parentZoneId="1879368366" longitude="-43.97327" latitude="32.7529"/>
<marker id="683687976" label="Mithrin Worm" category="71" did="1879369924" parentZoneId="1879368366" longitude="-43.97327" latitude="32.7529"/>
<marker id="683687977" label="Young Cold-drake" category="71" did="1879369926" parentZoneId="1879368366" longitude="-43.97327" latitude="32.7529"/>
<marker id="683687978" label="Cold-drake" category="71" did="1879369929" parentZoneId="1879368366" longitude="-44.073513" latitude="32.963787"/>
<marker id="683687979" label="Grey Hawk" category="71" did="1879369918" parentZoneId="1879368366" longitude="-44.073513" latitude="32.963787"/>
<marker id="683687980" label="Taurog Warrior" category="71" did="1879369931" parentZoneId="1879368366" longitude="-44.073513" latitude="32.963787"/>
<marker id="683687981" label="Mountain-hart" category="71" did="1879370023" parentZoneId="1879368366" longitude="-44.073513" latitude="32.963787"/>
<marker id="683687982" label="Mithrin Wolf" category="71" did="1879369933" parentZoneId="1879368366" longitude="-44.073513" latitude="32.963787"/>
<marker id="683687983" label="Mithrin Wolverine" category="71" did="1879378384" parentZoneId="1879368366" longitude="-44.073513" latitude="32.963787"/>
<marker id="683687984" label="Grey-mountain Ram" category="71" did="1879369934" parentZoneId="1879368366" longitude="-44.073513" latitude="32.963787"/>
<marker id="683687985" label="Mithrin Lath-bear" category="71" did="1879369923" parentZoneId="1879368366" longitude="-44.073513" latitude="32.963787"/>
<marker id="683687986" label="Mountain-hind" category="71" did="1879370024" parentZoneId="1879368366" longitude="-44.073513" latitude="32.963787"/>
<marker id="683687987" label="Taurog Elder" category="71" did="1879369925" parentZoneId="1879368366" longitude="-44.073513" latitude="32.963787"/>
<marker id="683687988" label="Mithrin Worm" category="71" did="1879369924" parentZoneId="1879368366" longitude="-44.073513" latitude="32.963787"/>
<marker id="683687989" label="Young Cold-drake" category="71" did="1879369926" parentZoneId="1879368366" longitude="-44.073513" latitude="32.963787"/>
<marker id="683687990" label="Cold-drake" category="71" did="1879369929" parentZoneId="1879368366" longitude="-44.225536" latitude="33.11788"/>
<marker id="683687991" label="Grey Hawk" category="71" did="1879369918" parentZoneId="1879368366" longitude="-44.225536" latitude="33.11788"/>
<marker id="683687992" label="Taurog Warrior" category="71" did="1879369931" parentZoneId="1879368366" longitude="-44.225536" latitude="33.11788"/>
<marker id="683687993" label="Mountain-hart" category="71" did="1879370023" parentZoneId="1879368366" longitude="-44.225536" latitude="33.11788"/>
<marker id="683687994" label="Mithrin Wolf" category="71" did="1879369933" parentZoneId="1879368366" longitude="-44.225536" latitude="33.11788"/>
<marker id="683687995" label="Mithrin Wolverine" category="71" did="1879378384" parentZoneId="1879368366" longitude="-44.225536" latitude="33.11788"/>
<marker id="683687996" label="Grey-mountain Ram" category="71" did="1879369934" parentZoneId="1879368366" longitude="-44.225536" latitude="33.11788"/>
<marker id="683687997" label="Mithrin Lath-bear" category="71" did="1879369923" parentZoneId="1879368366" longitude="-44.225536" latitude="33.11788"/>
<marker id="683687998" label="Mountain-hind" category="71" did="1879370024" parentZoneId="1879368366" longitude="-44.225536" latitude="33.11788"/>
<marker id="683687999" label="Taurog Elder" category="71" did="1879369925" parentZoneId="1879368366" longitude="-44.225536" latitude="33.11788"/>
<marker id="683688000" label="Mithrin Worm" category="71" did="1879369924" parentZoneId="1879368366" longitude="-44.225536" latitude="33.11788"/>
<marker id="683688001" label="Young Cold-drake" category="71" did="1879369926" parentZoneId="1879368366" longitude="-44.225536" latitude="33.11788"/>
<marker id="683688002" label="Cold-drake" category="71" did="1879369929" parentZoneId="1879368366" longitude="-44.046093" latitude="33.159237"/>
<marker id="683688003" label="Grey Hawk" category="71" did="1879369918" parentZoneId="1879368366" longitude="-44.046093" latitude="33.159237"/>
<marker id="683688004" label="Taurog Warrior" category="71" did="1879369931" parentZoneId="1879368366" longitude="-44.046093" latitude="33.159237"/>
<marker id="683688005" label="Mountain-hart" category="71" did="1879370023" parentZoneId="1879368366" longitude="-44.046093" latitude="33.159237"/>
<marker id="683688006" label="Mithrin Wolf" category="71" did="1879369933" parentZoneId="1879368366" longitude="-44.046093" latitude="33.159237"/>
<marker id="683688007" label="Mithrin Wolverine" category="71" did="1879378384" parentZoneId="1879368366" longitude="-44.046093" latitude="33.159237"/>
<marker id="683688008" label="Grey-mountain Ram" category="71" did="1879369934" parentZoneId="1879368366" longitude="-44.046093" latitude="33.159237"/>
<marker id="683688009" label="Mithrin Lath-bear" category="71" did="1879369923" parentZoneId="1879368366" longitude="-44.046093" latitude="33.159237"/>
<marker id="683688010" label="Mountain-hind" category="71" did="1879370024" parentZoneId="1879368366" longitude="-44.046093" latitude="33.159237"/>
<marker id="683688011" label="Taurog Elder" category="71" did="1879369925" parentZoneId="1879368366" longitude="-44.046093" latitude="33.159237"/>
<marker id="683688012" label="Mithrin Worm" category="71" did="1879369924" parentZoneId="1879368366" longitude="-44.046093" latitude="33.159237"/>
<marker id="683688013" label="Young Cold-drake" category="71" did="1879369926" parentZoneId="1879368366" longitude="-44.046093" latitude="33.159237"/>
<marker id="683688014" label="Cold-drake" category="71" did="1879369929" parentZoneId="1879368366" longitude="-43.858788" latitude="33.1383"/>
<marker id="683688015" label="Grey Hawk" category="71" did="1879369918" parentZoneId="1879368366" longitude="-43.858788" latitude="33.1383"/>
<marker id="683688016" label="Taurog Warrior" category="71" did="1879369931" parentZoneId="1879368366" longitude="-43.858788" latitude="33.1383"/>
<marker id="683688017" label="Mountain-hart" category="71" did="1879370023" parentZoneId="1879368366" longitude="-43.858788" latitude="33.1383"/>
<marker id="683688018" label="Mithrin Wolf" category="71" did="1879369933" parentZoneId="1879368366" longitude="-43.858788" latitude="33.1383"/>
<marker id="683688019" label="Mithrin Wolverine" category="71" did="1879378384" parentZoneId="1879368366" longitude="-43.858788" latitude="33.1383"/>
<marker id="683688020" label="Grey-mountain Ram" category="71" did="1879369934" parentZoneId="1879368366" longitude="-43.858788" latitude="33.1383"/>
<marker id="683688021" label="Mithrin Lath-bear" category="71" did="1879369923" parentZoneId="1879368366" longitude="-43.858788" latitude="33.1383"/>
<marker id="683688022" label="Mountain-hind" category="71" did="1879370024" parentZoneId="1879368366" longitude="-43.858788" latitude="33.1383"/>
<marker id="683688023" label="Taurog Elder" category="71" did="1879369925" parentZoneId="1879368366" longitude="-43.858788" latitude="33.1383"/>
<marker id="683688024" label="Mithrin Worm" category="71" did="1879369924" parentZoneId="1879368366" longitude="-43.858788" latitude="33.1383"/>
<marker id="683688025" label="Young Cold-drake" category="71" did="1879369926" parentZoneId="1879368366" longitude="-43.858788" latitude="33.1383"/>
<marker id="683688026" label="Cold-drake" category="71" did="1879369929" parentZoneId="1879368366" longitude="-43.70489" latitude="33.102566"/>
<marker id="683688027" label="Grey Hawk" category="71" did="1879369918" parentZoneId="1879368366" longitude="-43.70489" latitude="33.102566"/>
<marker id="683688028" label="Taurog Warrior" category="71" did="1879369931" parentZoneId="1879368366" longitude="-43.70489" latitude="33.102566"/>
<marker id="683688029" label="Mountain-hart" category="71" did="1879370023" parentZoneId="1879368366" longitude="-43.70489" latitude="33.102566"/>
<marker id="683688030" label="Mithrin Wolf" category="71" did="1879369933" parentZoneId="1879368366" longitude="-43.70489" latitude="33.102566"/>
<marker id="683688031" label="Mithrin Wolverine" category="71" did="1879378384" parentZoneId="1879368366" longitude="-43.70489" latitude="33.102566"/>
<marker id="683688032" label="Grey-mountain Ram" category="71" did="1879369934" parentZoneId="1879368366" longitude="-43.70489" latitude="33.102566"/>
<marker id="683688033" label="Mithrin Lath-bear" category="71" did="1879369923" parentZoneId="1879368366" longitude="-43.70489" latitude="33.102566"/>
<marker id="683688034" label="Mountain-hind" category="71" did="1879370024" parentZoneId="1879368366" longitude="-43.70489" latitude="33.102566"/>
<marker id="683688035" label="Taurog Elder" category="71" did="1879369925" parentZoneId="1879368366" longitude="-43.70489" latitude="33.102566"/>
<marker id="683688036" label="Mithrin Worm" category="71" did="1879369924" parentZoneId="1879368366" longitude="-43.70489" latitude="33.102566"/>
<marker id="683688037" label="Young Cold-drake" category="71" did="1879369926" parentZoneId="1879368366" longitude="-43.70489" latitude="33.102566"/>
<marker id="683688038" label="Cold-drake" category="71" did="1879369929" parentZoneId="1879368366" longitude="-43.721474" latitude="32.88283"/>
<marker id="683688039" label="Grey Hawk" category="71" did="1879369918" parentZoneId="1879368366" longitude="-43.721474" latitude="32.88283"/>
<marker id="683688040" label="Taurog Warrior" category="71" did="1879369931" parentZoneId="1879368366" longitude="-43.721474" latitude="32.88283"/>
<marker id="683688041" label="Mountain-hart" category="71" did="1879370023" parentZoneId="1879368366" longitude="-43.721474" latitude="32.88283"/>
<marker id="683688042" label="Mithrin Wolf" category="71" did="1879369933" parentZoneId="1879368366" longitude="-43.721474" latitude="32.88283"/>
<marker id="683688043" label="Mithrin Wolverine" category="71" did="1879378384" parentZoneId="1879368366" longitude="-43.721474" latitude="32.88283"/>
<marker id="683688044" label="Grey-mountain Ram" category="71" did="1879369934" parentZoneId="1879368366" longitude="-43.721474" latitude="32.88283"/>
<marker id="683688045" label="Mithrin Lath-bear" category="71" did="1879369923" parentZoneId="1879368366" longitude="-43.721474" latitude="32.88283"/>
<marker id="683688046" label="Mountain-hind" category="71" did="1879370024" parentZoneId="1879368366" longitude="-43.721474" latitude="32.88283"/>
<marker id="683688047" label="Taurog Elder" category="71" did="1879369925" parentZoneId="1879368366" longitude="-43.721474" latitude="32.88283"/>
<marker id="683688048" label="Mithrin Worm" category="71" did="1879369924" parentZoneId="1879368366" longitude="-43.721474" latitude="32.88283"/>
<marker id="683688049" label="Young Cold-drake" category="71" did="1879369926" parentZoneId="1879368366" longitude="-43.721474" latitude="32.88283"/>
<marker id="683688050" label="Cold-drake" category="71" did="1879369929" parentZoneId="1879368366" longitude="-43.86788" latitude="32.93342"/>
<marker id="683688051" label="Grey Hawk" category="71" did="1879369918" parentZoneId="1879368366" longitude="-43.86788" latitude="32.93342"/>
<marker id="683688052" label="Taurog Warrior" category="71" did="1879369931" parentZoneId="1879368366" longitude="-43.86788" latitude="32.93342"/>
<marker id="683688053" label="Mountain-hart" category="71" did="1879370023" parentZoneId="1879368366" longitude="-43.86788" latitude="32.93342"/>
<marker id="683688054" label="Mithrin Wolf" category="71" did="1879369933" parentZoneId="1879368366" longitude="-43.86788" latitude="32.93342"/>
<marker id="683688055" label="Mithrin Wolverine" category="71" did="1879378384" parentZoneId="1879368366" longitude="-43.86788" latitude="32.93342"/>
<marker id="683688056" label="Grey-mountain Ram" category="71" did="1879369934" parentZoneId="1879368366" longitude="-43.86788" latitude="32.93342"/>
<marker id="683688057" label="Mithrin Lath-bear" category="71" did="1879369923" parentZoneId="1879368366" longitude="-43.86788" latitude="32.93342"/>
<marker id="683688058" label="Mountain-hind" category="71" did="1879370024" parentZoneId="1879368366" longitude="-43.86788" latitude="32.93342"/>
<marker id="683688059" label="Taurog Elder" category="71" did="1879369925" parentZoneId="1879368366" longitude="-43.86788" latitude="32.93342"/>
<marker id="683688060" label="Mithrin Worm" category="71" did="1879369924" parentZoneId="1879368366" longitude="-43.86788" latitude="32.93342"/>
<marker id="683688061" label="Young Cold-drake" category="71" did="1879369926" parentZoneId="1879368366" longitude="-43.86788" latitude="32.93342"/>
<marker id="683688062" label="Cold-drake" category="71" did="1879369929" parentZoneId="1879368366" longitude="-43.778446" latitude="32.68548"/>
<marker id="683688063" label="Grey Hawk" category="71" did="1879369918" parentZoneId="1879368366" longitude="-43.778446" latitude="32.68548"/>
<marker id="683688064" label="Taurog Warrior" category="71" did="1879369931" parentZoneId="1879368366" longitude="-43.778446" latitude="32.68548"/>
<marker id="683688065" label="Mountain-hart" category="71" did="1879370023" parentZoneId="1879368366" longitude="-43.778446" latitude="32.68548"/>
<marker id="683688066" label="Mithrin Wolf" category="71" did="1879369933" parentZoneId="1879368366" longitude="-43.778446" latitude="32.68548"/>
<marker id="683688067" label="Mithrin Wolverine" category="71" did="1879378384" parentZoneId="1879368366" longitude="-43.778446" latitude="32.68548"/>
<marker id="683688068" label="Grey-mountain Ram" category="71" did="1879369934" parentZoneId="1879368366" longitude="-43.778446" latitude="32.68548"/>
<marker id="683688069" label="Mithrin Lath-bear" category="71" did="1879369923" parentZoneId="1879368366" longitude="-43.778446" latitude="32.68548"/>
<marker id="683688070" label="Mountain-hind" category="71" did="1879370024" parentZoneId="1879368366" longitude="-43.778446" latitude="32.68548"/>
<marker id="683688071" label="Taurog Elder" category="71" did="1879369925" parentZoneId="1879368366" longitude="-43.778446" latitude="32.68548"/>
<marker id="683688072" label="Mithrin Worm" category="71" did="1879369924" parentZoneId="1879368366" longitude="-43.778446" latitude="32.68548"/>
<marker id="683688073" label="Young Cold-drake" category="71" did="1879369926" parentZoneId="1879368366" longitude="-43.778446" latitude="32.68548"/>
<marker id="683688074" label="Cold-drake" category="71" did="1879369929" parentZoneId="1879368366" longitude="-44.37408" latitude="33.02673"/>
<marker id="683688075" label="Grey Hawk" category="71" did="1879369918" parentZoneId="1879368366" longitude="-44.37408" latitude="33.02673"/>
<marker id="683688076" label="Taurog Warrior" category="71" did="1879369931" parentZoneId="1879368366" longitude="-44.37408" latitude="33.02673"/>
<marker id="683688077" label="Mountain-hart" category="71" did="1879370023" parentZoneId="1879368366" longitude="-44.37408" latitude="33.02673"/>
<marker id="683688078" label="Mithrin Wolf" category="71" did="1879369933" parentZoneId="1879368366" longitude="-44.37408" latitude="33.02673"/>
<marker id="683688079" label="Mithrin Wolverine" category="71" did="1879378384" parentZoneId="1879368366" longitude="-44.37408" latitude="33.02673"/>
<marker id="683688080" label="Grey-mountain Ram" category="71" did="1879369934" parentZoneId="1879368366" longitude="-44.37408" latitude="33.02673"/>
<marker id="683688081" label="Mithrin Lath-bear" category="71" did="1879369923" parentZoneId="1879368366" longitude="-44.37408" latitude="33.02673"/>
<marker id="683688082" label="Mountain-hind" category="71" did="1879370024" parentZoneId="1879368366" longitude="-44.37408" latitude="33.02673"/>
<marker id="683688083" label="Taurog Elder" category="71" did="1879369925" parentZoneId="1879368366" longitude="-44.37408" latitude="33.02673"/>
<marker id="683688084" label="Mithrin Worm" category="71" did="1879369924" parentZoneId="1879368366" longitude="-44.37408" latitude="33.02673"/>
<marker id="683688085" label="Young Cold-drake" category="71" did="1879369926" parentZoneId="1879368366" longitude="-44.37408" latitude="33.02673"/>
<marker id="683688086" label="Cold-drake" category="71" did="1879369929" parentZoneId="1879368366" longitude="-44.191795" latitude="32.886482"/>
<marker id="683688087" label="Grey Hawk" category="71" did="1879369918" parentZoneId="1879368366" longitude="-44.191795" latitude="32.886482"/>
<marker id="683688088" label="Taurog Warrior" category="71" did="1879369931" parentZoneId="1879368366" longitude="-44.191795" latitude="32.886482"/>
<marker id="683688089" label="Mountain-hart" category="71" did="1879370023" parentZoneId="1879368366" longitude="-44.191795" latitude="32.886482"/>
<marker id="683688090" label="Mithrin Wolf" category="71" did="1879369933" parentZoneId="1879368366" longitude="-44.191795" latitude="32.886482"/>
<marker id="683688091" label="Mithrin Wolverine" category="71" did="1879378384" parentZoneId="1879368366" longitude="-44.191795" latitude="32.886482"/>
<marker id="683688092" label="Grey-mountain Ram" category="71" did="1879369934" parentZoneId="1879368366" longitude="-44.191795" latitude="32.886482"/>
<marker id="683688093" label="Mithrin Lath-bear" category="71" did="1879369923" parentZoneId="1879368366" longitude="-44.191795" latitude="32.886482"/>
<marker id="683688094" label="Mountain-hind" category="71" did="1879370024" parentZoneId="1879368366" longitude="-44.191795" latitude="32.886482"/>
<marker id="683688095" label="Taurog Elder" category="71" did="1879369925" parentZoneId="1879368366" longitude="-44.191795" latitude="32.886482"/>
<marker id="683688096" label="Mithrin Worm" category="71" did="1879369924" parentZoneId="1879368366" longitude="-44.191795" latitude="32.886482"/>
<marker id="683688097" label="Young Cold-drake" category="71" did="1879369926" parentZoneId="1879368366" longitude="-44.191795" latitude="32.886482"/>
<marker id="683688098" label="Northern Fox" category="78" did="1879363816" parentZoneId="1879368366" longitude="-43.963524" latitude="32.5179"/>
<marker id="683688099" label="Northern Viper" category="78" did="1879369242" parentZoneId="1879368366" longitude="-43.963524" latitude="32.5179"/>
<marker id="683688100" label="Northern Hare" category="78" did="1879363821" parentZoneId="1879368366" longitude="-43.963524" latitude="32.5179"/>
<marker id="683688101" label="Goat" category="78" did="1879358942" parentZoneId="1879368366" longitude="-43.963524" latitude="32.5179"/>
<marker id="683688102" label="Northern Fox" category="78" did="1879363816" parentZoneId="1879368366" longitude="-43.760605" latitude="32.69159"/>
<marker id="683688103" label="Northern Viper" category="78" did="1879369242" parentZoneId="1879368366" longitude="-43.760605" latitude="32.69159"/>
<marker id="683688104" label="Northern Hare" category="78" did="1879363821" parentZoneId="1879368366" longitude="-43.760605" latitude="32.69159"/>
<marker id="683688105" label="Goat" category="78" did="1879358942" parentZoneId="1879368366" longitude="-43.760605" latitude="32.69159"/>
<marker id="683688106" label="Northern Fox" category="78" did="1879363816" parentZoneId="1879368366" longitude="-43.713737" latitude="32.868877"/>
<marker id="683688107" label="Northern Viper" category="78" did="1879369242" parentZoneId="1879368366" longitude="-43.713737" latitude="32.868877"/>
<marker id="683688108" label="Northern Hare" category="78" did="1879363821" parentZoneId="1879368366" longitude="-43.713737" latitude="32.868877"/>
<marker id="683688109" label="Goat" category="78" did="1879358942" parentZoneId="1879368366" longitude="-43.713737" latitude="32.868877"/>
<marker id="683688110" label="Northern Fox" category="78" did="1879363816" parentZoneId="1879368366" longitude="-43.684795" latitude="33.04037"/>
<marker id="683688111" label="Northern Viper" category="78" did="1879369242" parentZoneId="1879368366" longitude="-43.684795" latitude="33.04037"/>
<marker id="683688112" label="Northern Hare" category="78" did="1879363821" parentZoneId="1879368366" longitude="-43.684795" latitude="33.04037"/>
<marker id="683688113" label="Goat" category="78" did="1879358942" parentZoneId="1879368366" longitude="-43.684795" latitude="33.04037"/>
<marker id="683688114" label="Northern Fox" category="78" did="1879363816" parentZoneId="1879368366" longitude="-43.821804" latitude="33.116024"/>
<marker id="683688115" label="Northern Viper" category="78" did="1879369242" parentZoneId="1879368366" longitude="-43.821804" latitude="33.116024"/>
<marker id="683688116" label="Northern Hare" category="78" did="1879363821" parentZoneId="1879368366" longitude="-43.821804" latitude="33.116024"/>
<marker id="683688117" label="Goat" category="78" did="1879358942" parentZoneId="1879368366" longitude="-43.821804" latitude="33.116024"/>
<marker id="683688118" label="Northern Fox" category="78" did="1879363816" parentZoneId="1879368366" longitude="-43.833904" latitude="32.977077"/>
<marker id="683688119" label="Northern Viper" category="78" did="1879369242" parentZoneId="1879368366" longitude="-43.833904" latitude="32.977077"/>
<marker id="683688120" label="Northern Hare" category="78" did="1879363821" parentZoneId="1879368366" longitude="-43.833904" latitude="32.977077"/>
<marker id="683688121" label="Goat" category="78" did="1879358942" parentZoneId="1879368366" longitude="-43.833904" latitude="32.977077"/>
<marker id="683688122" label="Northern Fox" category="78" did="1879363816" parentZoneId="1879368366" longitude="-43.93529" latitude="32.732918"/>
<marker id="683688123" label="Northern Viper" category="78" did="1879369242" parentZoneId="1879368366" longitude="-43.93529" latitude="32.732918"/>
<marker id="683688124" label="Northern Hare" category="78" did="1879363821" parentZoneId="1879368366" longitude="-43.93529" latitude="32.732918"/>
<marker id="683688125" label="Goat" category="78" did="1879358942" parentZoneId="1879368366" longitude="-43.93529" latitude="32.732918"/>
<marker id="683688126" label="Northern Fox" category="78" did="1879363816" parentZoneId="1879368366" longitude="-44.019207" latitude="32.91625"/>
<marker id="683688127" label="Northern Viper" category="78" did="1879369242" parentZoneId="1879368366" longitude="-44.019207" latitude="32.91625"/>
<marker id="683688128" label="Northern Hare" category="78" did="1879363821" parentZoneId="1879368366" longitude="-44.019207" latitude="32.91625"/>
<marker id="683688129" label="Goat" category="78" did="1879358942" parentZoneId="1879368366" longitude="-44.019207" latitude="32.91625"/>
<marker id="683688130" label="Northern Fox" category="78" did="1879363816" parentZoneId="1879368366" longitude="-44.161297" latitude="32.933475"/>
<marker id="683688131" label="Northern Viper" category="78" did="1879369242" parentZoneId="1879368366" longitude="-44.161297" latitude="32.933475"/>
<marker id="683688132" label="Northern Hare" category="78" did="1879363821" parentZoneId="1879368366" longitude="-44.161297" latitude="32.933475"/>
<marker id="683688133" label="Goat" category="78" did="1879358942" parentZoneId="1879368366" longitude="-44.161297" latitude="32.933475"/>
<marker id="683688134" label="Northern Fox" category="78" did="1879363816" parentZoneId="1879368366" longitude="-44.00584" latitude="33.12828"/>
<marker id="683688135" label="Northern Viper" category="78" did="1879369242" parentZoneId="1879368366" longitude="-44.00584" latitude="33.12828"/>
<marker id="683688136" label="Northern Hare" category="78" did="1879363821" parentZoneId="1879368366" longitude="-44.00584" latitude="33.12828"/>
<marker id="683688137" label="Goat" category="78" did="1879358942" parentZoneId="1879368366" longitude="-44.00584" latitude="33.12828"/>
<marker id="683688138" label="Northern Fox" category="78" did="1879363816" parentZoneId="1879368366" longitude="-44.178185" latitude="33.10667"/>
<marker id="683688139" label="Northern Viper" category="78" did="1879369242" parentZoneId="1879368366" longitude="-44.178185" latitude="33.10667"/>
<marker id="683688140" label="Northern Hare" category="78" did="1879363821" parentZoneId="1879368366" longitude="-44.178185" latitude="33.10667"/>
<marker id="683688141" label="Goat" category="78" did="1879358942" parentZoneId="1879368366" longitude="-44.178185" latitude="33.10667"/>
<marker id="683688142" label="Northern Fox" category="78" did="1879363816" parentZoneId="1879368366" longitude="-44.37826" latitude="33.0228"/>
<marker id="683688143" label="Northern Viper" category="78" did="1879369242" parentZoneId="1879368366" longitude="-44.37826" latitude="33.0228"/>
<marker id="683688144" label="Northern Hare" category="78" did="1879363821" parentZoneId="1879368366" longitude="-44.37826" latitude="33.0228"/>
<marker id="683688145" label="Goat" category="78" did="1879358942" parentZoneId="1879368366" longitude="-44.37826" latitude="33.0228"/>
<marker id="683688146" label="Heavy Thornholt Branches" category="50" did="1879370488" parentZoneId="1879368366" longitude="-44.006367" latitude="32.57121"/>
<marker id="683688147" label="Thornholt Branches" category="50" did="1879370486" parentZoneId="1879368366" longitude="-44.006367" latitude="32.57121"/>
<marker id="683688148" label="Rich Ironfold Skarn Deposit" category="50" did="1879370484" parentZoneId="1879368366" longitude="-44.006367" latitude="32.57121"/>
<marker id="683688149" label="Ironfold Skarn Deposit" category="50" did="1879370483" parentZoneId="1879368366" longitude="-44.006367" latitude="32.57121"/>
<marker id="683688150" label="Heavy Thornholt Branches" category="50" did="1879370488" parentZoneId="1879368366" longitude="-43.80077" latitude="32.696278"/>
<marker id="683688151" label="Thornholt Branches" category="50" did="1879370486" parentZoneId="1879368366" longitude="-43.80077" latitude="32.696278"/>
<marker id="683688152" label="Rich Ironfold Skarn Deposit" category="50" did="1879370484" parentZoneId="1879368366" longitude="-43.80077" latitude="32.696278"/>
<marker id="683688153" label="Ironfold Skarn Deposit" category="50" did="1879370483" parentZoneId="1879368366" longitude="-43.80077" latitude="32.696278"/>
<marker id="683688154" label="Heavy Thornholt Branches" category="50" did="1879370488" parentZoneId="1879368366" longitude="-44.013454" latitude="32.803955"/>
<marker id="683688155" label="Thornholt Branches" category="50" did="1879370486" parentZoneId="1879368366" longitude="-44.013454" latitude="32.803955"/>
<marker id="683688156" label="Rich Ironfold Skarn Deposit" category="50" did="1879370484" parentZoneId="1879368366" longitude="-44.013454" latitude="32.803955"/>
<marker id="683688157" label="Ironfold Skarn Deposit" category="50" did="1879370483" parentZoneId="1879368366" longitude="-44.013454" latitude="32.803955"/>
<marker id="683688158" label="Heavy Thornholt Branches" category="50" did="1879370488" parentZoneId="1879368366" longitude="-43.97371" latitude="33.122"/>
<marker id="683688159" label="Thornholt Branches" category="50" did="1879370486" parentZoneId="1879368366" longitude="-43.97371" latitude="33.122"/>
<marker id="683688160" label="Rich Ironfold Skarn Deposit" category="50" did="1879370484" parentZoneId="1879368366" longitude="-43.97371" latitude="33.122"/>
<marker id="683688161" label="Ironfold Skarn Deposit" category="50" did="1879370483" parentZoneId="1879368366" longitude="-43.97371" latitude="33.122"/>
<marker id="683688162" label="Heavy Thornholt Branches" category="50" did="1879370488" parentZoneId="1879368366" longitude="-44.282127" latitude="33.174686"/>
<marker id="683688163" label="Thornholt Branches" category="50" did="1879370486" parentZoneId="1879368366" longitude="-44.282127" latitude="33.174686"/>
<marker id="683688164" label="Rich Ironfold Skarn Deposit" category="50" did="1879370484" parentZoneId="1879368366" longitude="-44.282127" latitude="33.174686"/>
<marker id="683688165" label="Ironfold Skarn Deposit" category="50" did="1879370483" parentZoneId="1879368366" longitude="-44.282127" latitude="33.174686"/>
<marker id="683688166" label="Heavy Thornholt Branches" category="50" did="1879370488" parentZoneId="1879368366" longitude="-43.980244" latitude="32.956306"/>
<marker id="683688167" label="Thornholt Branches" category="50" did="1879370486" parentZoneId="1879368366" longitude="-43.980244" latitude="32.956306"/>
<marker id="683688168" label="Rich Ironfold Skarn Deposit" category="50" did="1879370484" parentZoneId="1879368366" longitude="-43.980244" latitude="32.956306"/>
<marker id="683688169" label="Ironfold Skarn Deposit" category="50" did="1879370483" parentZoneId="1879368366" longitude="-43.980244" latitude="32.956306"/>
<marker id="683688170" label="Heavy Thornholt Branches" category="50" did="1879370488" parentZoneId="1879368366" longitude="-43.61709" latitude="32.798946"/>
<marker id="683688171" label="Thornholt Branches" category="50" did="1879370486" parentZoneId="1879368366" longitude="-43.61709" latitude="32.798946"/>
<marker id="683688172" label="Rich Ironfold Skarn Deposit" category="50" did="1879370484" parentZoneId="1879368366" longitude="-43.61709" latitude="32.798946"/>
<marker id="683688173" label="Ironfold Skarn Deposit" category="50" did="1879370483" parentZoneId="1879368366" longitude="-43.61709" latitude="32.798946"/>
<marker id="683688174" label="Heavy Thornholt Branches" category="50" did="1879370488" parentZoneId="1879368366" longitude="-44.20328" latitude="33.182293"/>
<marker id="683688175" label="Thornholt Branches" category="50" did="1879370486" parentZoneId="1879368366" longitude="-44.20328" latitude="33.182293"/>
<marker id="683688176" label="Rich Ironfold Skarn Deposit" category="50" did="1879370484" parentZoneId="1879368366" longitude="-44.20328" latitude="33.182293"/>
<marker id="683688177" label="Ironfold Skarn Deposit" category="50" did="1879370483" parentZoneId="1879368366" longitude="-44.20328" latitude="33.182293"/>
<marker id="683688178" label="Heavy Thornholt Branches" category="50" did="1879370488" parentZoneId="1879368366" longitude="-44.02236" latitude="32.770115"/>
<marker id="683688179" label="Thornholt Branches" category="50" did="1879370486" parentZoneId="1879368366" longitude="-44.02236" latitude="32.770115"/>
<marker id="683688180" label="Rich Ironfold Skarn Deposit" category="50" did="1879370484" parentZoneId="1879368366" longitude="-44.02236" latitude="32.770115"/>
<marker id="683688181" label="Ironfold Skarn Deposit" category="50" did="1879370483" parentZoneId="1879368366" longitude="-44.02236" latitude="32.770115"/>
<marker id="683688182" label="Heavy Thornholt Branches" category="50" did="1879370488" parentZoneId="1879368366" longitude="-43.84249" latitude="32.673847"/>
<marker id="683688183" label="Thornholt Branches" category="50" did="1879370486" parentZoneId="1879368366" longitude="-43.84249" latitude="32.673847"/>
<marker id="683688184" label="Rich Ironfold Skarn Deposit" category="50" did="1879370484" parentZoneId="1879368366" longitude="-43.84249" latitude="32.673847"/>
<marker id="683688185" label="Ironfold Skarn Deposit" category="50" did="1879370483" parentZoneId="1879368366" longitude="-43.84249" latitude="32.673847"/>
<marker id="683688186" label="Heavy Thornholt Branches" category="50" did="1879370488" parentZoneId="1879368366" longitude="-43.8991" latitude="32.990993"/>
<marker id="683688187" label="Thornholt Branches" category="50" did="1879370486" parentZoneId="1879368366" longitude="-43.8991" latitude="32.990993"/>
<marker id="683688188" label="Rich Ironfold Skarn Deposit" category="50" did="1879370484" parentZoneId="1879368366" longitude="-43.8991" latitude="32.990993"/>
<marker id="683688189" label="Ironfold Skarn Deposit" category="50" did="1879370483" parentZoneId="1879368366" longitude="-43.8991" latitude="32.990993"/>
<marker id="683688190" label="Heavy Thornholt Branches" category="50" did="1879370488" parentZoneId="1879368366" longitude="-43.68822" latitude="32.941826"/>
<marker id="683688191" label="Thornholt Branches" category="50" did="1879370486" parentZoneId="1879368366" longitude="-43.68822" latitude="32.941826"/>
<marker id="683688192" label="Rich Ironfold Skarn Deposit" category="50" did="1879370484" parentZoneId="1879368366" longitude="-43.68822" latitude="32.941826"/>
<marker id="683688193" label="Ironfold Skarn Deposit" category="50" did="1879370483" parentZoneId="1879368366" longitude="-43.68822" latitude="32.941826"/>
<marker id="683688194" label="Heavy Thornholt Branches" category="50" did="1879370488" parentZoneId="1879368366" longitude="-43.744686" latitude="33.119755"/>
<marker id="683688195" label="Thornholt Branches" category="50" did="1879370486" parentZoneId="1879368366" longitude="-43.744686" latitude="33.119755"/>
<marker id="683688196" label="Rich Ironfold Skarn Deposit" category="50" did="1879370484" parentZoneId="1879368366" longitude="-43.744686" latitude="33.119755"/>
<marker id="683688197" label="Ironfold Skarn Deposit" category="50" did="1879370483" parentZoneId="1879368366" longitude="-43.744686" latitude="33.119755"/>
<marker id="683688198" label="Heavy Thornholt Branches" category="50" did="1879370488" parentZoneId="1879368366" longitude="-44.02576" latitude="33.065"/>
<marker id="683688199" label="Thornholt Branches" category="50" did="1879370486" parentZoneId="1879368366" longitude="-44.02576" latitude="33.065"/>
<marker id="683688200" label="Rich Ironfold Skarn Deposit" category="50" did="1879370484" parentZoneId="1879368366" longitude="-44.02576" latitude="33.065"/>
<marker id="683688201" label="Ironfold Skarn Deposit" category="50" did="1879370483" parentZoneId="1879368366" longitude="-44.02576" latitude="33.065"/>
<marker id="683692032" label="Goat" category="78" did="1879358942" parentZoneId="1879368366" longitude="-43.926765" latitude="33.640293"/>
<marker id="683692033" label="Taurog Warrior" category="71" did="1879369931" parentZoneId="1879368366" longitude="-43.939373" latitude="33.64462"/>
<marker id="683692034" label="Mithrin Wolf" category="71" did="1879369933" parentZoneId="1879368366" longitude="-43.939373" latitude="33.64462"/>
<marker id="683692035" label="Grey-mountain Ram" category="71" did="1879369934" parentZoneId="1879368366" longitude="-43.939373" latitude="33.64462"/>
<marker id="683692036" label="Mithrin Lath-bear" category="71" did="1879369923" parentZoneId="1879368366" longitude="-43.939373" latitude="33.64462"/>
<marker id="683692037" label="Taurog Elder" category="71" did="1879369925" parentZoneId="1879368366" longitude="-43.939373" latitude="33.64462"/>
<marker id="683692038" label="Mithrin Worm" category="71" did="1879369924" parentZoneId="1879368366" longitude="-43.939373" latitude="33.64462"/>
<marker id="683692039" label="Grey Hawk" category="71" did="1879369918" parentZoneId="1879368366" longitude="-43.939373" latitude="33.64462"/>
<marker id="683692040" label="Mountain-hart" category="71" did="1879370023" parentZoneId="1879368366" longitude="-43.939373" latitude="33.64462"/>
<marker id="683692041" label="Mountain-hind" category="71" did="1879370024" parentZoneId="1879368366" longitude="-43.939373" latitude="33.64462"/>
<marker id="683692042" label="Northern Viper" category="78" did="1879369242" parentZoneId="1879368366" longitude="-43.926765" latitude="33.640293"/>
<marker id="683692043" label="Mithrin Wolverine" category="71" did="1879378384" parentZoneId="1879368366" longitude="-43.939373" latitude="33.64462"/>
<marker id="683692044" label="Northern Fox" category="78" did="1879363816" parentZoneId="1879368366" longitude="-43.926765" latitude="33.640293"/>
<marker id="683692045" label="Northern Hare" category="78" did="1879363821" parentZoneId="1879368366" longitude="-43.926765" latitude="33.640293"/>
<marker id="683692046" label="Cold-drake" category="71" did="1879369929" parentZoneId="1879368366" longitude="-43.77635" latitude="33.882088"/>
<marker id="683692047" label="Grey Hawk" category="71" did="1879369918" parentZoneId="1879368366" longitude="-43.77635" latitude="33.882088"/>
<marker id="683692048" label="Taurog Warrior" category="71" did="1879369931" parentZoneId="1879368366" longitude="-43.77635" latitude="33.882088"/>
<marker id="683692049" label="Mountain-hart" category="71" did="1879370023" parentZoneId="1879368366" longitude="-43.77635" latitude="33.882088"/>
<marker id="683692050" label="Mithrin Wolf" category="71" did="1879369933" parentZoneId="1879368366" longitude="-43.77635" latitude="33.882088"/>
<marker id="683692051" label="Mithrin Wolverine" category="71" did="1879378384" parentZoneId="1879368366" longitude="-43.77635" latitude="33.882088"/>
<marker id="683692052" label="Grey-mountain Ram" category="71" did="1879369934" parentZoneId="1879368366" longitude="-43.77635" latitude="33.882088"/>
<marker id="683692053" label="Mithrin Lath-bear" category="71" did="1879369923" parentZoneId="1879368366" longitude="-43.77635" latitude="33.882088"/>
<marker id="683692054" label="Mountain-hind" category="71" did="1879370024" parentZoneId="1879368366" longitude="-43.77635" latitude="33.882088"/>
<marker id="683692055" label="Taurog Elder" category="71" did="1879369925" parentZoneId="1879368366" longitude="-43.77635" latitude="33.882088"/>
<marker id="683692056" label="Mithrin Worm" category="71" did="1879369924" parentZoneId="1879368366" longitude="-43.77635" latitude="33.882088"/>
<marker id="683692057" label="Young Cold-drake" category="71" did="1879369926" parentZoneId="1879368366" longitude="-43.77635" latitude="33.882088"/>
<marker id="683692058" label="Cold-drake" category="71" did="1879369929" parentZoneId="1879368366" longitude="-43.75502" latitude="33.67324"/>
<marker id="683692059" label="Grey Hawk" category="71" did="1879369918" parentZoneId="1879368366" longitude="-43.75502" latitude="33.67324"/>
<marker id="683692060" label="Taurog Warrior" category="71" did="1879369931" parentZoneId="1879368366" longitude="-43.75502" latitude="33.67324"/>
<marker id="683692061" label="Mountain-hart" category="71" did="1879370023" parentZoneId="1879368366" longitude="-43.75502" latitude="33.67324"/>
<marker id="683692062" label="Mithrin Wolf" category="71" did="1879369933" parentZoneId="1879368366" longitude="-43.75502" latitude="33.67324"/>
<marker id="683692063" label="Mithrin Wolverine" category="71" did="1879378384" parentZoneId="1879368366" longitude="-43.75502" latitude="33.67324"/>
<marker id="683692064" label="Grey-mountain Ram" category="71" did="1879369934" parentZoneId="1879368366" longitude="-43.75502" latitude="33.67324"/>
<marker id="683692065" label="Mithrin Lath-bear" category="71" did="1879369923" parentZoneId="1879368366" longitude="-43.75502" latitude="33.67324"/>
<marker id="683692066" label="Mountain-hind" category="71" did="1879370024" parentZoneId="1879368366" longitude="-43.75502" latitude="33.67324"/>
<marker id="683692067" label="Taurog Elder" category="71" did="1879369925" parentZoneId="1879368366" longitude="-43.75502" latitude="33.67324"/>
<marker id="683692068" label="Mithrin Worm" category="71" did="1879369924" parentZoneId="1879368366" longitude="-43.75502" latitude="33.67324"/>
<marker id="683692069" label="Young Cold-drake" category="71" did="1879369926" parentZoneId="1879368366" longitude="-43.75502" latitude="33.67324"/>
<marker id="683692070" label="Cold-drake" category="71" did="1879369929" parentZoneId="1879368366" longitude="-43.899708" latitude="33.56252"/>
<marker id="683692071" label="Grey Hawk" category="71" did="1879369918" parentZoneId="1879368366" longitude="-43.899708" latitude="33.56252"/>
<marker id="683692072" label="Taurog Warrior" category="71" did="1879369931" parentZoneId="1879368366" longitude="-43.899708" latitude="33.56252"/>
<marker id="683692073" label="Mountain-hart" category="71" did="1879370023" parentZoneId="1879368366" longitude="-43.899708" latitude="33.56252"/>
<marker id="683692074" label="Mithrin Wolf" category="71" did="1879369933" parentZoneId="1879368366" longitude="-43.899708" latitude="33.56252"/>
<marker id="683692075" label="Mithrin Wolverine" category="71" did="1879378384" parentZoneId="1879368366" longitude="-43.899708" latitude="33.56252"/>
<marker id="683692076" label="Grey-mountain Ram" category="71" did="1879369934" parentZoneId="1879368366" longitude="-43.899708" latitude="33.56252"/>
<marker id="683692077" label="Mithrin Lath-bear" category="71" did="1879369923" parentZoneId="1879368366" longitude="-43.899708" latitude="33.56252"/>
<marker id="683692078" label="Mountain-hind" category="71" did="1879370024" parentZoneId="1879368366" longitude="-43.899708" latitude="33.56252"/>
<marker id="683692079" label="Taurog Elder" category="71" did="1879369925" parentZoneId="1879368366" longitude="-43.899708" latitude="33.56252"/>
<marker id="683692080" label="Mithrin Worm" category="71" did="1879369924" parentZoneId="1879368366" longitude="-43.899708" latitude="33.56252"/>
<marker id="683692081" label="Young Cold-drake" category="71" did="1879369926" parentZoneId="1879368366" longitude="-43.899708" latitude="33.56252"/>
<marker id="683692082" label="Cold-drake" category="71" did="1879369929" parentZoneId="1879368366" longitude="-43.723846" latitude="33.515255"/>
<marker id="683692083" label="Grey Hawk" category="71" did="1879369918" parentZoneId="1879368366" longitude="-43.723846" latitude="33.515255"/>
<marker id="683692084" label="Taurog Warrior" category="71" did="1879369931" parentZoneId="1879368366" longitude="-43.723846" latitude="33.515255"/>
<marker id="683692085" label="Mountain-hart" category="71" did="1879370023" parentZoneId="1879368366" longitude="-43.723846" latitude="33.515255"/>
<marker id="683692086" label="Mithrin Wolf" category="71" did="1879369933" parentZoneId="1879368366" longitude="-43.723846" latitude="33.515255"/>
<marker id="683692087" label="Mithrin Wolverine" category="71" did="1879378384" parentZoneId="1879368366" longitude="-43.723846" latitude="33.515255"/>
<marker id="683692088" label="Grey-mountain Ram" category="71" did="1879369934" parentZoneId="1879368366" longitude="-43.723846" latitude="33.515255"/>
<marker id="683692089" label="Mithrin Lath-bear" category="71" did="1879369923" parentZoneId="1879368366" longitude="-43.723846" latitude="33.515255"/>
<marker id="683692090" label="Mountain-hind" category="71" did="1879370024" parentZoneId="1879368366" longitude="-43.723846" latitude="33.515255"/>
<marker id="683692091" label="Taurog Elder" category="71" did="1879369925" parentZoneId="1879368366" longitude="-43.723846" latitude="33.515255"/>
<marker id="683692092" label="Mithrin Worm" category="71" did="1879369924" parentZoneId="1879368366" longitude="-43.723846" latitude="33.515255"/>
<marker id="683692093" label="Young Cold-drake" category="71" did="1879369926" parentZoneId="1879368366" longitude="-43.723846" latitude="33.515255"/>
<marker id="683692094" label="Cold-drake" category="71" did="1879369929" parentZoneId="1879368366" longitude="-43.73705" latitude="33.304745"/>
<marker id="683692095" label="Grey Hawk" category="71" did="1879369918" parentZoneId="1879368366" longitude="-43.73705" latitude="33.304745"/>
<marker id="683692096" label="Taurog Warrior" category="71" did="1879369931" parentZoneId="1879368366" longitude="-43.73705" latitude="33.304745"/>
<marker id="683692097" label="Mountain-hart" category="71" did="1879370023" parentZoneId="1879368366" longitude="-43.73705" latitude="33.304745"/>
<marker id="683692098" label="Mithrin Wolf" category="71" did="1879369933" parentZoneId="1879368366" longitude="-43.73705" latitude="33.304745"/>
<marker id="683692099" label="Mithrin Wolverine" category="71" did="1879378384" parentZoneId="1879368366" longitude="-43.73705" latitude="33.304745"/>
<marker id="683692100" label="Grey-mountain Ram" category="71" did="1879369934" parentZoneId="1879368366" longitude="-43.73705" latitude="33.304745"/>
<marker id="683692101" label="Mithrin Lath-bear" category="71" did="1879369923" parentZoneId="1879368366" longitude="-43.73705" latitude="33.304745"/>
<marker id="683692102" label="Mountain-hind" category="71" did="1879370024" parentZoneId="1879368366" longitude="-43.73705" latitude="33.304745"/>
<marker id="683692103" label="Taurog Elder" category="71" did="1879369925" parentZoneId="1879368366" longitude="-43.73705" latitude="33.304745"/>
<marker id="683692104" label="Mithrin Worm" category="71" did="1879369924" parentZoneId="1879368366" longitude="-43.73705" latitude="33.304745"/>
<marker id="683692105" label="Young Cold-drake" category="71" did="1879369926" parentZoneId="1879368366" longitude="-43.73705" latitude="33.304745"/>
<marker id="683692106" label="Cold-drake" category="71" did="1879369929" parentZoneId="1879368366" longitude="-43.917187" latitude="33.31291"/>
<marker id="683692107" label="Grey Hawk" category="71" did="1879369918" parentZoneId="1879368366" longitude="-43.917187" latitude="33.31291"/>
<marker id="683692108" label="Taurog Warrior" category="71" did="1879369931" parentZoneId="1879368366" longitude="-43.917187" latitude="33.31291"/>
<marker id="683692109" label="Mountain-hart" category="71" did="1879370023" parentZoneId="1879368366" longitude="-43.917187" latitude="33.31291"/>
<marker id="683692110" label="Mithrin Wolf" category="71" did="1879369933" parentZoneId="1879368366" longitude="-43.917187" latitude="33.31291"/>
<marker id="683692111" label="Mithrin Wolverine" category="71" did="1879378384" parentZoneId="1879368366" longitude="-43.917187" latitude="33.31291"/>
<marker id="683692112" label="Grey-mountain Ram" category="71" did="1879369934" parentZoneId="1879368366" longitude="-43.917187" latitude="33.31291"/>
<marker id="683692113" label="Mithrin Lath-bear" category="71" did="1879369923" parentZoneId="1879368366" longitude="-43.917187" latitude="33.31291"/>
<marker id="683692114" label="Mountain-hind" category="71" did="1879370024" parentZoneId="1879368366" longitude="-43.917187" latitude="33.31291"/>
<marker id="683692115" label="Taurog Elder" category="71" did="1879369925" parentZoneId="1879368366" longitude="-43.917187" latitude="33.31291"/>
<marker id="683692116" label="Mithrin Worm" category="71" did="1879369924" parentZoneId="1879368366" longitude="-43.917187" latitude="33.31291"/>
<marker id="683692117" label="Young Cold-drake" category="71" did="1879369926" parentZoneId="1879368366" longitude="-43.917187" latitude="33.31291"/>
<marker id="683692118" label="Cold-drake" category="71" did="1879369929" parentZoneId="1879368366" longitude="-44.021572" latitude="33.441532"/>
<marker id="683692119" label="Grey Hawk" category="71" did="1879369918" parentZoneId="1879368366" longitude="-44.021572" latitude="33.441532"/>
<marker id="683692120" label="Taurog Warrior" category="71" did="1879369931" parentZoneId="1879368366" longitude="-44.021572" latitude="33.441532"/>
<marker id="683692121" label="Mountain-hart" category="71" did="1879370023" parentZoneId="1879368366" longitude="-44.021572" latitude="33.441532"/>
<marker id="683692122" label="Mithrin Wolf" category="71" did="1879369933" parentZoneId="1879368366" longitude="-44.021572" latitude="33.441532"/>
<marker id="683692123" label="Mithrin Wolverine" category="71" did="1879378384" parentZoneId="1879368366" longitude="-44.021572" latitude="33.441532"/>
<marker id="683692124" label="Grey-mountain Ram" category="71" did="1879369934" parentZoneId="1879368366" longitude="-44.021572" latitude="33.441532"/>
<marker id="683692125" label="Mithrin Lath-bear" category="71" did="1879369923" parentZoneId="1879368366" longitude="-44.021572" latitude="33.441532"/>
<marker id="683692126" label="Mountain-hind" category="71" did="1879370024" parentZoneId="1879368366" longitude="-44.021572" latitude="33.441532"/>
<marker id="683692127" label="Taurog Elder" category="71" did="1879369925" parentZoneId="1879368366" longitude="-44.021572" latitude="33.441532"/>
<marker id="683692128" label="Mithrin Worm" category="71" did="1879369924" parentZoneId="1879368366" longitude="-44.021572" latitude="33.441532"/>
<marker id="683692129" label="Young Cold-drake" category="71" did="1879369926" parentZoneId="1879368366" longitude="-44.021572" latitude="33.441532"/>
<marker id="683692130" label="Cold-drake" category="71" did="1879369929" parentZoneId="1879368366" longitude="-44.20861" latitude="33.304512"/>
<marker id="683692131" label="Grey Hawk" category="71" did="1879369918" parentZoneId="1879368366" longitude="-44.20861" latitude="33.304512"/>
<marker id="683692132" label="Taurog Warrior" category="71" did="1879369931" parentZoneId="1879368366" longitude="-44.20861" latitude="33.304512"/>
<marker id="683692133" label="Mountain-hart" category="71" did="1879370023" parentZoneId="1879368366" longitude="-44.20861" latitude="33.304512"/>
<marker id="683692134" label="Mithrin Wolf" category="71" did="1879369933" parentZoneId="1879368366" longitude="-44.20861" latitude="33.304512"/>
<marker id="683692135" label="Mithrin Wolverine" category="71" did="1879378384" parentZoneId="1879368366" longitude="-44.20861" latitude="33.304512"/>
<marker id="683692136" label="Grey-mountain Ram" category="71" did="1879369934" parentZoneId="1879368366" longitude="-44.20861" latitude="33.304512"/>
<marker id="683692137" label="Mithrin Lath-bear" category="71" did="1879369923" parentZoneId="1879368366" longitude="-44.20861" latitude="33.304512"/>
<marker id="683692138" label="Mountain-hind" category="71" did="1879370024" parentZoneId="1879368366" longitude="-44.20861" latitude="33.304512"/>
<marker id="683692139" label="Taurog Elder" category="71" did="1879369925" parentZoneId="1879368366" longitude="-44.20861" latitude="33.304512"/>
<marker id="683692140" label="Mithrin Worm" category="71" did="1879369924" parentZoneId="1879368366" longitude="-44.20861" latitude="33.304512"/>
<marker id="683692141" label="Young Cold-drake" category="71" did="1879369926" parentZoneId="1879368366" longitude="-44.20861" latitude="33.304512"/>
<marker id="683692142" label="Cold-drake" category="71" did="1879369929" parentZoneId="1879368366" longitude="-44.172714" latitude="33.880066"/>
<marker id="683692143" label="Grey Hawk" category="71" did="1879369918" parentZoneId="1879368366" longitude="-44.172714" latitude="33.880066"/>
<marker id="683692144" label="Taurog Warrior" category="71" did="1879369931" parentZoneId="1879368366" longitude="-44.172714" latitude="33.880066"/>
<marker id="683692145" label="Mountain-hart" category="71" did="1879370023" parentZoneId="1879368366" longitude="-44.172714" latitude="33.880066"/>
<marker id="683692146" label="Mithrin Wolf" category="71" did="1879369933" parentZoneId="1879368366" longitude="-44.172714" latitude="33.880066"/>
<marker id="683692147" label="Mithrin Wolverine" category="71" did="1879378384" parentZoneId="1879368366" longitude="-44.172714" latitude="33.880066"/>
<marker id="683692148" label="Grey-mountain Ram" category="71" did="1879369934" parentZoneId="1879368366" longitude="-44.172714" latitude="33.880066"/>
<marker id="683692149" label="Mithrin Lath-bear" category="71" did="1879369923" parentZoneId="1879368366" longitude="-44.172714" latitude="33.880066"/>
<marker id="683692150" label="Mountain-hind" category="71" did="1879370024" parentZoneId="1879368366" longitude="-44.172714" latitude="33.880066"/>
<marker id="683692151" label="Taurog Elder" category="71" did="1879369925" parentZoneId="1879368366" longitude="-44.172714" latitude="33.880066"/>
<marker id="683692152" label="Mithrin Worm" category="71" did="1879369924" parentZoneId="1879368366" longitude="-44.172714" latitude="33.880066"/>
<marker id="683692153" label="Young Cold-drake" category="71" did="1879369926" parentZoneId="1879368366" longitude="-44.172714" latitude="33.880066"/>
<marker id="683692154" label="Cold-drake" category="71" did="1879369929" parentZoneId="1879368366" longitude="-44.030205" latitude="33.78087"/>
<marker id="683692155" label="Grey Hawk" category="71" did="1879369918" parentZoneId="1879368366" longitude="-44.030205" latitude="33.78087"/>
<marker id="683692156" label="Taurog Warrior" category="71" did="1879369931" parentZoneId="1879368366" longitude="-44.030205" latitude="33.78087"/>
<marker id="683692157" label="Mountain-hart" category="71" did="1879370023" parentZoneId="1879368366" longitude="-44.030205" latitude="33.78087"/>
<marker id="683692158" label="Mithrin Wolf" category="71" did="1879369933" parentZoneId="1879368366" longitude="-44.030205" latitude="33.78087"/>
<marker id="683692159" label="Mithrin Wolverine" category="71" did="1879378384" parentZoneId="1879368366" longitude="-44.030205" latitude="33.78087"/>
<marker id="683692160" label="Grey-mountain Ram" category="71" did="1879369934" parentZoneId="1879368366" longitude="-44.030205" latitude="33.78087"/>
<marker id="683692161" label="Mithrin Lath-bear" category="71" did="1879369923" parentZoneId="1879368366" longitude="-44.030205" latitude="33.78087"/>
<marker id="683692162" label="Mountain-hind" category="71" did="1879370024" parentZoneId="1879368366" longitude="-44.030205" latitude="33.78087"/>
<marker id="683692163" label="Taurog Elder" category="71" did="1879369925" parentZoneId="1879368366" longitude="-44.030205" latitude="33.78087"/>
<marker id="683692164" label="Mithrin Worm" category="71" did="1879369924" parentZoneId="1879368366" longitude="-44.030205" latitude="33.78087"/>
<marker id="683692165" label="Young Cold-drake" category="71" did="1879369926" parentZoneId="1879368366" longitude="-44.030205" latitude="33.78087"/>
<marker id="683692166" label="Cold-drake" category="71" did="1879369929" parentZoneId="1879368366" longitude="-44.193565" latitude="33.66535"/>
<marker id="683692167" label="Grey Hawk" category="71" did="1879369918" parentZoneId="1879368366" longitude="-44.193565" latitude="33.66535"/>
<marker id="683692168" label="Taurog Warrior" category="71" did="1879369931" parentZoneId="1879368366" longitude="-44.193565" latitude="33.66535"/>
<marker id="683692169" label="Mountain-hart" category="71" did="1879370023" parentZoneId="1879368366" longitude="-44.193565" latitude="33.66535"/>
<marker id="683692170" label="Mithrin Wolf" category="71" did="1879369933" parentZoneId="1879368366" longitude="-44.193565" latitude="33.66535"/>
<marker id="683692171" label="Mithrin Wolverine" category="71" did="1879378384" parentZoneId="1879368366" longitude="-44.193565" latitude="33.66535"/>
<marker id="683692172" label="Grey-mountain Ram" category="71" did="1879369934" parentZoneId="1879368366" longitude="-44.193565" latitude="33.66535"/>
<marker id="683692173" label="Mithrin Lath-bear" category="71" did="1879369923" parentZoneId="1879368366" longitude="-44.193565" latitude="33.66535"/>
<marker id="683692174" label="Mountain-hind" category="71" did="1879370024" parentZoneId="1879368366" longitude="-44.193565" latitude="33.66535"/>
<marker id="683692175" label="Taurog Elder" category="71" did="1879369925" parentZoneId="1879368366" longitude="-44.193565" latitude="33.66535"/>
<marker id="683692176" label="Mithrin Worm" category="71" did="1879369924" parentZoneId="1879368366" longitude="-44.193565" latitude="33.66535"/>
<marker id="683692177" label="Young Cold-drake" category="71" did="1879369926" parentZoneId="1879368366" longitude="-44.193565" latitude="33.66535"/>
<marker id="683692178" label="Cold-drake" category="71" did="1879369929" parentZoneId="1879368366" longitude="-44.337646" latitude="33.834255"/>
<marker id="683692179" label="Grey Hawk" category="71" did="1879369918" parentZoneId="1879368366" longitude="-44.337646" latitude="33.834255"/>
<marker id="683692180" label="Taurog Warrior" category="71" did="1879369931" parentZoneId="1879368366" longitude="-44.337646" latitude="33.834255"/>
<marker id="683692181" label="Mountain-hart" category="71" did="1879370023" parentZoneId="1879368366" longitude="-44.337646" latitude="33.834255"/>
<marker id="683692182" label="Mithrin Wolf" category="71" did="1879369933" parentZoneId="1879368366" longitude="-44.337646" latitude="33.834255"/>
<marker id="683692183" label="Mithrin Wolverine" category="71" did="1879378384" parentZoneId="1879368366" longitude="-44.337646" latitude="33.834255"/>
<marker id="683692184" label="Grey-mountain Ram" category="71" did="1879369934" parentZoneId="1879368366" longitude="-44.337646" latitude="33.834255"/>
<marker id="683692185" label="Mithrin Lath-bear" category="71" did="1879369923" parentZoneId="1879368366" longitude="-44.337646" latitude="33.834255"/>
<marker id="683692186" label="Mountain-hind" category="71" did="1879370024" parentZoneId="1879368366" longitude="-44.337646" latitude="33.834255"/>
<marker id="683692187" label="Taurog Elder" category="71" did="1879369925" parentZoneId="1879368366" longitude="-44.337646" latitude="33.834255"/>
<marker id="683692188" label="Mithrin Worm" category="71" did="1879369924" parentZoneId="1879368366" longitude="-44.337646" latitude="33.834255"/>
<marker id="683692189" label="Young Cold-drake" category="71" did="1879369926" parentZoneId="1879368366" longitude="-44.337646" latitude="33.834255"/>
<marker id="683692190" label="Cold-drake" category="71" did="1879369929" parentZoneId="1879368366" longitude="-44.34382" latitude="33.63875"/>
<marker id="683692191" label="Grey Hawk" category="71" did="1879369918" parentZoneId="1879368366" longitude="-44.34382" latitude="33.63875"/>
<marker id="683692192" label="Taurog Warrior" category="71" did="1879369931" parentZoneId="1879368366" longitude="-44.34382" latitude="33.63875"/>
<marker id="683692193" label="Mountain-hart" category="71" did="1879370023" parentZoneId="1879368366" longitude="-44.34382" latitude="33.63875"/>
<marker id="683692194" label="Mithrin Wolf" category="71" did="1879369933" parentZoneId="1879368366" longitude="-44.34382" latitude="33.63875"/>
<marker id="683692195" label="Mithrin Wolverine" category="71" did="1879378384" parentZoneId="1879368366" longitude="-44.34382" latitude="33.63875"/>
<marker id="683692196" label="Grey-mountain Ram" category="71" did="1879369934" parentZoneId="1879368366" longitude="-44.34382" latitude="33.63875"/>
<marker id="683692197" label="Mithrin Lath-bear" category="71" did="1879369923" parentZoneId="1879368366" longitude="-44.34382" latitude="33.63875"/>
<marker id="683692198" label="Mountain-hind" category="71" did="1879370024" parentZoneId="1879368366" longitude="-44.34382" latitude="33.63875"/>
<marker id="683692199" label="Taurog Elder" category="71" did="1879369925" parentZoneId="1879368366" longitude="-44.34382" latitude="33.63875"/>
<marker id="683692200" label="Mithrin Worm" category="71" did="1879369924" parentZoneId="1879368366" longitude="-44.34382" latitude="33.63875"/>
<marker id="683692201" label="Young Cold-drake" category="71" did="1879369926" parentZoneId="1879368366" longitude="-44.34382" latitude="33.63875"/>
<marker id="683692202" label="Cold-drake" category="71" did="1879369929" parentZoneId="1879368366" longitude="-44.380985" latitude="33.46197"/>
<marker id="683692203" label="Grey Hawk" category="71" did="1879369918" parentZoneId="1879368366" longitude="-44.380985" latitude="33.46197"/>
<marker id="683692204" label="Taurog Warrior" category="71" did="1879369931" parentZoneId="1879368366" longitude="-44.380985" latitude="33.46197"/>
<marker id="683692205" label="Mountain-hart" category="71" did="1879370023" parentZoneId="1879368366" longitude="-44.380985" latitude="33.46197"/>
<marker id="683692206" label="Mithrin Wolf" category="71" did="1879369933" parentZoneId="1879368366" longitude="-44.380985" latitude="33.46197"/>
<marker id="683692207" label="Mithrin Wolverine" category="71" did="1879378384" parentZoneId="1879368366" longitude="-44.380985" latitude="33.46197"/>
<marker id="683692208" label="Grey-mountain Ram" category="71" did="1879369934" parentZoneId="1879368366" longitude="-44.380985" latitude="33.46197"/>
<marker id="683692209" label="Mithrin Lath-bear" category="71" did="1879369923" parentZoneId="1879368366" longitude="-44.380985" latitude="33.46197"/>
<marker id="683692210" label="Mountain-hind" category="71" did="1879370024" parentZoneId="1879368366" longitude="-44.380985" latitude="33.46197"/>
<marker id="683692211" label="Taurog Elder" category="71" did="1879369925" parentZoneId="1879368366" longitude="-44.380985" latitude="33.46197"/>
<marker id="683692212" label="Mithrin Worm" category="71" did="1879369924" parentZoneId="1879368366" longitude="-44.380985" latitude="33.46197"/>
<marker id="683692213" label="Young Cold-drake" category="71" did="1879369926" parentZoneId="1879368366" longitude="-44.380985" latitude="33.46197"/>
<marker id="683692214" label="Northern Fox" category="78" did="1879363816" parentZoneId="1879368366" longitude="-43.8082" latitude="33.916553"/>
<marker id="683692215" label="Northern Viper" category="78" did="1879369242" parentZoneId="1879368366" longitude="-43.8082" latitude="33.916553"/>
<marker id="683692216" label="Northern Hare" category="78" did="1879363821" parentZoneId="1879368366" longitude="-43.8082" latitude="33.916553"/>
<marker id="683692217" label="Goat" category="78" did="1879358942" parentZoneId="1879368366" longitude="-43.8082" latitude="33.916553"/>
<marker id="683692218" label="Northern Fox" category="78" did="1879363816" parentZoneId="1879368366" longitude="-43.70828" latitude="33.67483"/>
<marker id="683692219" label="Northern Viper" category="78" did="1879369242" parentZoneId="1879368366" longitude="-43.70828" latitude="33.67483"/>
<marker id="683692220" label="Northern Hare" category="78" did="1879363821" parentZoneId="1879368366" longitude="-43.70828" latitude="33.67483"/>
<marker id="683692221" label="Goat" category="78" did="1879358942" parentZoneId="1879368366" longitude="-43.70828" latitude="33.67483"/>
<marker id="683692222" label="Northern Fox" category="78" did="1879363816" parentZoneId="1879368366" longitude="-43.734463" latitude="33.481133"/>
<marker id="683692223" label="Northern Viper" category="78" did="1879369242" parentZoneId="1879368366" longitude="-43.734463" latitude="33.481133"/>
<marker id="683692224" label="Northern Hare" category="78" did="1879363821" parentZoneId="1879368366" longitude="-43.734463" latitude="33.481133"/>
<marker id="683692225" label="Goat" category="78" did="1879358942" parentZoneId="1879368366" longitude="-43.734463" latitude="33.481133"/>
<marker id="683692226" label="Northern Fox" category="78" did="1879363816" parentZoneId="1879368366" longitude="-43.90995" latitude="33.52109"/>
<marker id="683692227" label="Northern Viper" category="78" did="1879369242" parentZoneId="1879368366" longitude="-43.90995" latitude="33.52109"/>
<marker id="683692228" label="Northern Hare" category="78" did="1879363821" parentZoneId="1879368366" longitude="-43.90995" latitude="33.52109"/>
<marker id="683692229" label="Goat" category="78" did="1879358942" parentZoneId="1879368366" longitude="-43.90995" latitude="33.52109"/>
<marker id="683692230" label="Northern Fox" category="78" did="1879363816" parentZoneId="1879368366" longitude="-44.053974" latitude="33.398926"/>
<marker id="683692231" label="Northern Viper" category="78" did="1879369242" parentZoneId="1879368366" longitude="-44.053974" latitude="33.398926"/>
<marker id="683692232" label="Northern Hare" category="78" did="1879363821" parentZoneId="1879368366" longitude="-44.053974" latitude="33.398926"/>
<marker id="683692233" label="Goat" category="78" did="1879358942" parentZoneId="1879368366" longitude="-44.053974" latitude="33.398926"/>
<marker id="683692234" label="Northern Fox" category="78" did="1879363816" parentZoneId="1879368366" longitude="-44.19538" latitude="33.28909"/>
<marker id="683692235" label="Northern Viper" category="78" did="1879369242" parentZoneId="1879368366" longitude="-44.19538" latitude="33.28909"/>
<marker id="683692236" label="Northern Hare" category="78" did="1879363821" parentZoneId="1879368366" longitude="-44.19538" latitude="33.28909"/>
<marker id="683692237" label="Goat" category="78" did="1879358942" parentZoneId="1879368366" longitude="-44.19538" latitude="33.28909"/>
<marker id="683692238" label="Northern Fox" category="78" did="1879363816" parentZoneId="1879368366" longitude="-43.92368" latitude="33.26915"/>
<marker id="683692239" label="Northern Viper" category="78" did="1879369242" parentZoneId="1879368366" longitude="-43.92368" latitude="33.26915"/>
<marker id="683692240" label="Northern Hare" category="78" did="1879363821" parentZoneId="1879368366" longitude="-43.92368" latitude="33.26915"/>
<marker id="683692241" label="Goat" category="78" did="1879358942" parentZoneId="1879368366" longitude="-43.92368" latitude="33.26915"/>
<marker id="683692242" label="Northern Fox" category="78" did="1879363816" parentZoneId="1879368366" longitude="-43.716854" latitude="33.25424"/>
<marker id="683692243" label="Northern Viper" category="78" did="1879369242" parentZoneId="1879368366" longitude="-43.716854" latitude="33.25424"/>
<marker id="683692244" label="Northern Hare" category="78" did="1879363821" parentZoneId="1879368366" longitude="-43.716854" latitude="33.25424"/>
<marker id="683692245" label="Goat" category="78" did="1879358942" parentZoneId="1879368366" longitude="-43.716854" latitude="33.25424"/>
<marker id="683692246" label="Northern Fox" category="78" did="1879363816" parentZoneId="1879368366" longitude="-44.35547" latitude="33.486717"/>
<marker id="683692247" label="Northern Viper" category="78" did="1879369242" parentZoneId="1879368366" longitude="-44.35547" latitude="33.486717"/>
<marker id="683692248" label="Northern Hare" category="78" did="1879363821" parentZoneId="1879368366" longitude="-44.35547" latitude="33.486717"/>
<marker id="683692249" label="Goat" category="78" did="1879358942" parentZoneId="1879368366" longitude="-44.35547" latitude="33.486717"/>
<marker id="683692250" label="Northern Fox" category="78" did="1879363816" parentZoneId="1879368366" longitude="-44.21955" latitude="33.65254"/>
<marker id="683692251" label="Northern Viper" category="78" did="1879369242" parentZoneId="1879368366" longitude="-44.21955" latitude="33.65254"/>
<marker id="683692252" label="Northern Hare" category="78" did="1879363821" parentZoneId="1879368366" longitude="-44.21955" latitude="33.65254"/>
<marker id="683692253" label="Goat" category="78" did="1879358942" parentZoneId="1879368366" longitude="-44.21955" latitude="33.65254"/>
<marker id="683692254" label="Northern Fox" category="78" did="1879363816" parentZoneId="1879368366" longitude="-44.336006" latitude="33.73956"/>
<marker id="683692255" label="Northern Viper" category="78" did="1879369242" parentZoneId="1879368366" longitude="-44.336006" latitude="33.73956"/>
<marker id="683692256" label="Northern Hare" category="78" did="1879363821" parentZoneId="1879368366" longitude="-44.336006" latitude="33.73956"/>
<marker id="683692257" label="Goat" category="78" did="1879358942" parentZoneId="1879368366" longitude="-44.336006" latitude="33.73956"/>
<marker id="683692258" label="Northern Fox" category="78" did="1879363816" parentZoneId="1879368366" longitude="-44.215897" latitude="33.846874"/>
<marker id="683692259" label="Northern Viper" category="78" did="1879369242" parentZoneId="1879368366" longitude="-44.215897" latitude="33.846874"/>
<marker id="683692260" label="Northern Hare" category="78" did="1879363821" parentZoneId="1879368366" longitude="-44.215897" latitude="33.846874"/>
<marker id="683692261" label="Goat" category="78" did="1879358942" parentZoneId="1879368366" longitude="-44.215897" latitude="33.846874"/>
<marker id="683692262" label="Northern Fox" category="78" did="1879363816" parentZoneId="1879368366" longitude="-44.002693" latitude="33.81283"/>
<marker id="683692263" label="Northern Viper" category="78" did="1879369242" parentZoneId="1879368366" longitude="-44.002693" latitude="33.81283"/>
<marker id="683692264" label="Northern Hare" category="78" did="1879363821" parentZoneId="1879368366" longitude="-44.002693" latitude="33.81283"/>
<marker id="683692265" label="Goat" category="78" did="1879358942" parentZoneId="1879368366" longitude="-44.002693" latitude="33.81283"/>
<marker id="683696128" label="Goat" category="78" did="1879358942" parentZoneId="1879368366" longitude="-44.03463" latitude="34.561874"/>
<marker id="683696129" label="Heavy Thornholt Branches" category="50" did="1879370488" parentZoneId="1879368366" longitude="-43.75494" latitude="34.21031"/>
<marker id="683696130" label="Thornholt Branches" category="50" did="1879370486" parentZoneId="1879368366" longitude="-43.75494" latitude="34.21031"/>
<marker id="683696131" label="Rich Ironfold Skarn Deposit" category="50" did="1879370484" parentZoneId="1879368366" longitude="-43.75494" latitude="34.21031"/>
<marker id="683696132" label="Ironfold Skarn Deposit" category="50" did="1879370483" parentZoneId="1879368366" longitude="-43.75494" latitude="34.21031"/>
<marker id="683696133" label="Cold-drake" category="71" did="1879369929" parentZoneId="1879368366" longitude="-44.047234" latitude="34.56619"/>
<marker id="683696134" label="Mithrin Wolf" category="71" did="1879369933" parentZoneId="1879368366" longitude="-44.047234" latitude="34.56619"/>
<marker id="683696135" label="Grey-mountain Ram" category="71" did="1879369934" parentZoneId="1879368366" longitude="-44.047234" latitude="34.56619"/>
<marker id="683696136" label="Mithrin Lath-bear" category="71" did="1879369923" parentZoneId="1879368366" longitude="-44.047234" latitude="34.56619"/>
<marker id="683696137" label="Mithrin Worm" category="71" did="1879369924" parentZoneId="1879368366" longitude="-44.047234" latitude="34.56619"/>
<marker id="683696138" label="Young Cold-drake" category="71" did="1879369926" parentZoneId="1879368366" longitude="-44.047234" latitude="34.56619"/>
<marker id="683696139" label="Grey Hawk" category="71" did="1879369918" parentZoneId="1879368366" longitude="-44.047234" latitude="34.56619"/>
<marker id="683696140" label="Mountain-hart" category="71" did="1879370023" parentZoneId="1879368366" longitude="-44.047234" latitude="34.56619"/>
<marker id="683696141" label="Mountain-hind" category="71" did="1879370024" parentZoneId="1879368366" longitude="-44.047234" latitude="34.56619"/>
<marker id="683696142" label="Northern Viper" category="78" did="1879369242" parentZoneId="1879368366" longitude="-44.03463" latitude="34.561874"/>
<marker id="683696143" label="Mithrin Wolverine" category="71" did="1879378384" parentZoneId="1879368366" longitude="-44.047234" latitude="34.56619"/>
<marker id="683696144" label="Northern Fox" category="78" did="1879363816" parentZoneId="1879368366" longitude="-44.03463" latitude="34.561874"/>
<marker id="683696145" label="Northern Hare" category="78" did="1879363821" parentZoneId="1879368366" longitude="-44.03463" latitude="34.561874"/>
<marker id="683696146" label="Cold-drake" category="71" did="1879369929" parentZoneId="1879368366" longitude="-43.658848" latitude="34.748787"/>
<marker id="683696147" label="Grey Hawk" category="71" did="1879369918" parentZoneId="1879368366" longitude="-43.658848" latitude="34.748787"/>
<marker id="683696148" label="Taurog Warrior" category="71" did="1879369931" parentZoneId="1879368366" longitude="-43.658848" latitude="34.748787"/>
<marker id="683696149" label="Mountain-hart" category="71" did="1879370023" parentZoneId="1879368366" longitude="-43.658848" latitude="34.748787"/>
<marker id="683696150" label="Mithrin Wolf" category="71" did="1879369933" parentZoneId="1879368366" longitude="-43.658848" latitude="34.748787"/>
<marker id="683696151" label="Mithrin Wolverine" category="71" did="1879378384" parentZoneId="1879368366" longitude="-43.658848" latitude="34.748787"/>
<marker id="683696152" label="Grey-mountain Ram" category="71" did="1879369934" parentZoneId="1879368366" longitude="-43.658848" latitude="34.748787"/>
<marker id="683696153" label="Mithrin Lath-bear" category="71" did="1879369923" parentZoneId="1879368366" longitude="-43.658848" latitude="34.748787"/>
<marker id="683696154" label="Mountain-hind" category="71" did="1879370024" parentZoneId="1879368366" longitude="-43.658848" latitude="34.748787"/>
<marker id="683696155" label="Taurog Elder" category="71" did="1879369925" parentZoneId="1879368366" longitude="-43.658848" latitude="34.748787"/>
<marker id="683696156" label="Mithrin Worm" category="71" did="1879369924" parentZoneId="1879368366" longitude="-43.658848" latitude="34.748787"/>
<marker id="683696157" label="Young Cold-drake" category="71" did="1879369926" parentZoneId="1879368366" longitude="-43.658848" latitude="34.748787"/>
<marker id="683696158" label="Cold-drake" category="71" did="1879369929" parentZoneId="1879368366" longitude="-43.783916" latitude="34.672176"/>
<marker id="683696159" label="Grey Hawk" category="71" did="1879369918" parentZoneId="1879368366" longitude="-43.783916" latitude="34.672176"/>
<marker id="683696160" label="Taurog Warrior" category="71" did="1879369931" parentZoneId="1879368366" longitude="-43.783916" latitude="34.672176"/>
<marker id="683696161" label="Mountain-hart" category="71" did="1879370023" parentZoneId="1879368366" longitude="-43.783916" latitude="34.672176"/>
<marker id="683696162" label="Mithrin Wolf" category="71" did="1879369933" parentZoneId="1879368366" longitude="-43.783916" latitude="34.672176"/>
<marker id="683696163" label="Mithrin Wolverine" category="71" did="1879378384" parentZoneId="1879368366" longitude="-43.783916" latitude="34.672176"/>
<marker id="683696164" label="Grey-mountain Ram" category="71" did="1879369934" parentZoneId="1879368366" longitude="-43.783916" latitude="34.672176"/>
<marker id="683696165" label="Mithrin Lath-bear" category="71" did="1879369923" parentZoneId="1879368366" longitude="-43.783916" latitude="34.672176"/>
<marker id="683696166" label="Mountain-hind" category="71" did="1879370024" parentZoneId="1879368366" longitude="-43.783916" latitude="34.672176"/>
<marker id="683696167" label="Taurog Elder" category="71" did="1879369925" parentZoneId="1879368366" longitude="-43.783916" latitude="34.672176"/>
<marker id="683696168" label="Mithrin Worm" category="71" did="1879369924" parentZoneId="1879368366" longitude="-43.783916" latitude="34.672176"/>
<marker id="683696169" label="Young Cold-drake" category="71" did="1879369926" parentZoneId="1879368366" longitude="-43.783916" latitude="34.672176"/>
<marker id="683696170" label="Cold-drake" category="71" did="1879369929" parentZoneId="1879368366" longitude="-43.87031" latitude="34.613857"/>
<marker id="683696171" label="Grey Hawk" category="71" did="1879369918" parentZoneId="1879368366" longitude="-43.87031" latitude="34.613857"/>
<marker id="683696172" label="Taurog Warrior" category="71" did="1879369931" parentZoneId="1879368366" longitude="-43.87031" latitude="34.613857"/>
<marker id="683696173" label="Mountain-hart" category="71" did="1879370023" parentZoneId="1879368366" longitude="-43.87031" latitude="34.613857"/>
<marker id="683696174" label="Mithrin Wolf" category="71" did="1879369933" parentZoneId="1879368366" longitude="-43.87031" latitude="34.613857"/>
<marker id="683696175" label="Mithrin Wolverine" category="71" did="1879378384" parentZoneId="1879368366" longitude="-43.87031" latitude="34.613857"/>
<marker id="683696176" label="Grey-mountain Ram" category="71" did="1879369934" parentZoneId="1879368366" longitude="-43.87031" latitude="34.613857"/>
<marker id="683696177" label="Mithrin Lath-bear" category="71" did="1879369923" parentZoneId="1879368366" longitude="-43.87031" latitude="34.613857"/>
<marker id="683696178" label="Mountain-hind" category="71" did="1879370024" parentZoneId="1879368366" longitude="-43.87031" latitude="34.613857"/>
<marker id="683696179" label="Taurog Elder" category="71" did="1879369925" parentZoneId="1879368366" longitude="-43.87031" latitude="34.613857"/>
<marker id="683696180" label="Mithrin Worm" category="71" did="1879369924" parentZoneId="1879368366" longitude="-43.87031" latitude="34.613857"/>
<marker id="683696181" label="Young Cold-drake" category="71" did="1879369926" parentZoneId="1879368366" longitude="-43.87031" latitude="34.613857"/>
<marker id="683696182" label="Cold-drake" category="71" did="1879369929" parentZoneId="1879368366" longitude="-43.623837" latitude="34.48706"/>
<marker id="683696183" label="Grey Hawk" category="71" did="1879369918" parentZoneId="1879368366" longitude="-43.623837" latitude="34.48706"/>
<marker id="683696184" label="Taurog Warrior" category="71" did="1879369931" parentZoneId="1879368366" longitude="-43.623837" latitude="34.48706"/>
<marker id="683696185" label="Mountain-hart" category="71" did="1879370023" parentZoneId="1879368366" longitude="-43.623837" latitude="34.48706"/>
<marker id="683696186" label="Mithrin Wolf" category="71" did="1879369933" parentZoneId="1879368366" longitude="-43.623837" latitude="34.48706"/>
<marker id="683696187" label="Mithrin Wolverine" category="71" did="1879378384" parentZoneId="1879368366" longitude="-43.623837" latitude="34.48706"/>
<marker id="683696188" label="Grey-mountain Ram" category="71" did="1879369934" parentZoneId="1879368366" longitude="-43.623837" latitude="34.48706"/>
<marker id="683696189" label="Mithrin Lath-bear" category="71" did="1879369923" parentZoneId="1879368366" longitude="-43.623837" latitude="34.48706"/>
<marker id="683696190" label="Mountain-hind" category="71" did="1879370024" parentZoneId="1879368366" longitude="-43.623837" latitude="34.48706"/>
<marker id="683696191" label="Taurog Elder" category="71" did="1879369925" parentZoneId="1879368366" longitude="-43.623837" latitude="34.48706"/>
<marker id="683696192" label="Mithrin Worm" category="71" did="1879369924" parentZoneId="1879368366" longitude="-43.623837" latitude="34.48706"/>
<marker id="683696193" label="Young Cold-drake" category="71" did="1879369926" parentZoneId="1879368366" longitude="-43.623837" latitude="34.48706"/>
<marker id="683696194" label="Cold-drake" category="71" did="1879369929" parentZoneId="1879368366" longitude="-43.747715" latitude="34.107384"/>
<marker id="683696195" label="Grey Hawk" category="71" did="1879369918" parentZoneId="1879368366" longitude="-43.747715" latitude="34.107384"/>
<marker id="683696196" label="Taurog Warrior" category="71" did="1879369931" parentZoneId="1879368366" longitude="-43.747715" latitude="34.107384"/>
<marker id="683696197" label="Mountain-hart" category="71" did="1879370023" parentZoneId="1879368366" longitude="-43.747715" latitude="34.107384"/>
<marker id="683696198" label="Mithrin Wolf" category="71" did="1879369933" parentZoneId="1879368366" longitude="-43.747715" latitude="34.107384"/>
<marker id="683696199" label="Mithrin Wolverine" category="71" did="1879378384" parentZoneId="1879368366" longitude="-43.747715" latitude="34.107384"/>
<marker id="683696200" label="Grey-mountain Ram" category="71" did="1879369934" parentZoneId="1879368366" longitude="-43.747715" latitude="34.107384"/>
<marker id="683696201" label="Mithrin Lath-bear" category="71" did="1879369923" parentZoneId="1879368366" longitude="-43.747715" latitude="34.107384"/>
<marker id="683696202" label="Mountain-hind" category="71" did="1879370024" parentZoneId="1879368366" longitude="-43.747715" latitude="34.107384"/>
<marker id="683696203" label="Taurog Elder" category="71" did="1879369925" parentZoneId="1879368366" longitude="-43.747715" latitude="34.107384"/>
<marker id="683696204" label="Mithrin Worm" category="71" did="1879369924" parentZoneId="1879368366" longitude="-43.747715" latitude="34.107384"/>
<marker id="683696205" label="Young Cold-drake" category="71" did="1879369926" parentZoneId="1879368366" longitude="-43.747715" latitude="34.107384"/>
<marker id="683696206" label="Cold-drake" category="71" did="1879369929" parentZoneId="1879368366" longitude="-43.888515" latitude="34.21539"/>
<marker id="683696207" label="Grey Hawk" category="71" did="1879369918" parentZoneId="1879368366" longitude="-43.888515" latitude="34.21539"/>
<marker id="683696208" label="Taurog Warrior" category="71" did="1879369931" parentZoneId="1879368366" longitude="-43.888515" latitude="34.21539"/>
<marker id="683696209" label="Mountain-hart" category="71" did="1879370023" parentZoneId="1879368366" longitude="-43.888515" latitude="34.21539"/>
<marker id="683696210" label="Mithrin Wolf" category="71" did="1879369933" parentZoneId="1879368366" longitude="-43.888515" latitude="34.21539"/>
<marker id="683696211" label="Mithrin Wolverine" category="71" did="1879378384" parentZoneId="1879368366" longitude="-43.888515" latitude="34.21539"/>
<marker id="683696212" label="Grey-mountain Ram" category="71" did="1879369934" parentZoneId="1879368366" longitude="-43.888515" latitude="34.21539"/>
<marker id="683696213" label="Mithrin Lath-bear" category="71" did="1879369923" parentZoneId="1879368366" longitude="-43.888515" latitude="34.21539"/>
<marker id="683696214" label="Mountain-hind" category="71" did="1879370024" parentZoneId="1879368366" longitude="-43.888515" latitude="34.21539"/>
<marker id="683696215" label="Taurog Elder" category="71" did="1879369925" parentZoneId="1879368366" longitude="-43.888515" latitude="34.21539"/>
<marker id="683696216" label="Mithrin Worm" category="71" did="1879369924" parentZoneId="1879368366" longitude="-43.888515" latitude="34.21539"/>
<marker id="683696217" label="Young Cold-drake" category="71" did="1879369926" parentZoneId="1879368366" longitude="-43.888515" latitude="34.21539"/>
<marker id="683696218" label="Cold-drake" category="71" did="1879369929" parentZoneId="1879368366" longitude="-44.053604" latitude="34.160652"/>
<marker id="683696219" label="Grey Hawk" category="71" did="1879369918" parentZoneId="1879368366" longitude="-44.053604" latitude="34.160652"/>
<marker id="683696220" label="Taurog Warrior" category="71" did="1879369931" parentZoneId="1879368366" longitude="-44.053604" latitude="34.160652"/>
<marker id="683696221" label="Mountain-hart" category="71" did="1879370023" parentZoneId="1879368366" longitude="-44.053604" latitude="34.160652"/>
<marker id="683696222" label="Mithrin Wolf" category="71" did="1879369933" parentZoneId="1879368366" longitude="-44.053604" latitude="34.160652"/>
<marker id="683696223" label="Mithrin Wolverine" category="71" did="1879378384" parentZoneId="1879368366" longitude="-44.053604" latitude="34.160652"/>
<marker id="683696224" label="Grey-mountain Ram" category="71" did="1879369934" parentZoneId="1879368366" longitude="-44.053604" latitude="34.160652"/>
<marker id="683696225" label="Mithrin Lath-bear" category="71" did="1879369923" parentZoneId="1879368366" longitude="-44.053604" latitude="34.160652"/>
<marker id="683696226" label="Mountain-hind" category="71" did="1879370024" parentZoneId="1879368366" longitude="-44.053604" latitude="34.160652"/>
<marker id="683696227" label="Taurog Elder" category="71" did="1879369925" parentZoneId="1879368366" longitude="-44.053604" latitude="34.160652"/>
<marker id="683696228" label="Mithrin Worm" category="71" did="1879369924" parentZoneId="1879368366" longitude="-44.053604" latitude="34.160652"/>
<marker id="683696229" label="Young Cold-drake" category="71" did="1879369926" parentZoneId="1879368366" longitude="-44.053604" latitude="34.160652"/>
<marker id="683696230" label="Cold-drake" category="71" did="1879369929" parentZoneId="1879368366" longitude="-44.05294" latitude="34.003525"/>
<marker id="683696231" label="Grey Hawk" category="71" did="1879369918" parentZoneId="1879368366" longitude="-44.05294" latitude="34.003525"/>
<marker id="683696232" label="Taurog Warrior" category="71" did="1879369931" parentZoneId="1879368366" longitude="-44.05294" latitude="34.003525"/>
<marker id="683696233" label="Mountain-hart" category="71" did="1879370023" parentZoneId="1879368366" longitude="-44.05294" latitude="34.003525"/>
<marker id="683696234" label="Mithrin Wolf" category="71" did="1879369933" parentZoneId="1879368366" longitude="-44.05294" latitude="34.003525"/>
<marker id="683696235" label="Mithrin Wolverine" category="71" did="1879378384" parentZoneId="1879368366" longitude="-44.05294" latitude="34.003525"/>
<marker id="683696236" label="Grey-mountain Ram" category="71" did="1879369934" parentZoneId="1879368366" longitude="-44.05294" latitude="34.003525"/>
<marker id="683696237" label="Mithrin Lath-bear" category="71" did="1879369923" parentZoneId="1879368366" longitude="-44.05294" latitude="34.003525"/>
<marker id="683696238" label="Mountain-hind" category="71" did="1879370024" parentZoneId="1879368366" longitude="-44.05294" latitude="34.003525"/>
<marker id="683696239" label="Taurog Elder" category="71" did="1879369925" parentZoneId="1879368366" longitude="-44.05294" latitude="34.003525"/>
<marker id="683696240" label="Mithrin Worm" category="71" did="1879369924" parentZoneId="1879368366" longitude="-44.05294" latitude="34.003525"/>
<marker id="683696241" label="Young Cold-drake" category="71" did="1879369926" parentZoneId="1879368366" longitude="-44.05294" latitude="34.003525"/>
<marker id="683696242" label="Cold-drake" category="71" did="1879369929" parentZoneId="1879368366" longitude="-44.258545" latitude="34.063915"/>
<marker id="683696243" label="Grey Hawk" category="71" did="1879369918" parentZoneId="1879368366" longitude="-44.258545" latitude="34.063915"/>
<marker id="683696244" label="Taurog Warrior" category="71" did="1879369931" parentZoneId="1879368366" longitude="-44.258545" latitude="34.063915"/>
<marker id="683696245" label="Mountain-hart" category="71" did="1879370023" parentZoneId="1879368366" longitude="-44.258545" latitude="34.063915"/>
<marker id="683696246" label="Mithrin Wolf" category="71" did="1879369933" parentZoneId="1879368366" longitude="-44.258545" latitude="34.063915"/>
<marker id="683696247" label="Mithrin Wolverine" category="71" did="1879378384" parentZoneId="1879368366" longitude="-44.258545" latitude="34.063915"/>
<marker id="683696248" label="Grey-mountain Ram" category="71" did="1879369934" parentZoneId="1879368366" longitude="-44.258545" latitude="34.063915"/>
<marker id="683696249" label="Mithrin Lath-bear" category="71" did="1879369923" parentZoneId="1879368366" longitude="-44.258545" latitude="34.063915"/>
<marker id="683696250" label="Mountain-hind" category="71" did="1879370024" parentZoneId="1879368366" longitude="-44.258545" latitude="34.063915"/>
<marker id="683696251" label="Taurog Elder" category="71" did="1879369925" parentZoneId="1879368366" longitude="-44.258545" latitude="34.063915"/>
<marker id="683696252" label="Mithrin Worm" category="71" did="1879369924" parentZoneId="1879368366" longitude="-44.258545" latitude="34.063915"/>
<marker id="683696253" label="Young Cold-drake" category="71" did="1879369926" parentZoneId="1879368366" longitude="-44.258545" latitude="34.063915"/>
<marker id="683696254" label="Cold-drake" category="71" did="1879369929" parentZoneId="1879368366" longitude="-44.363846" latitude="34.763866"/>
<marker id="683696255" label="Grey Hawk" category="71" did="1879369918" parentZoneId="1879368366" longitude="-44.363846" latitude="34.763866"/>
<marker id="683696256" label="Taurog Warrior" category="71" did="1879369931" parentZoneId="1879368366" longitude="-44.363846" latitude="34.763866"/>
<marker id="683696257" label="Mountain-hart" category="71" did="1879370023" parentZoneId="1879368366" longitude="-44.363846" latitude="34.763866"/>
<marker id="683696258" label="Mithrin Wolf" category="71" did="1879369933" parentZoneId="1879368366" longitude="-44.363846" latitude="34.763866"/>
<marker id="683696259" label="Mithrin Wolverine" category="71" did="1879378384" parentZoneId="1879368366" longitude="-44.363846" latitude="34.763866"/>
<marker id="683696260" label="Grey-mountain Ram" category="71" did="1879369934" parentZoneId="1879368366" longitude="-44.363846" latitude="34.763866"/>
<marker id="683696261" label="Mithrin Lath-bear" category="71" did="1879369923" parentZoneId="1879368366" longitude="-44.363846" latitude="34.763866"/>
<marker id="683696262" label="Mountain-hind" category="71" did="1879370024" parentZoneId="1879368366" longitude="-44.363846" latitude="34.763866"/>
<marker id="683696263" label="Taurog Elder" category="71" did="1879369925" parentZoneId="1879368366" longitude="-44.363846" latitude="34.763866"/>
<marker id="683696264" label="Mithrin Worm" category="71" did="1879369924" parentZoneId="1879368366" longitude="-44.363846" latitude="34.763866"/>
<marker id="683696265" label="Young Cold-drake" category="71" did="1879369926" parentZoneId="1879368366" longitude="-44.363846" latitude="34.763866"/>
<marker id="683696266" label="Cold-drake" category="71" did="1879369929" parentZoneId="1879368366" longitude="-44.19657" latitude="34.734657"/>
<marker id="683696267" label="Grey Hawk" category="71" did="1879369918" parentZoneId="1879368366" longitude="-44.19657" latitude="34.734657"/>
<marker id="683696268" label="Taurog Warrior" category="71" did="1879369931" parentZoneId="1879368366" longitude="-44.19657" latitude="34.734657"/>
<marker id="683696269" label="Mountain-hart" category="71" did="1879370023" parentZoneId="1879368366" longitude="-44.19657" latitude="34.734657"/>
<marker id="683696270" label="Mithrin Wolf" category="71" did="1879369933" parentZoneId="1879368366" longitude="-44.19657" latitude="34.734657"/>
<marker id="683696271" label="Mithrin Wolverine" category="71" did="1879378384" parentZoneId="1879368366" longitude="-44.19657" latitude="34.734657"/>
<marker id="683696272" label="Grey-mountain Ram" category="71" did="1879369934" parentZoneId="1879368366" longitude="-44.19657" latitude="34.734657"/>
<marker id="683696273" label="Mithrin Lath-bear" category="71" did="1879369923" parentZoneId="1879368366" longitude="-44.19657" latitude="34.734657"/>
<marker id="683696274" label="Mountain-hind" category="71" did="1879370024" parentZoneId="1879368366" longitude="-44.19657" latitude="34.734657"/>
<marker id="683696275" label="Taurog Elder" category="71" did="1879369925" parentZoneId="1879368366" longitude="-44.19657" latitude="34.734657"/>
<marker id="683696276" label="Mithrin Worm" category="71" did="1879369924" parentZoneId="1879368366" longitude="-44.19657" latitude="34.734657"/>
<marker id="683696277" label="Young Cold-drake" category="71" did="1879369926" parentZoneId="1879368366" longitude="-44.19657" latitude="34.734657"/>
<marker id="683696278" label="Cold-drake" category="71" did="1879369929" parentZoneId="1879368366" longitude="-44.366367" latitude="34.541843"/>
<marker id="683696279" label="Grey Hawk" category="71" did="1879369918" parentZoneId="1879368366" longitude="-44.366367" latitude="34.541843"/>
<marker id="683696280" label="Taurog Warrior" category="71" did="1879369931" parentZoneId="1879368366" longitude="-44.366367" latitude="34.541843"/>
<marker id="683696281" label="Mountain-hart" category="71" did="1879370023" parentZoneId="1879368366" longitude="-44.366367" latitude="34.541843"/>
<marker id="683696282" label="Mithrin Wolf" category="71" did="1879369933" parentZoneId="1879368366" longitude="-44.366367" latitude="34.541843"/>
<marker id="683696283" label="Mithrin Wolverine" category="71" did="1879378384" parentZoneId="1879368366" longitude="-44.366367" latitude="34.541843"/>
<marker id="683696284" label="Grey-mountain Ram" category="71" did="1879369934" parentZoneId="1879368366" longitude="-44.366367" latitude="34.541843"/>
<marker id="683696285" label="Mithrin Lath-bear" category="71" did="1879369923" parentZoneId="1879368366" longitude="-44.366367" latitude="34.541843"/>
<marker id="683696286" label="Mountain-hind" category="71" did="1879370024" parentZoneId="1879368366" longitude="-44.366367" latitude="34.541843"/>
<marker id="683696287" label="Taurog Elder" category="71" did="1879369925" parentZoneId="1879368366" longitude="-44.366367" latitude="34.541843"/>
<marker id="683696288" label="Mithrin Worm" category="71" did="1879369924" parentZoneId="1879368366" longitude="-44.366367" latitude="34.541843"/>
<marker id="683696289" label="Young Cold-drake" category="71" did="1879369926" parentZoneId="1879368366" longitude="-44.366367" latitude="34.541843"/>
<marker id="683696290" label="Cold-drake" category="71" did="1879369929" parentZoneId="1879368366" longitude="-44.256004" latitude="34.57371"/>
<marker id="683696291" label="Grey Hawk" category="71" did="1879369918" parentZoneId="1879368366" longitude="-44.256004" latitude="34.57371"/>
<marker id="683696292" label="Taurog Warrior" category="71" did="1879369931" parentZoneId="1879368366" longitude="-44.256004" latitude="34.57371"/>
<marker id="683696293" label="Mountain-hart" category="71" did="1879370023" parentZoneId="1879368366" longitude="-44.256004" latitude="34.57371"/>
<marker id="683696294" label="Mithrin Wolf" category="71" did="1879369933" parentZoneId="1879368366" longitude="-44.256004" latitude="34.57371"/>
<marker id="683696295" label="Mithrin Wolverine" category="71" did="1879378384" parentZoneId="1879368366" longitude="-44.256004" latitude="34.57371"/>
<marker id="683696296" label="Grey-mountain Ram" category="71" did="1879369934" parentZoneId="1879368366" longitude="-44.256004" latitude="34.57371"/>
<marker id="683696297" label="Mithrin Lath-bear" category="71" did="1879369923" parentZoneId="1879368366" longitude="-44.256004" latitude="34.57371"/>
<marker id="683696298" label="Mountain-hind" category="71" did="1879370024" parentZoneId="1879368366" longitude="-44.256004" latitude="34.57371"/>
<marker id="683696299" label="Taurog Elder" category="71" did="1879369925" parentZoneId="1879368366" longitude="-44.256004" latitude="34.57371"/>
<marker id="683696300" label="Mithrin Worm" category="71" did="1879369924" parentZoneId="1879368366" longitude="-44.256004" latitude="34.57371"/>
<marker id="683696301" label="Young Cold-drake" category="71" did="1879369926" parentZoneId="1879368366" longitude="-44.256004" latitude="34.57371"/>
<marker id="683696302" label="Cold-drake" category="71" did="1879369929" parentZoneId="1879368366" longitude="-44.02243" latitude="34.352478"/>
