<?xml version="1.0" encoding="UTF-8"?><markers>
<marker id="1338642435" label="Merethien" category="70" did="1879407269" parentZoneId="1879407790" longitude="53.19537" latitude="30.001932"/>
<marker id="1338642437" label="Samwise Gamgee" category="70" did="1879407183" parentZoneId="1879407790" longitude="53.071854" latitude="30.130468"/>
<marker id="1338642440" label="Thrymm Red-beard" category="70" did="1879407358" parentZoneId="1879407790" longitude="53.054863" latitude="30.048056"/>
<marker id="1338642441" label="Wine Steward" category="70" did="1879408207" parentZoneId="1879407790" longitude="53.10197" latitude="30.150879"/>
<marker id="1338642442" label="King Aragorn II Elessar" category="70" did="1879407159" parentZoneId="1879407790" longitude="53.01246" latitude="30.06745"/>
<marker id="1338642444" label="Samwise Gamgee" category="70" did="1879408432" parentZoneId="1879407790" longitude="53.091816" latitude="29.903631"/>
<marker id="1338642445" label="King Aragorn II Elessar" category="70" did="1879408440" parentZoneId="1879407790" longitude="53.095974" latitude="30.127636"/>
<marker id="1338642449" label="King Aragorn II Elessar" category="70" did="1879408440" parentZoneId="1879407790" longitude="53.09619" latitude="30.130625"/>
<marker id="1338642454" label="Samwise Gamgee" category="70" did="1879408432" parentZoneId="1879407790" longitude="53.071854" latitude="30.130468"/>
<marker id="1338642455" label="Door" category="100" did="1879328988" parentZoneId="1879407790" longitude="53.100235" latitude="30.054785"/>
<marker id="1338642506" label="Ingold" category="70" did="1879407231" parentZoneId="1879407790" longitude="53.053867" latitude="30.07129"/>
<marker id="1338642507" label="Ormatar" category="70" did="1879407226" parentZoneId="1879407790" longitude="53.082283" latitude="30.027256"/>
<marker id="1338642508" label="Corunir" category="70" did="1879407225" parentZoneId="1879407790" longitude="53.10615" latitude="30.040966"/>
<marker id="1338642509" label="Mithrendan" category="70" did="1879407223" parentZoneId="1879407790" longitude="53.093124" latitude="30.02033"/>
<marker id="1338642510" label="Helchon" category="70" did="1879407222" parentZoneId="1879407790" longitude="53.131092" latitude="29.999218"/>
<marker id="1338642511" label="Brungos" category="70" did="1879407219" parentZoneId="1879407790" longitude="53.11904" latitude="29.986162"/>
<marker id="1338642512" label="Dagoras" category="70" did="1879407214" parentZoneId="1879407790" longitude="53.105057" latitude="30.045067"/>
<marker id="1338642513" label="Echadon" category="70" did="1879407212" parentZoneId="1879407790" longitude="53.07164" latitude="30.03415"/>
<marker id="1338642514" label="Techeron" category="70" did="1879407213" parentZoneId="1879407790" longitude="53.139393" latitude="29.985956"/>
<marker id="1338642515" label="Peregrin Took" category="70" did="1879407211" parentZoneId="1879407790" longitude="53.138416" latitude="30.09371"/>
<marker id="1338642516" label="Faeron" category="70" did="1879407209" parentZoneId="1879407790" longitude="53.10619" latitude="30.02793"/>
<marker id="1338642517" label="Langlas" category="70" did="1879407204" parentZoneId="1879407790" longitude="53.126934" latitude="29.999334"/>
<marker id="1338642518" label="Angwedh" category="70" did="1879407201" parentZoneId="1879407790" longitude="53.12703" latitude="29.986025"/>
<marker id="1338642519" label="Lothrandir" category="70" did="1879407199" parentZoneId="1879407790" longitude="53.106113" latitude="30.032537"/>
<marker id="1338642520" label="Nethraw" category="70" did="1879407198" parentZoneId="1879407790" longitude="53.1392" latitude="29.99953"/>
<marker id="1338642521" label="Orthonn" category="70" did="1879407192" parentZoneId="1879407790" longitude="53.131306" latitude="29.985918"/>
<marker id="1338642522" label="Daervunn" category="70" did="1879407195" parentZoneId="1879407790" longitude="53.093826" latitude="30.032627"/>
<marker id="1338642523" label="Culang" category="70" did="1879407190" parentZoneId="1879407790" longitude="53.093143" latitude="30.028173"/>
<marker id="1338642524" label="Mincham" category="70" did="1879407184" parentZoneId="1879407790" longitude="53.106346" latitude="30.015644"/>
<marker id="1338642525" label="Idhrien" category="70" did="1879407187" parentZoneId="1879407790" longitude="53.10492" latitude="30.020712"/>
<marker id="1338642526" label="Baradal" category="70" did="1879407181" parentZoneId="1879407790" longitude="53.123222" latitude="30.03285"/>
<marker id="1338642527" label="Gildor Inglórion" category="70" did="1879407182" parentZoneId="1879407790" longitude="53.11705" latitude="30.027382"/>
<marker id="1338642528" label="Orophin" category="70" did="1879407179" parentZoneId="1879407790" longitude="53.14377" latitude="29.998125"/>
<marker id="1338642529" label="Haldir" category="70" did="1879407174" parentZoneId="1879407790" longitude="53.14984" latitude="29.99241"/>
<marker id="1338642530" label="Arwen's Musician" category="70" did="1879407171" parentZoneId="1879407790" longitude="53.14781" latitude="30.03374"/>
<marker id="1338642532" label="Friend of Arwen" category="70" did="1879407164" parentZoneId="1879407790" longitude="53.127987" latitude="30.032705"/>
<marker id="1338642533" label="Friend of Arwen" category="70" did="1879407164" parentZoneId="1879407790" longitude="53.135056" latitude="30.022099"/>
<marker id="1338642534" label="Friend of Arwen" category="70" did="1879407164" parentZoneId="1879407790" longitude="53.135017" latitude="30.032705"/>
<marker id="1338642535" label="Harthalín" category="70" did="1879407154" parentZoneId="1879407790" longitude="53.12289" latitude="30.021845"/>
<marker id="1338642536" label="Friend of Arwen" category="70" did="1879407152" parentZoneId="1879407790" longitude="53.139317" latitude="30.021885"/>
<marker id="1338642537" label="Friend of Arwen" category="70" did="1879407152" parentZoneId="1879407790" longitude="53.139317" latitude="30.032734"/>
<marker id="1338642538" label="Friend of Arwen" category="70" did="1879407152" parentZoneId="1879407790" longitude="53.14744" latitude="30.021738"/>
<marker id="1338642539" label="Friend of Arwen" category="70" did="1879407152" parentZoneId="1879407790" longitude="53.127617" latitude="30.021551"/>
<marker id="1338642540" label="Elrohir" category="70" did="1879407158" parentZoneId="1879407790" longitude="53.09293" latitude="30.04033"/>
<marker id="1338642541" label="Erestor" category="70" did="1879407156" parentZoneId="1879407790" longitude="53.152325" latitude="30.021904"/>
<marker id="1338642542" label="Glorfindel" category="70" did="1879407151" parentZoneId="1879407790" longitude="53.158573" latitude="30.026943"/>
<marker id="1338642543" label="Elladan" category="70" did="1879407148" parentZoneId="1879407790" longitude="53.09295" latitude="30.045311"/>
<marker id="1338642544" label="Elrond" category="70" did="1879407138" parentZoneId="1879407790" longitude="53.11406" latitude="30.130606"/>
<marker id="1338642545" label="Arwen Undómiel" category="70" did="1879407137" parentZoneId="1879407790" longitude="53.10451" latitude="30.130703"/>
<marker id="1338642546" label="Rúmil" category="70" did="1879407140" parentZoneId="1879407790" longitude="53.14375" latitude="29.987118"/>
<marker id="1338642547" label="Celeborn" category="70" did="1879407135" parentZoneId="1879407790" longitude="53.133396" latitude="30.130985"/>
<marker id="1338642548" label="Lindir" category="70" did="1879407134" parentZoneId="1879407790" longitude="53.152344" latitude="30.032871"/>
<marker id="1338642549" label="Sirien" category="70" did="1879407351" parentZoneId="1879407790" longitude="53.01488" latitude="29.996103"/>
<marker id="1338642550" label="Angbor" category="70" did="1879407348" parentZoneId="1879407790" longitude="53.03994" latitude="30.027128"/>
<marker id="1338642551" label="Lothíriel" category="70" did="1879407346" parentZoneId="1879407790" longitude="53.054802" latitude="30.054453"/>
<marker id="1338642552" label="Thrymm Red-beard" category="70" did="1879407358" parentZoneId="1879407790" longitude="53.13121" latitude="30.054657"/>
<marker id="1338642553" label="Drambor" category="70" did="1879407355" parentZoneId="1879407790" longitude="53.051346" latitude="30.021933"/>
<marker id="1338642554" label="Master Dagrun" category="70" did="1879407352" parentZoneId="1879407790" longitude="53.130447" latitude="30.069092"/>
<marker id="1338642555" label="Arvaethor" category="70" did="1879407353" parentZoneId="1879407790" longitude="53.072556" latitude="29.986776"/>
<marker id="1338642556" label="Terenis" category="70" did="1879407334" parentZoneId="1879407790" longitude="53.091034" latitude="29.99289"/>
<marker id="1338642605" label="Radanir" category="70" did="1879407234" parentZoneId="1879407790" longitude="53.094276" latitude="30.01582"/>
<marker id="1338642609" label="Orgolas" category="70" did="1879407371" parentZoneId="1879407790" longitude="53.00953" latitude="30.030449"/>
<marker id="1338642610" label="Thorongil" category="70" did="1879407374" parentZoneId="1879407790" longitude="53.003574" latitude="30.025106"/>
<marker id="1338642611" label="Milwen" category="70" did="1879407372" parentZoneId="1879407790" longitude="53.046776" latitude="30.021845"/>
<marker id="1338642612" label="Galathir" category="70" did="1879407363" parentZoneId="1879407790" longitude="53.182655" latitude="29.99749"/>
<marker id="1338642613" label="Iorlas" category="70" did="1879407360" parentZoneId="1879407790" longitude="53.065742" latitude="30.079014"/>
<marker id="1338642614" label="Duinhir" category="70" did="1879407367" parentZoneId="1879407790" longitude="53.009724" latitude="29.989609"/>
<marker id="1338642615" label="Erchar" category="70" did="1879407377" parentZoneId="1879407790" longitude="53.0666" latitude="30.059042"/>
<marker id="1338642616" label="Nauriel" category="70" did="1879407382" parentZoneId="1879407790" longitude="53.00375" latitude="30.020742"/>
<marker id="1338642636" label="Gimli" category="70" did="1879407205" parentZoneId="1879407790" longitude="53.099686" latitude="30.009932"/>
<marker id="1338642637" label="Frodo Baggins" category="70" did="1879407191" parentZoneId="1879407790" longitude="53.07797" latitude="30.130741"/>
<marker id="1338642642" label="Legolas" category="70" did="1879407173" parentZoneId="1879407790" longitude="53.099434" latitude="30.050995"/>
<marker id="1338642644" label="Mithrandir" category="70" did="1879407168" parentZoneId="1879407790" longitude="53.040936" latitude="30.08746"/>
<marker id="1338642645" label="Mithrandir" category="70" did="1879407168" parentZoneId="1879407790" longitude="53.08629" latitude="30.130878"/>
<marker id="1338642662" label="Arwen Undómiel" category="70" did="1879407137" parentZoneId="1879407790" longitude="53.003887" latitude="30.061924"/>
<marker id="1338642665" label="Woman of Minas Tirith" category="70" did="1879407368" parentZoneId="1879407790" longitude="52.966972" latitude="30.069511"/>
<marker id="1338642673" label="Man of Minas Tirith" category="70" did="1879407379" parentZoneId="1879407790" longitude="52.99326" latitude="30.073622"/>
<marker id="1338642679" label="Grimbeorn" category="70" did="1879407349" parentZoneId="1879407790" longitude="52.973026" latitude="30.173838"/>
<marker id="1338642682" label="Thrymm Red-beard" category="70" did="1879407358" parentZoneId="1879407790" longitude="53.093594" latitude="30.144697"/>
<marker id="1338642683" label="Man of Minas Tirith" category="70" did="1879407354" parentZoneId="1879407790" longitude="53.000057" latitude="30.107792"/>
<marker id="1338642688" label="Borhador" category="70" did="1879407332" parentZoneId="1879407790" longitude="53.08041" latitude="29.998213"/>
<marker id="1338642689" label="Sirgon" category="70" did="1879407331" parentZoneId="1879407790" longitude="53.0491" latitude="29.992304"/>
<marker id="1338642690" label="Aerlinn" category="70" did="1879407329" parentZoneId="1879407790" longitude="53.07582" latitude="30.032734"/>
<marker id="1338642691" label="Tolwin" category="70" did="1879407328" parentZoneId="1879407790" longitude="53.04707" latitude="30.032587"/>
<marker id="1338642692" label="Prince Imrahil" category="70" did="1879407343" parentZoneId="1879407790" longitude="53.060604" latitude="30.048065"/>
<marker id="1338642693" label="Elfhelm" category="70" did="1879407341" parentZoneId="1879407790" longitude="53.137207" latitude="30.047773"/>
<marker id="1338642694" label="Círaglar" category="70" did="1879407339" parentZoneId="1879407790" longitude="53.065956" latitude="30.054071"/>
<marker id="1338642695" label="Ioreth" category="70" did="1879407337" parentZoneId="1879407790" longitude="53.195408" latitude="29.99748"/>
<marker id="1338642696" label="Thurindol" category="70" did="1879407316" parentZoneId="1879407790" longitude="53.113808" latitude="29.986269"/>
<marker id="1338642697" label="Reniadir" category="70" did="1879407317" parentZoneId="1879407790" longitude="53.06834" latitude="29.997938"/>
<marker id="1338642698" label="Meliniel" category="70" did="1879407319" parentZoneId="1879407790" longitude="53.08441" latitude="29.998026"/>
<marker id="1338642699" label="Celebros" category="70" did="1879407312" parentZoneId="1879407790" longitude="53.05549" latitude="29.987675"/>
<marker id="1338642700" label="Togbor" category="70" did="1879407313" parentZoneId="1879407790" longitude="53.063377" latitude="30.034325"/>
<marker id="1338642701" label="Dervorin" category="70" did="1879407314" parentZoneId="1879407790" longitude="53.071953" latitude="29.998348"/>
<marker id="1338642702" label="Cailin" category="70" did="1879407324" parentZoneId="1879407790" longitude="53.080193" latitude="29.986454"/>
<marker id="1338642703" label="Nimithil" category="70" did="1879407325" parentZoneId="1879407790" longitude="53.05984" latitude="29.998203"/>
<marker id="1338642704" label="Siriel" category="70" did="1879407326" parentZoneId="1879407790" longitude="53.06791" latitude="29.986307"/>
<marker id="1338642705" label="Glánhar" category="70" did="1879407327" parentZoneId="1879407790" longitude="53.05949" latitude="30.032461"/>
<marker id="1338642706" label="Lacheg" category="70" did="1879407321" parentZoneId="1879407790" longitude="53.063652" latitude="30.02079"/>
<marker id="1338642707" label="Glorellas" category="70" did="1879407322" parentZoneId="1879407790" longitude="53.015564" latitude="30.007635"/>
<marker id="1338642708" label="Malhar" category="70" did="1879407302" parentZoneId="1879407790" longitude="53.058826" latitude="30.020653"/>
<marker id="1338642709" label="Mablung" category="70" did="1879407298" parentZoneId="1879407790" longitude="53.11451" latitude="29.999218"/>
<marker id="1338642710" label="Marra" category="70" did="1879407308" parentZoneId="1879407790" longitude="53.01455" latitude="30.025263"/>
<marker id="1338642711" label="Faltharan" category="70" did="1879407305" parentZoneId="1879407790" longitude="53.055527" latitude="29.998867"/>
<marker id="1338642712" label="Rose" category="70" did="1879386179" parentZoneId="1879407790" longitude="52.963203" latitude="30.135586"/>
<marker id="1338642713" label="Rose" category="70" did="1879386179" parentZoneId="1879407790" longitude="52.972614" latitude="30.13543"/>
<marker id="1338642714" label="Rose" category="70" did="1879386179" parentZoneId="1879407790" longitude="52.986015" latitude="30.135702"/>
<marker id="1338642715" label="Sarnion" category="70" did="1879407283" parentZoneId="1879407790" longitude="53.19576" latitude="30.02621"/>
<marker id="1338642716" label="Lorvegil" category="70" did="1879407287" parentZoneId="1879407790" longitude="53.05986" latitude="29.985956"/>
<marker id="1338642717" label="Baranor" category="70" did="1879407291" parentZoneId="1879407790" longitude="53.015137" latitude="30.013027"/>
<marker id="1338642718" label="Dúneth" category="70" did="1879407294" parentZoneId="1879407790" longitude="53.051308" latitude="30.032656"/>
<marker id="1338642719" label="Anborn" category="70" did="1879407292" parentZoneId="1879407790" longitude="53.119236" latitude="29.99827"/>
<marker id="1338642720" label="Cerethon" category="70" did="1879407266" parentZoneId="1879407790" longitude="53.18375" latitude="30.021425"/>
<marker id="1338642721" label="Thalhír" category="70" did="1879407265" parentZoneId="1879407790" longitude="53.07158" latitude="30.020731"/>
<marker id="1338642722" label="Mirudil" category="70" did="1879407271" parentZoneId="1879407790" longitude="53.003067" latitude="30.008457"/>
<marker id="1338642723" label="Merethien" category="70" did="1879407269" parentZoneId="1879407790" longitude="53.174824" latitude="30.024824"/>
<marker id="1338642724" label="Gilithel" category="70" did="1879407275" parentZoneId="1879407790" longitude="53.054764" latitude="30.07871"/>
<marker id="1338642725" label="Targon" category="70" did="1879407274" parentZoneId="1879407790" longitude="53.194706" latitude="30.009666"/>
<marker id="1338642726" label="Bergil" category="70" did="1879407272" parentZoneId="1879407790" longitude="53.065525" latitude="30.08376"/>
<marker id="1338642727" label="Rathon" category="70" did="1879407279" parentZoneId="1879407790" longitude="53.014786" latitude="30.000723"/>
<marker id="1338642728" label="Idhrenil" category="70" did="1879407277" parentZoneId="1879407790" longitude="53.18961" latitude="30.032293"/>
<marker id="1338642729" label="Húrin the Tall" category="70" did="1879407248" parentZoneId="1879407790" longitude="53.00287" latitude="30.013134"/>
<marker id="1338642730" label="Bariel" category="70" did="1879407249" parentZoneId="1879407790" longitude="53.18414" latitude="30.001932"/>
<marker id="1338642731" label="Ostúr" category="70" did="1879407250" parentZoneId="1879407790" longitude="53.00295" latitude="30.000633"/>
<marker id="1338642732" label="Beregond" category="70" did="1879407251" parentZoneId="1879407790" longitude="53.053593" latitude="30.083487"/>
<marker id="1338642733" label="Aglarang" category="70" did="1879407254" parentZoneId="1879407790" longitude="53.183006" latitude="30.009325"/>
<marker id="1338642734" label="Celephir" category="70" did="1879407256" parentZoneId="1879407790" longitude="53.002968" latitude="29.996307"/>
<marker id="1338642735" label="Tegilwen" category="70" did="1879407257" parentZoneId="1879407790" longitude="53.18447" latitude="30.02583"/>
<marker id="1338642736" label="Lenglír" category="70" did="1879407258" parentZoneId="1879407790" longitude="53.195312" latitude="30.021904"/>
<marker id="1338642737" label="Curugond" category="70" did="1879407260" parentZoneId="1879407790" longitude="53.183807" latitude="30.013973"/>
<marker id="1338642738" label="Habdir" category="70" did="1879407263" parentZoneId="1879407790" longitude="53.19578" latitude="30.014101"/>
<marker id="1338642739" label="Meriadoc Brandybuck" category="70" did="1879407232" parentZoneId="1879407790" longitude="53.13697" latitude="30.089102"/>
<marker id="1338642740" label="Meriadoc Brandybuck" category="70" did="1879407232" parentZoneId="1879407790" longitude="53.132244" latitude="30.090292"/>
<marker id="1338642741" label="Damrod" category="70" did="1879407241" parentZoneId="1879407790" longitude="53.10828" latitude="29.992401"/>
<marker id="1338642742" label="Garthebir" category="70" did="1879407242" parentZoneId="1879407790" longitude="53.014843" latitude="30.020351"/>
<marker id="1338642743" label="Faramir" category="70" did="1879407245" parentZoneId="1879407790" longitude="53.063614" latitude="30.130732"/>
<marker id="1338642744" label="Torchún" category="70" did="1879407246" parentZoneId="1879407790" longitude="53.18941" latitude="29.99079"/>
<marker id="1338642748" label="Rosie Cotton" category="70" did="1879407897" parentZoneId="1879407790" longitude="53.071854" latitude="30.130468"/>
<marker id="1338642749" label="Gaffer Gamgee" category="70" did="1879408539" parentZoneId="1879407790" longitude="53.15578" latitude="30.232958"/>
<marker id="1338642750" label="Hal Gamgee" category="70" did="1879408540" parentZoneId="1879407790" longitude="52.87033" latitude="30.025068"/>
<marker id="1338642751" label="Marigold Gamgee" category="70" did="1879408541" parentZoneId="1879407790" longitude="53.24035" latitude="30.11962"/>
<marker id="1338642752" label="Jolly Cotton" category="70" did="1879407895" parentZoneId="1879407790" longitude="53.116367" latitude="29.888447"/>
<marker id="1338642753" label="Nibs Cotton" category="70" did="1879407887" parentZoneId="1879407790" longitude="52.767986" latitude="30.066132"/>
<marker id="1338642754" label="Nick Cotton" category="70" did="1879407896" parentZoneId="1879407790" longitude="52.941208" latitude="30.203545"/>
<marker id="1338642755" label="Tolman Cotton" category="70" did="1879407888" parentZoneId="1879407790" longitude="52.98453" latitude="30.01293"/>
<marker id="1338642756" label="Toldir" category="70" did="1879408443" parentZoneId="1879407790" longitude="53.110703" latitude="30.097284"/>
<marker id="1338642758" label="Meriadoc Brandybuck" category="70" did="1879408435" parentZoneId="1879407790" longitude="53.13697" latitude="30.089102"/>
<marker id="1338642759" label="Barrel of Longbottom Leaf" category="73" did="1879408550" parentZoneId="1879407790" longitude="52.810623" latitude="30.094423"/>
<marker id="1338642760" label="Frodo Baggins" category="70" did="1879408442" parentZoneId="1879407790" longitude="53.07797" latitude="30.130741"/>
<marker id="1338642762" label="Mithrandir" category="70" did="1879408433" parentZoneId="1879407790" longitude="53.08629" latitude="30.130878"/>
<marker id="1338642765" label="Legolas" category="70" did="1879408431" parentZoneId="1879407790" longitude="53.099434" latitude="30.050995"/>
<marker id="1338642768" label="Bottle of Wine" category="73" did="1879408555" parentZoneId="1879407790" longitude="52.70328" latitude="30.142313"/>
<marker id="1338642769" label="Bottle of Wine" category="73" did="1879408555" parentZoneId="1879407790" longitude="52.7841" latitude="30.141737"/>
<marker id="1338642770" label="Bottle of Wine" category="73" did="1879408555" parentZoneId="1879407790" longitude="52.72543" latitude="30.122578"/>
<marker id="1338642771" label="Bottle of Wine" category="73" did="1879408555" parentZoneId="1879407790" longitude="52.62119" latitude="30.432684"/>
<marker id="1338642772" label="Bottle of Wine" category="73" did="1879408555" parentZoneId="1879407790" longitude="52.64744" latitude="30.48955"/>
<marker id="1338642773" label="Bottle of Wine" category="73" did="1879408555" parentZoneId="1879407790" longitude="52.564102" latitude="30.442862"/>
<marker id="1338642774" label="Bottle of Wine" category="73" did="1879408555" parentZoneId="1879407790" longitude="52.667656" latitude="30.424414"/>
<marker id="1338642775" label="Bottle of Wine" category="73" did="1879408555" parentZoneId="1879407790" longitude="52.70867" latitude="30.46372"/>
<marker id="1338642776" label="Bottle of Wine" category="73" did="1879408555" parentZoneId="1879407790" longitude="52.66707" latitude="30.4466"/>
<marker id="1338642777" label="Bottle of Wine" category="73" did="1879408555" parentZoneId="1879407790" longitude="52.8074" latitude="30.12741"/>
<marker id="1338642778" label="Bottle of Wine" category="73" did="1879408555" parentZoneId="1879407790" longitude="52.724686" latitude="30.483828"/>
<marker id="1338642779" label="Bottle of Wine" category="73" did="1879408555" parentZoneId="1879407790" longitude="52.7425" latitude="30.13004"/>
<marker id="1338642781" label="Gimli" category="70" did="1879408434" parentZoneId="1879407790" longitude="53.099686" latitude="30.009932"/>
<marker id="1338642782" label="Bottle of Wine" category="73" did="1879408555" parentZoneId="1879407790" longitude="52.72918" latitude="30.119629"/>
<marker id="1338642783" label="Bottle of Wine" category="73" did="1879408555" parentZoneId="1879407790" longitude="52.619705" latitude="30.394716"/>
<marker id="1338642811" label="Platter of Fine Cheese" category="73" did="1879408547" parentZoneId="1879407790" longitude="52.723183" latitude="30.465204"/>
<marker id="1338642812" label="Platter of Fine Cheese" category="73" did="1879408547" parentZoneId="1879407790" longitude="52.64879" latitude="30.475264"/>
<marker id="1338642813" label="Platter of Fine Breads" category="73" did="1879408548" parentZoneId="1879407790" longitude="52.739727" latitude="30.132275"/>
<marker id="1338642814" label="Platter of Fine Breads" category="73" did="1879408548" parentZoneId="1879407790" longitude="52.727207" latitude="30.139687"/>
<marker id="1338642815" label="Platter of Cooked Turkey" category="73" did="1879408543" parentZoneId="1879407790" longitude="52.78199" latitude="30.128769"/>
<marker id="1338642816" label="Platter of Cooked Turkey" category="73" did="1879408543" parentZoneId="1879407790" longitude="52.77826" latitude="30.131376"/>
<marker id="1338642817" label="Platter of Seasoned Pike" category="73" did="1879408572" parentZoneId="1879407790" longitude="52.794296" latitude="30.136297"/>
<marker id="1338642818" label="Platter of Roasted Boar" category="73" did="1879408566" parentZoneId="1879407790" longitude="52.798553" latitude="30.129267"/>
<marker id="1338642819" label="Glazed Pastry-tower" category="73" did="1879408569" parentZoneId="1879407790" longitude="52.666992" latitude="30.420332"/>
<marker id="1338642820" label="Glazed Pastry-tower" category="73" did="1879408569" parentZoneId="1879407790" longitude="52.666992" latitude="30.432402"/>
<marker id="1338642832" label="Glazed Pastry-tower" category="73" did="1879408569" parentZoneId="1879407790" longitude="52.616737" latitude="30.469345"/>
<marker id="1338642835" label="Peregrin Took" category="70" did="1879408422" parentZoneId="1879407790" longitude="53.060097" latitude="30.088799"/>
<marker id="1338642836" label="Boromir's Horn" category="73" did="1879408564" parentZoneId="1879407790" longitude="53.0666" latitude="30.12494"/>
<marker id="1338642838" label="Faramir" category="70" did="1879408429" parentZoneId="1879407790" longitude="53.063614" latitude="30.130732"/>
<marker id="1338642839" label="Unquieted Table" category="73" did="1879408641" parentZoneId="1879407790" longitude="53.137207" latitude="30.068378"/>
<marker id="1338642840" label="Unquieted Table" category="73" did="1879408641" parentZoneId="1879407790" longitude="53.09959" latitude="30.030565"/>
<marker id="1338642841" label="Unquieted Table" category="73" did="1879408641" parentZoneId="1879407790" longitude="53.137596" latitude="30.026903"/>
<marker id="1338642842" label="Unquieted Table" category="73" did="1879408641" parentZoneId="1879407790" longitude="53.009705" latitude="30.01038"/>
<marker id="1338642843" label="Unquieted Table" category="73" did="1879408641" parentZoneId="1879407790" longitude="53.129375" latitude="29.992332"/>
<marker id="1338642844" label="Unquieted Table" category="73" did="1879408641" parentZoneId="1879407790" longitude="53.020897" latitude="30.099306"/>
<marker id="1338642845" label="Unquieted Table" category="73" did="1879408641" parentZoneId="1879407790" longitude="53.180096" latitude="30.09954"/>
<marker id="1338642846" label="Unquieted Table" category="73" did="1879408641" parentZoneId="1879407790" longitude="53.060173" latitude="30.067968"/>
<marker id="1338642847" label="Unquieted Table" category="73" did="1879408641" parentZoneId="1879407790" longitude="53.09963" latitude="29.968369"/>
<marker id="1338642848" label="Unquieted Table" category="73" did="1879408641" parentZoneId="1879407790" longitude="53.0624" latitude="30.027197"/>
<marker id="1338642849" label="Unquieted Table" category="73" did="1879408641" parentZoneId="1879407790" longitude="52.909706" latitude="30.101122"/>
<marker id="1338642850" label="Unquieted Table" category="73" did="1879408641" parentZoneId="1879407790" longitude="53.07131" latitude="29.99287"/>
<marker id="1338642851" label="Unquieted Table" category="73" did="1879408641" parentZoneId="1879407790" longitude="53.291462" latitude="30.100546"/>
<marker id="1338642852" label="Unquieted Table" category="73" did="1879408641" parentZoneId="1879407790" longitude="53.189392" latitude="30.011845"/>
<marker id="1338642853" label="Pitcher of Ale" category="73" did="1879408701" parentZoneId="1879407790" longitude="53.10033" latitude="30.015"/>
<marker id="1338642858" label="Galadriel" category="70" did="1879407161" parentZoneId="1879407790" longitude="53.123104" latitude="30.130663"/>
<marker id="1338658817" label="Lírveril" category="70" did="1879408575" parentZoneId="1879407789" longitude="53.2216" latitude="33.334198"/>
<marker id="1338658818" label="Door" category="100" did="1879157893" parentZoneId="1879407789" longitude="52.89959" latitude="33.24497"/>
<marker id="1338658819" label="Door" category="100" did="1879157894" parentZoneId="1879407789" longitude="53.195915" latitude="33.154198"/>
<marker id="1338658820" label="Door" category="100" did="1879328988" parentZoneId="1879407789" longitude="52.984177" latitude="33.356133"/>
<marker id="1338658821" label="Colladan" category="70" did="1879408425" parentZoneId="1879407789" longitude="52.99123" latitude="33.192802"/>
<marker id="1338658822" label="Sheet of Parchment" category="73" did="1879408544" parentZoneId="1879407789" longitude="52.934082" latitude="33.294178"/>
<marker id="1338658823" label="Sheet of Parchment" category="73" did="1879408544" parentZoneId="1879407789" longitude="53.000446" latitude="33.20088"/>
<marker id="1338658824" label="Sheet of Parchment" category="73" did="1879408544" parentZoneId="1879407789" longitude="53.23457" latitude="33.428417"/>
<marker id="1338658825" label="Sheet of Parchment" category="73" did="1879408544" parentZoneId="1879407789" longitude="52.757793" latitude="33.29032"/>
<marker id="1338658826" label="Sheet of Parchment" category="73" did="1879408544" parentZoneId="1879407789" longitude="52.96699" latitude="33.505547"/>
<marker id="1338658827" label="Sheet of Parchment" category="73" did="1879408544" parentZoneId="1879407789" longitude="52.90156" latitude="33.544434"/>
<marker id="1338658828" label="Sheet of Parchment" category="73" did="1879408544" parentZoneId="1879407789" longitude="53.095116" latitude="33.53956"/>
<marker id="1338658829" label="Sheet of Parchment" category="73" did="1879408544" parentZoneId="1879407789" longitude="53.140427" latitude="33.50542"/>
<marker id="1338658830" label="Writing Quill" category="73" did="1879408551" parentZoneId="1879407789" longitude="53.013027" latitude="33.13083"/>
<marker id="1338658831" label="Writing Quill" category="73" did="1879408551" parentZoneId="1879407789" longitude="53.006092" latitude="33.064228"/>
<marker id="1338658832" label="Writing Quill" category="73" did="1879408551" parentZoneId="1879407789" longitude="52.93424" latitude="33.29484"/>
<marker id="1338658833" label="Writing Quill" category="73" did="1879408551" parentZoneId="1879407789" longitude="52.998943" latitude="33.201153"/>
<marker id="1338658835" label="Phial of Ink" category="73" did="1879408560" parentZoneId="1879407789" longitude="52.986835" latitude="33.075634"/>
<marker id="1338658836" label="Phial of Ink" category="73" did="1879408560" parentZoneId="1879407789" longitude="53.011406" latitude="33.131443"/>
<marker id="1338658837" label="Phial of Ink" category="73" did="1879408560" parentZoneId="1879407789" longitude="53.004765" latitude="33.063858"/>
<marker id="1338658838" label="Wayward Verse" category="70" did="1879408578" parentZoneId="1879407789" longitude="53.10201" latitude="33.431152"/>
<marker id="1338658839" label="Wayward Verse" category="70" did="1879408578" parentZoneId="1879407789" longitude="52.88617" latitude="33.457695"/>
<marker id="1338658840" label="Wayward Verse" category="70" did="1879408578" parentZoneId="1879407789" longitude="53.209763" latitude="33.248253"/>
<marker id="1338658841" label="Wayward Verse" category="70" did="1879408578" parentZoneId="1879407789" longitude="52.803493" latitude="33.244804"/>
<marker id="1338658842" label="Wayward Verse" category="70" did="1879408578" parentZoneId="1879407789" longitude="53.006992" latitude="33.075653"/>
<marker id="1338658843" label="Wayward Verse" category="70" did="1879408578" parentZoneId="1879407789" longitude="52.872986" latitude="33.504276"/>
<marker id="1338658844" label="Wayward Verse" category="70" did="1879408578" parentZoneId="1879407789" longitude="53.221874" latitude="33.087696"/>
<marker id="1338658845" label="Wayward Verse" category="70" did="1879408578" parentZoneId="1879407789" longitude="53.02908" latitude="33.37619"/>
<marker id="1338658846" label="Floral Arrangement" category="73" did="1879408640" parentZoneId="1879407789" longitude="52.768574" latitude="33.21451"/>
<marker id="1338658847" label="Floral Arrangement" category="73" did="1879408640" parentZoneId="1879407789" longitude="52.768536" latitude="33.19327"/>
<marker id="1338658849" label="Floral Arrangement" category="73" did="1879408640" parentZoneId="1879407789" longitude="53.067966" latitude="33.47697"/>
<marker id="1338658850" label="Floral Arrangement" category="73" did="1879408640" parentZoneId="1879407789" longitude="53.052734" latitude="33.419216"/>
<marker id="1338658851" label="Floral Arrangement" category="73" did="1879408640" parentZoneId="1879407789" longitude="53.043457" latitude="33.418858"/>
<marker id="1338658863" label="Floral Arrangement" category="73" did="1879408640" parentZoneId="1879407789" longitude="53.07867" latitude="33.47677"/>
<marker id="1338675200" label="Loborís" category="70" did="1879408481" parentZoneId="1879407784" longitude="53.20295" latitude="36.273888"/>
<marker id="1338675202" label="Disheveled Horse" category="73" did="1879408492" parentZoneId="1879407784" longitude="53.090057" latitude="36.382988"/>
<marker id="1338675203" label="Disheveled Horse" category="73" did="1879408492" parentZoneId="1879407784" longitude="53.125584" latitude="36.22295"/>
<marker id="1338675204" label="Disheveled Horse" category="73" did="1879408492" parentZoneId="1879407784" longitude="52.974453" latitude="36.171074"/>
<marker id="1338675205" label="Well-Behaved Horse" category="73" did="1879408493" parentZoneId="1879407784" longitude="52.992733" latitude="36.38246"/>
<marker id="1338675206" label="Well-Behaved Horse" category="73" did="1879408493" parentZoneId="1879407784" longitude="52.989822" latitude="36.32654"/>
<marker id="1338675207" label="Well-Behaved Horse" category="73" did="1879408493" parentZoneId="1879407784" longitude="53.012226" latitude="36.221554"/>
<marker id="1338675208" label="Equipment Crate" category="73" did="1879408528" parentZoneId="1879407784" longitude="52.861874" latitude="36.385487"/>
<marker id="1338675209" label="Crate of Apples" category="73" did="1879408532" parentZoneId="1879407784" longitude="52.863106" latitude="36.39197"/>
<marker id="1338675210" label="" category="70" did="1879313195" parentZoneId="1879407784" longitude="53.03334" latitude="36.190994"/>
<marker id="1338675211" label="" category="70" did="1879313195" parentZoneId="1879407784" longitude="52.922283" latitude="36.37038"/>
<marker id="1338675212" label="" category="70" did="1879313195" parentZoneId="1879407784" longitude="52.918083" latitude="36.320175"/>
<marker id="1338675213" label="" category="70" did="1879313195" parentZoneId="1879407784" longitude="53.21822" latitude="36.309265"/>
<marker id="1338683392" label="'Chronicle of Arnor'" category="73" did="1879408552" parentZoneId="1879406999" longitude="53.098904" latitude="38.249073"/>
<marker id="1338683393" label="'On the Line of Kings'" category="73" did="1879408557" parentZoneId="1879406999" longitude="53.05662" latitude="38.234657"/>
<marker id="1338683394" label="Crate of Fireworks" category="73" did="1879407066" parentZoneId="1879406999" longitude="53.0576" latitude="38.25461"/>
<marker id="1338691584" label="King Aragorn II Elessar" category="70" did="1879407143" parentZoneId="1879407000" longitude="55.26793" latitude="39.60119"/>
<marker id="1338691585" label="King Aragorn II Elessar" category="70" did="1879407143" parentZoneId="1879407000" longitude="55.264492" latitude="39.605095"/>
<marker id="1338691586" label="King Aragorn II Elessar" category="70" did="1879407143" parentZoneId="1879407000" longitude="55.263298" latitude="39.602596"/>
<marker id="1338691587" label="Ormatar" category="70" did="1879407230" parentZoneId="1879407000" longitude="55.21283" latitude="39.592422"/>
<marker id="1338691588" label="Gimli" category="70" did="1879407229" parentZoneId="1879407000" longitude="55.25879" latitude="39.593864"/>
<marker id="1338691589" label="Mincham" category="70" did="1879407228" parentZoneId="1879407000" longitude="55.25496" latitude="39.58246"/>
<marker id="1338691590" label="Angwedh" category="70" did="1879407227" parentZoneId="1879407000" longitude="55.17783" latitude="39.563282"/>
<marker id="1338691591" label="Samwise Gamgee" category="70" did="1879407224" parentZoneId="1879407000" longitude="55.250584" latitude="39.59082"/>
<marker id="1338691592" label="Langlas" category="70" did="1879407221" parentZoneId="1879407000" longitude="55.17334" latitude="39.576836"/>
<marker id="1338691593" label="Echadon" category="70" did="1879407220" parentZoneId="1879407000" longitude="55.218513" latitude="39.62248"/>
<marker id="1338691594" label="Lothrandir" category="70" did="1879407218" parentZoneId="1879407000" longitude="55.26334" latitude="39.58406"/>
<marker id="1338691595" label="Peregrin Took" category="70" did="1879407217" parentZoneId="1879407000" longitude="55.24746" latitude="39.592186"/>
<marker id="1338691596" label="Techeron" category="70" did="1879407216" parentZoneId="1879407000" longitude="55.167362" latitude="39.564278"/>
<marker id="1338691597" label="Faeron" category="70" did="1879407215" parentZoneId="1879407000" longitude="55.182148" latitude="39.57121"/>
<marker id="1338691598" label="Culang" category="70" did="1879407210" parentZoneId="1879407000" longitude="55.167263" latitude="39.569843"/>
<marker id="1338691599" label="Helchon" category="70" did="1879407208" parentZoneId="1879407000" longitude="55.163475" latitude="39.566795"/>
<marker id="1338691600" label="Orthonn" category="70" did="1879407206" parentZoneId="1879407000" longitude="55.17162" latitude="39.564022"/>
<marker id="1338691601" label="Daervunn" category="70" did="1879407207" parentZoneId="1879407000" longitude="55.258945" latitude="39.58369"/>
<marker id="1338691602" label="Brungos" category="70" did="1879407202" parentZoneId="1879407000" longitude="55.17582" latitude="39.56953"/>
<marker id="1338691603" label="Nethraw" category="70" did="1879407203" parentZoneId="1879407000" longitude="55.169315" latitude="39.559765"/>
<marker id="1338691604" label="Ingold" category="70" did="1879407200" parentZoneId="1879407000" longitude="55.22078" latitude="39.58652"/>
<marker id="1338691605" label="Meriadoc Brandybuck" category="70" did="1879407197" parentZoneId="1879407000" longitude="55.243942" latitude="39.59127"/>
<marker id="1338691606" label="Frodo Baggins" category="70" did="1879407196" parentZoneId="1879407000" longitude="55.250916" latitude="39.5942"/>
<marker id="1338691607" label="Corunir" category="70" did="1879407194" parentZoneId="1879407000" longitude="55.249275" latitude="39.580467"/>
<marker id="1338691608" label="Idhrien" category="70" did="1879407189" parentZoneId="1879407000" longitude="55.16666" latitude="39.57459"/>
<marker id="1338691609" label="Amlan" category="70" did="1879407188" parentZoneId="1879407000" longitude="55.16211" latitude="39.57117"/>
<marker id="1338691610" label="Radanir" category="70" did="1879407185" parentZoneId="1879407000" longitude="55.261013" latitude="39.586582"/>
<marker id="1338691611" label="Mithrendan" category="70" did="1879407186" parentZoneId="1879407000" longitude="55.180214" latitude="39.5742"/>
<marker id="1338691612" label="Lindir" category="70" did="1879407180" parentZoneId="1879407000" longitude="55.23584" latitude="39.62629"/>
<marker id="1338691613" label="Galadriel" category="70" did="1879407176" parentZoneId="1879407000" longitude="55.09199" latitude="39.610233"/>
<marker id="1338691614" label="Elf of Imladris" category="70" did="1879407177" parentZoneId="1879407000" longitude="55.187733" latitude="39.650352"/>
<marker id="1338691615" label="Elf of Imladris" category="70" did="1879407177" parentZoneId="1879407000" longitude="55.17449" latitude="39.641758"/>
<marker id="1338691616" label="Elf of Imladris" category="70" did="1879407177" parentZoneId="1879407000" longitude="55.172344" latitude="39.650974"/>
<marker id="1338691617" label="Elf of Imladris" category="70" did="1879407177" parentZoneId="1879407000" longitude="55.14531" latitude="39.645508"/>
<marker id="1338691618" label="Elf of Imladris" category="70" did="1879407177" parentZoneId="1879407000" longitude="55.149704" latitude="39.661484"/>
<marker id="1338691619" label="Erestor" category="70" did="1879407175" parentZoneId="1879407000" longitude="55.256405" latitude="39.628418"/>
<marker id="1338691620" label="Friend of Arwen" category="70" did="1879407169" parentZoneId="1879407000" longitude="55.241894" latitude="39.632713"/>
<marker id="1338691621" label="Friend of Arwen" category="70" did="1879407169" parentZoneId="1879407000" longitude="55.265038" latitude="39.622734"/>
<marker id="1338691622" label="Friend of Arwen" category="70" did="1879407169" parentZoneId="1879407000" longitude="55.266346" latitude="39.619667"/>
<marker id="1338691623" label="Friend of Arwen" category="70" did="1879407169" parentZoneId="1879407000" longitude="55.258984" latitude="39.62453"/>
<marker id="1338691624" label="Elrond" category="70" did="1879407163" parentZoneId="1879407000" longitude="55.081326" latitude="39.610878"/>
<marker id="1338691625" label="Gildor Inglórion" category="70" did="1879407162" parentZoneId="1879407000" longitude="55.249313" latitude="39.625195"/>
<marker id="1338691626" label="Orophin" category="70" did="1879407160" parentZoneId="1879407000" longitude="55.250565" latitude="39.630997"/>
<marker id="1338691627" label="Haldir" category="70" did="1879407167" parentZoneId="1879407000" longitude="55.24619" latitude="39.626602"/>
<marker id="1338691628" label="Friend of Arwen" category="70" did="1879407166" parentZoneId="1879407000" longitude="55.26625" latitude="39.625156"/>
<marker id="1338691629" label="Friend of Arwen" category="70" did="1879407166" parentZoneId="1879407000" longitude="55.26125" latitude="39.62793"/>
<marker id="1338691630" label="Rúmil" category="70" did="1879407165" parentZoneId="1879407000" longitude="55.246502" latitude="39.63283"/>
<marker id="1338691631" label="Glorfindel" category="70" did="1879407155" parentZoneId="1879407000" longitude="55.239002" latitude="39.622578"/>
<marker id="1338691632" label="Elf of Imladris" category="70" did="1879407153" parentZoneId="1879407000" longitude="55.177734" latitude="39.65322"/>
<marker id="1338691633" label="Elf of Imladris" category="70" did="1879407153" parentZoneId="1879407000" longitude="55.172127" latitude="39.64584"/>
<marker id="1338691634" label="Elf of Imladris" category="70" did="1879407153" parentZoneId="1879407000" longitude="55.14793" latitude="39.635548"/>
<marker id="1338691635" label="Elf of Imladris" category="70" did="1879407153" parentZoneId="1879407000" longitude="55.143124" latitude="39.662598"/>
<marker id="1338691636" label="Elladan" category="70" did="1879407157" parentZoneId="1879407000" longitude="55.085957" latitude="39.6099"/>
<marker id="1338691637" label="Harthalín" category="70" did="1879407146" parentZoneId="1879407000" longitude="55.24111" latitude="39.62711"/>
<marker id="1338691638" label="Arwen Undómiel" category="70" did="1879407147" parentZoneId="1879407000" longitude="55.076992" latitude="39.60361"/>
<marker id="1338691639" label="Arwen Undómiel" category="70" did="1879407147" parentZoneId="1879407000" longitude="55.264492" latitude="39.605095"/>
<marker id="1338691640" label="Arwen Undómiel" category="70" did="1879407147" parentZoneId="1879407000" longitude="55.263847" latitude="39.609707"/>
<marker id="1338691641" label="Baradal" category="70" did="1879407145" parentZoneId="1879407000" longitude="55.26045" latitude="39.61961"/>
<marker id="1338691642" label="Elrohir" category="70" did="1879407150" parentZoneId="1879407000" longitude="55.08627" latitude="39.602966"/>
<marker id="1338691643" label="Lever" category="100" did="1879103477" parentZoneId="1879407000" longitude="55.12758" latitude="39.623028"/>
<marker id="1338691644" label="Elf of Lórien" category="70" did="1879407149" parentZoneId="1879407000" longitude="55.182987" latitude="39.640606"/>
<marker id="1338691645" label="Elf of Lórien" category="70" did="1879407149" parentZoneId="1879407000" longitude="55.183395" latitude="39.64668"/>
<marker id="1338691646" label="Elf of Lórien" category="70" did="1879407149" parentZoneId="1879407000" longitude="55.178944" latitude="39.637596"/>
<marker id="1338691647" label="Elf of Lórien" category="70" did="1879407149" parentZoneId="1879407000" longitude="55.15947" latitude="39.642597"/>
<marker id="1338691648" label="Elf of Lórien" category="70" did="1879407149" parentZoneId="1879407000" longitude="55.14992" latitude="39.64994"/>
<marker id="1338691649" label="Elf of Lórien" category="70" did="1879407149" parentZoneId="1879407000" longitude="55.159336" latitude="39.661892"/>
<marker id="1338691650" label="Elf of Lórien" category="70" did="1879407149" parentZoneId="1879407000" longitude="55.156364" latitude="39.6566"/>
<marker id="1338691651" label="Elf of Lórien" category="70" did="1879407149" parentZoneId="1879407000" longitude="55.143906" latitude="39.648808"/>
<marker id="1338691652" label="Elf of Lórien" category="70" did="1879407149" parentZoneId="1879407000" longitude="55.143223" latitude="39.65379"/>
<marker id="1338691653" label="Elf of Lórien" category="70" did="1879407139" parentZoneId="1879407000" longitude="55.155838" latitude="39.662968"/>
<marker id="1338691654" label="Elf of Lórien" category="70" did="1879407139" parentZoneId="1879407000" longitude="55.15115" latitude="39.655937"/>
<marker id="1338691655" label="Elf of Lórien" category="70" did="1879407139" parentZoneId="1879407000" longitude="55.186855" latitude="39.643124"/>
<marker id="1338691656" label="Elf of Lórien" category="70" did="1879407139" parentZoneId="1879407000" longitude="55.185097" latitude="39.633904"/>
<marker id="1338691657" label="Elf of Lórien" category="70" did="1879407139" parentZoneId="1879407000" longitude="55.17496" latitude="39.63578"/>
<marker id="1338691658" label="Elf of Lórien" category="70" did="1879407139" parentZoneId="1879407000" longitude="55.157284" latitude="39.646973"/>
<marker id="1338691659" label="Elf of Lórien" category="70" did="1879407139" parentZoneId="1879407000" longitude="55.164295" latitude="39.64092"/>
<marker id="1338691660" label="Elf of Lórien" category="70" did="1879407139" parentZoneId="1879407000" longitude="55.163124" latitude="39.648808"/>
<marker id="1338691661" label="Elf of Lórien" category="70" did="1879407139" parentZoneId="1879407000" longitude="55.1566" latitude="39.638416"/>
<marker id="1338691662" label="Mithrandir" category="70" did="1879407136" parentZoneId="1879407000" longitude="55.271442" latitude="39.605408"/>
<marker id="1338691663" label="Legolas" category="70" did="1879407142" parentZoneId="1879407000" longitude="55.26277" latitude="39.591778"/>
<marker id="1338691667" label="Celeborn" category="70" did="1879407141" parentZoneId="1879407000" longitude="55.092186" latitude="39.603027"/>
<marker id="1338691668" label="Arvaethor" category="70" did="1879407370" parentZoneId="1879407000" longitude="55.15871" latitude="39.576405"/>
<marker id="1338691669" label="Arwen's Musician" category="70" did="1879407133" parentZoneId="1879407000" longitude="55.233555" latitude="39.62998"/>
<marker id="1338691670" label="Master Dagrun" category="70" did="1879407375" parentZoneId="1879407000" longitude="55.239765" latitude="39.587498"/>
<marker id="1338691671" label="Elfhelm" category="70" did="1879407373" parentZoneId="1879407000" longitude="55.24443" latitude="39.58742"/>
<marker id="1338691672" label="Lothíriel" category="70" did="1879407362" parentZoneId="1879407000" longitude="55.25201" latitude="39.585037"/>
<marker id="1338691673" label="Prince Imrahil" category="70" did="1879407361" parentZoneId="1879407000" longitude="55.249607" latitude="39.588787"/>
<marker id="1338691674" label="Sirien" category="70" did="1879407366" parentZoneId="1879407000" longitude="55.150215" latitude="39.587246"/>
<marker id="1338691675" label="Orgolas" category="70" did="1879407364" parentZoneId="1879407000" longitude="55.179043" latitude="39.62887"/>
<marker id="1338691676" label="Erchar" category="70" did="1879407378" parentZoneId="1879407000" longitude="55.17539" latitude="39.58379"/>
<marker id="1338691677" label="Iorlas" category="70" did="1879407376" parentZoneId="1879407000" longitude="55.22414" latitude="39.58547"/>
<marker id="1338691678" label="Milwen" category="70" did="1879407383" parentZoneId="1879407000" longitude="55.184883" latitude="39.626053"/>
<marker id="1338691679" label="Duinhir" category="70" did="1879407350" parentZoneId="1879407000" longitude="55.148514" latitude="39.589607"/>
<marker id="1338691680" label="Thorongil" category="70" did="1879407347" parentZoneId="1879407000" longitude="55.164883" latitude="39.560898"/>
<marker id="1338691681" label="Galathir" category="70" did="1879407344" parentZoneId="1879407000" longitude="55.208027" latitude="39.63709"/>
<marker id="1338691682" label="Círaglar" category="70" did="1879407345" parentZoneId="1879407000" longitude="55.24787" latitude="39.586132"/>
<marker id="1338691683" label="Ioreth" category="70" did="1879407359" parentZoneId="1879407000" longitude="55.154335" latitude="39.592754"/>
<marker id="1338691684" label="Nauriel" category="70" did="1879407356" parentZoneId="1879407000" longitude="55.16469" latitude="39.55773"/>
<marker id="1338691685" label="Angbor" category="70" did="1879407357" parentZoneId="1879407000" longitude="55.180702" latitude="39.624374"/>
<marker id="1338691686" label="Sirgon" category="70" did="1879407333" parentZoneId="1879407000" longitude="55.16449" latitude="39.636055"/>
<marker id="1338691687" label="Anborn" category="70" did="1879407330" parentZoneId="1879407000" longitude="55.15029" latitude="39.62887"/>
<marker id="1338691688" label="Drambor" category="70" did="1879407338" parentZoneId="1879407000" longitude="55.181816" latitude="39.621407"/>
<marker id="1338691689" label="Thrymm Red-beard" category="70" did="1879407336" parentZoneId="1879407000" longitude="55.24324" latitude="39.583202"/>
<marker id="1338691690" label="Marra" category="70" did="1879407318" parentZoneId="1879407000" longitude="55.17736" latitude="39.631462"/>
<marker id="1338691691" label="Lorvegil" category="70" did="1879407315" parentZoneId="1879407000" longitude="55.159588" latitude="39.635742"/>
<marker id="1338691692" label="Faltharan" category="70" did="1879407320" parentZoneId="1879407000" longitude="55.164158" latitude="39.627987"/>
<marker id="1338691693" label="Togbor" category="70" did="1879407323" parentZoneId="1879407000" longitude="55.159706" latitude="39.592735"/>
<marker id="1338691694" label="Nimithil" category="70" did="1879407301" parentZoneId="1879407000" longitude="55.161835" latitude="39.62541"/>
<marker id="1338691695" label="Mablung" category="70" did="1879407300" parentZoneId="1879407000" longitude="55.1524" latitude="39.62121"/>
<marker id="1338691696" label="Aerlinn" category="70" did="1879407303" parentZoneId="1879407000" longitude="55.215977" latitude="39.588318"/>
<marker id="1338691697" label="Lacheg" category="70" did="1879407297" parentZoneId="1879407000" longitude="55.161423" latitude="39.58826"/>
<marker id="1338691698" label="Glorellas" category="70" did="1879407296" parentZoneId="1879407000" longitude="55.147987" latitude="39.581463"/>
<marker id="1338691699" label="Terenis" category="70" did="1879407299" parentZoneId="1879407000" longitude="55.1716" latitude="39.627224"/>
<marker id="1338691700" label="Thurindol" category="70" did="1879407309" parentZoneId="1879407000" longitude="55.14711" latitude="39.624493"/>
<marker id="1338691701" label="Celebros" category="70" did="1879407311" parentZoneId="1879407000" longitude="55.164333" latitude="39.6325"/>
<marker id="1338691702" label="Baranor" category="70" did="1879407310" parentZoneId="1879407000" longitude="55.145" latitude="39.58451"/>
<marker id="1338691703" label="Tolwin" category="70" did="1879407304" parentZoneId="1879407000" longitude="55.17826" latitude="39.59248"/>
<marker id="1338691704" label="Glánhar" category="70" did="1879407307" parentZoneId="1879407000" longitude="55.16902" latitude="39.592888"/>
<marker id="1338691705" label="Malhar" category="70" did="1879407306" parentZoneId="1879407000" longitude="55.164295" latitude="39.591347"/>
<marker id="1338691706" label="Merethien" category="70" did="1879407282" parentZoneId="1879407000" longitude="55.199432" latitude="39.63535"/>
<marker id="1338691707" label="Lenglír" category="70" did="1879407281" parentZoneId="1879407000" longitude="55.19875" latitude="39.586815"/>
<marker id="1338691708" label="Tegilwen" category="70" did="1879407284" parentZoneId="1879407000" longitude="55.20578" latitude="39.58203"/>
<marker id="1338691709" label="Siriel" category="70" did="1879407285" parentZoneId="1879407000" longitude="55.158318" latitude="39.630466"/>
<marker id="1338691710" label="Borhador" category="70" did="1879407290" parentZoneId="1879407000" longitude="55.158924" latitude="39.58123"/>
<marker id="1338691711" label="Dervorin" category="70" did="1879407288" parentZoneId="1879407000" longitude="55.155388" latitude="39.57775"/>
<marker id="1338691712" label="Meliniel" category="70" did="1879407289" parentZoneId="1879407000" longitude="55.1683" latitude="39.623417"/>
<marker id="1338691713" label="Reniadir" category="70" did="1879407295" parentZoneId="1879407000" longitude="55.16285" latitude="39.621502"/>
<marker id="1338691714" label="Dúneth" category="70" did="1879407293" parentZoneId="1879407000" longitude="55.175076" latitude="39.589493"/>
<marker id="1338691715" label="Habdir" category="70" did="1879407267" parentZoneId="1879407000" longitude="55.19875" latitude="39.582752"/>
<marker id="1338691716" label="Curugond" category="70" did="1879407264" parentZoneId="1879407000" longitude="55.200195" latitude="39.63752"/>
<marker id="1338691717" label="Thalhír" category="70" did="1879407270" parentZoneId="1879407000" longitude="55.206814" latitude="39.6316"/>
<marker id="1338691718" label="Targon" category="70" did="1879407268" parentZoneId="1879407000" longitude="55.155838" latitude="39.58871"/>
<marker id="1338691719" label="Aglarang" category="70" did="1879407273" parentZoneId="1879407000" longitude="55.20084" latitude="39.630547"/>
<marker id="1338691720" label="Ostúr" category="70" did="1879407276" parentZoneId="1879407000" longitude="55.21203" latitude="39.58406"/>
<marker id="1338691721" label="Beregond" category="70" did="1879407252" parentZoneId="1879407000" longitude="55.183086" latitude="39.560448"/>
<marker id="1338691722" label="Bariel" category="70" did="1879407253" parentZoneId="1879407000" longitude="55.198124" latitude="39.574276"/>
<marker id="1338691723" label="Damrod" category="70" did="1879407255" parentZoneId="1879407000" longitude="55.153378" latitude="39.625584"/>
<marker id="1338691724" label="Rathon" category="70" did="1879407259" parentZoneId="1879407000" longitude="55.204746" latitude="39.58707"/>
<marker id="1338691725" label="Torchún" category="70" did="1879407261" parentZoneId="1879407000" longitude="55.20125" latitude="39.623474"/>
<marker id="1338691726" label="Celephir" category="70" did="1879407262" parentZoneId="1879407000" longitude="55.211716" latitude="39.62863"/>
<marker id="1338691727" label="Dagoras" category="70" did="1879407233" parentZoneId="1879407000" longitude="55.266426" latitude="39.588554"/>
<marker id="1338691728" label="Garthebir" category="70" did="1879407235" parentZoneId="1879407000" longitude="55.233143" latitude="39.58289"/>
<marker id="1338691729" label="Cerethon" category="70" did="1879407237" parentZoneId="1879407000" longitude="55.201504" latitude="39.57752"/>
<marker id="1338691730" label="Mirudil" category="70" did="1879407236" parentZoneId="1879407000" longitude="55.20451" latitude="39.627655"/>
<marker id="1338691731" label="Idhrenil" category="70" did="1879407239" parentZoneId="1879407000" longitude="55.20943" latitude="39.621876"/>
<marker id="1338691732" label="Faramir" category="70" did="1879407238" parentZoneId="1879407000" longitude="55.25447" latitude="39.59129"/>
<marker id="1338691733" label="Bergil" category="70" did="1879407240" parentZoneId="1879407000" longitude="55.1841" latitude="39.567265"/>
<marker id="1338691734" label="Gilithel" category="70" did="1879407244" parentZoneId="1879407000" longitude="55.18775" latitude="39.561638"/>
<marker id="1338691735" label="Húrin the Tall" category="70" did="1879407247" parentZoneId="1879407000" longitude="55.225544" latitude="39.588905"/>
<marker id="1338699778" label="Door" category="100" did="1879328993" parentZoneId="1879407792" longitude="53.443085" latitude="41.102127"/>
<marker id="1338699779" label="Listion" category="70" did="1879408427" parentZoneId="1879407792" longitude="53.287342" latitude="41.13822"/>
<marker id="1338699780" label="Makeshift Mûmak" category="73" did="1879327328" parentZoneId="1879407792" longitude="53.137833" latitude="41.100037"/>
<marker id="1338699782" label="Barrel of Ale" category="73" did="1879408322" parentZoneId="1879407792" longitude="53.161797" latitude="41.129177"/>
<marker id="1338789891" label="Door" category="100" did="1879157893" parentZoneId="1879335461" longitude="54.703026" latitude="33.254333"/>
<marker id="1338789892" label="Door" category="100" did="1879157893" parentZoneId="1879335461" longitude="54.499588" latitude="33.24497"/>
<marker id="1338789893" label="Door" category="100" did="1879157893" parentZoneId="1879335461" longitude="54.5" latitude="33.154724"/>
<marker id="1338789894" label="Door" category="100" did="1879157893" parentZoneId="1879335461" longitude="54.39959" latitude="33.3546"/>
<marker id="1338789895" label="Door" category="100" did="1879157894" parentZoneId="1879335461" longitude="54.795918" latitude="33.154198"/>
<marker id="1338789896" label="Door" category="100" did="1879328988" parentZoneId="1879335461" longitude="54.58418" latitude="33.356133"/>
<marker id="1338789897" label="Fell-beast Head" category="73" did="1879336738" parentZoneId="1879335461" longitude="54.798534" latitude="33.055714"/>
<marker id="1338789898" label="Musty Book" category="73" did="1879346086" parentZoneId="1879335461" longitude="54.431385" latitude="33.08441"/>
<marker id="1338789899" label="Covadil" category="70" did="1879346021" parentZoneId="1879335461" longitude="54.765762" latitude="33.116776"/>
<marker id="1338789900" label="Mithrandir" category="70" did="1879336737" parentZoneId="1879335461" longitude="54.597538" latitude="33.3946"/>
<marker id="1338789901" label="Idhrenil" category="70" did="1879337097" parentZoneId="1879335461" longitude="54.6" latitude="33.416836"/>
<marker id="1338789902" label="Sarnion" category="70" did="1879337099" parentZoneId="1879335461" longitude="54.593826" latitude="33.4166"/>
<marker id="1338789903" label="Tegilwen" category="70" did="1879337098" parentZoneId="1879335461" longitude="54.60652" latitude="33.41285"/>
<marker id="1338806272" label="" category="70" did="1879313195" parentZoneId="1879335463" longitude="54.81906" latitude="36.30964"/>
<marker id="1338806273" label="" category="70" did="1879313195" parentZoneId="1879335463" longitude="54.518085" latitude="36.320175"/>
<marker id="1338806274" label="" category="70" did="1879313195" parentZoneId="1879335463" longitude="54.522285" latitude="36.37038"/>
<marker id="1338806275" label="" category="70" did="1879313195" parentZoneId="1879335463" longitude="54.63334" latitude="36.190994"/>
<marker id="1338953728" label="Theodore Gorse" category="70" did="1879401393" parentZoneId="1879361633" longitude="54.43574" latitude="39.783085"/>
<marker id="1338953729" label="Door" category="100" did="1879354134" parentZoneId="1879361633" longitude="55.472576" latitude="39.653748"/>
<marker id="1338953730" label="Scorching Heat" category="75" did="1879340480" parentZoneId="1879361633" longitude="54.7957" latitude="40.71877"/>
<marker id="1338953731" label="Scorching Heat" category="75" did="1879340480" parentZoneId="1879361633" longitude="54.712303" latitude="40.634804"/>
<marker id="1338953732" label="Scorching Heat" category="75" did="1879340480" parentZoneId="1879361633" longitude="54.67457" latitude="40.824394"/>
<marker id="1338953733" label="Scorching Heat" category="75" did="1879340480" parentZoneId="1879361633" longitude="54.712303" latitude="40.43844"/>
<marker id="1338953734" label="Scorching Heat" category="75" did="1879340480" parentZoneId="1879361633" longitude="54.903633" latitude="40.525234"/>
<marker id="1338953735" label="Scorching Heat" category="75" did="1879340480" parentZoneId="1879361633" longitude="54.98271" latitude="40.71877"/>
<marker id="1338953736" label="Scorching Heat" category="75" did="1879340480" parentZoneId="1879361633" longitude="54.929337" latitude="40.889668"/>
<marker id="1338953737" label="Scorching Heat" category="75" did="1879340480" parentZoneId="1879361633" longitude="55.1092" latitude="40.889668"/>
<marker id="1338953738" label="Scorching Heat" category="75" did="1879340480" parentZoneId="1879361633" longitude="55.1015" latitude="40.62998"/>
<marker id="1338953739" label="Scorching Heat" category="75" did="1879340480" parentZoneId="1879361633" longitude="55.082577" latitude="40.504726"/>
<marker id="1338953740" label="Scorching Heat" category="75" did="1879340480" parentZoneId="1879361633" longitude="55.25951" latitude="40.500683"/>
<marker id="1338953741" label="Scorching Heat" category="75" did="1879340480" parentZoneId="1879361633" longitude="55.389805" latitude="40.480488"/>
<marker id="1338953742" label="Treasure Bugan" category="71" did="1879401390" parentZoneId="1879361633" longitude="55.140644" latitude="40.441483"/>
<marker id="1338953743" label="Treasure Bugan" category="71" did="1879401391" parentZoneId="1879361633" longitude="55.14025" latitude="40.439686"/>
<marker id="1338953744" label="Frenzied Prisoner" category="71" did="1879360397" parentZoneId="1879361633" longitude="54.773163" latitude="39.47242"/>
<marker id="1338953745" label="Frenzied Prisoner" category="71" did="1879360397" parentZoneId="1879361633" longitude="54.6117" latitude="39.511288"/>
<marker id="1338953746" label="Frenzied Prisoner" category="71" did="1879360397" parentZoneId="1879361633" longitude="54.850254" latitude="39.467968"/>
<marker id="1338953747" label="Frenzied Prisoner" category="71" did="1879360397" parentZoneId="1879361633" longitude="54.886795" latitude="39.672283"/>
<marker id="1338953748" label="Frenzied Prisoner" category="71" did="1879360397" parentZoneId="1879361633" longitude="54.846775" latitude="39.841328"/>
<marker id="1338953749" label="Frenzied Prisoner" category="71" did="1879360397" parentZoneId="1879361633" longitude="54.744705" latitude="39.85621"/>
<marker id="1338953750" label="Control Point" category="73" did="1879152429" parentZoneId="1879361633" longitude="54.761093" latitude="39.748516"/>
<marker id="1338953751" label="Control Point" category="73" did="1879152429" parentZoneId="1879361633" longitude="55.195507" latitude="40.724102"/>
<marker id="1338953752" label="Fading of Gloom" category="75" did="1879331714" parentZoneId="1879361633" longitude="54.750195" latitude="39.71947"/>
<marker id="1338953753" label="Fading of Gloom" category="75" did="1879331714" parentZoneId="1879361633" longitude="54.750195" latitude="39.662773"/>
<marker id="1338953754" label="Fading of Gloom" category="75" did="1879331714" parentZoneId="1879361633" longitude="54.750195" latitude="39.61576"/>
<marker id="1338953755" label="Door" category="100" did="1879079217" parentZoneId="1879361633" longitude="54.92826" latitude="40.694763"/>
<marker id="1338953756" label="Door" category="100" did="1879079217" parentZoneId="1879361633" longitude="55.085682" latitude="40.491543"/>
<marker id="1338953757" label="Flame-wraith" category="71" did="1879358638" parentZoneId="1879361633" longitude="55.100994" latitude="39.907772"/>
<marker id="1338953758" label="Flame-wraith" category="71" did="1879358638" parentZoneId="1879361633" longitude="54.98871" latitude="40.49203"/>
<marker id="1338953759" label="Flame-wraith" category="71" did="1879358638" parentZoneId="1879361633" longitude="54.890625" latitude="40.68586"/>
<marker id="1338953760" label="Flame-wraith" category="71" did="1879358638" parentZoneId="1879361633" longitude="54.749744" latitude="40.600273"/>
<marker id="1338953761" label="Flame-wraith" category="71" did="1879358638" parentZoneId="1879361633" longitude="55.10502" latitude="39.69197"/>
<marker id="1338953762" label="Flame-wraith" category="71" did="1879358638" parentZoneId="1879361633" longitude="55.184883" latitude="40.464005"/>
<marker id="1338953763" label="Flame-wraith" category="71" did="1879358638" parentZoneId="1879361633" longitude="55.08625" latitude="39.70201"/>
<marker id="1338953764" label="Flame-wraith" category="71" did="1879358638" parentZoneId="1879361633" longitude="55.128887" latitude="40.454746"/>
<marker id="1338953765" label="Flame-wraith" category="71" did="1879358638" parentZoneId="1879361633" longitude="55.150837" latitude="40.63904"/>
<marker id="1338953766" label="Flame-wraith" category="71" did="1879358638" parentZoneId="1879361633" longitude="55.114197" latitude="40.61742"/>
<marker id="1338953767" label="Flame-wraith" category="71" did="1879358638" parentZoneId="1879361633" longitude="54.894783" latitude="40.45996"/>
<marker id="1338953768" label="Flame-wraith" category="71" did="1879358638" parentZoneId="1879361633" longitude="55.099804" latitude="39.4717"/>
<marker id="1338953769" label="Flame-wraith" category="71" did="1879358638" parentZoneId="1879361633" longitude="55.123905" latitude="40.53781"/>
<marker id="1338953770" label="Flame-wraith" category="71" did="1879358638" parentZoneId="1879361633" longitude="54.914864" latitude="40.61748"/>
<marker id="1338953771" label="Flame-wraith" category="71" did="1879358638" parentZoneId="1879361633" longitude="54.737225" latitude="39.64332"/>
<marker id="1338953772" label="Flame-wraith" category="71" did="1879358638" parentZoneId="1879361633" longitude="54.691013" latitude="40.782402"/>
<marker id="1338953773" label="Flame-wraith" category="71" did="1879358638" parentZoneId="1879361633" longitude="54.761795" latitude="39.671425"/>
<marker id="1338953774" label="Flame-wraith" category="71" did="1879358638" parentZoneId="1879361633" longitude="54.73715" latitude="39.712303"/>
<marker id="1338953775" label="Flame-wraith" category="71" did="1879358638" parentZoneId="1879361633" longitude="54.90068" latitude="40.694668"/>
<marker id="1338953776" label="Flame-wraith" category="71" did="1879358638" parentZoneId="1879361633" longitude="54.683865" latitude="40.62031"/>
<marker id="1338953777" label="Gristlebite" category="71" did="1879358639" parentZoneId="1879361633" longitude="54.915447" latitude="40.468124"/>
<marker id="1338953778" label="Frenzied Prisoner" category="71" did="1879358636" parentZoneId="1879361633" longitude="54.379314" latitude="40.139744"/>
<marker id="1338953779" label="Frenzied Prisoner" category="71" did="1879358636" parentZoneId="1879361633" longitude="54.763653" latitude="40.929237"/>
<marker id="1338953780" label="Frenzied Prisoner" category="71" did="1879358636" parentZoneId="1879361633" longitude="54.386326" latitude="40.14691"/>
<marker id="1338953781" label="Frenzied Prisoner" category="71" did="1879358636" parentZoneId="1879361633" longitude="54.525192" latitude="40.24994"/>
<marker id="1338953782" label="Frenzied Prisoner" category="71" did="1879358636" parentZoneId="1879361633" longitude="54.520664" latitude="40.25875"/>
<marker id="1338953783" label="Frenzied Prisoner" category="71" did="1879358636" parentZoneId="1879361633" longitude="54.519646" latitude="40.35254"/>
<marker id="1338953784" label="Frenzied Prisoner" category="71" did="1879358636" parentZoneId="1879361633" longitude="54.557655" latitude="40.343338"/>
<marker id="1338953785" label="Frenzied Prisoner" category="71" did="1879358636" parentZoneId="1879361633" longitude="54.94982" latitude="40.43826"/>
<marker id="1338953786" label="Frenzied Prisoner" category="71" did="1879358636" parentZoneId="1879361633" longitude="54.85209" latitude="40.465214"/>
<marker id="1338953787" label="Frenzied Prisoner" category="71" did="1879358636" parentZoneId="1879361633" longitude="55.090546" latitude="40.264786"/>
<marker id="1338953788" label="Frenzied Prisoner" category="71" did="1879358636" parentZoneId="1879361633" longitude="54.74035" latitude="40.444824"/>
<marker id="1338953789" label="Frenzied Prisoner" category="71" did="1879358636" parentZoneId="1879361633" longitude="54.769413" latitude="40.448456"/>
<marker id="1338953790" label="Frenzied Prisoner" category="71" did="1879358636" parentZoneId="1879361633" longitude="54.354336" latitude="40.14375"/>
<marker id="1338953791" label="Frenzied Prisoner" category="71" did="1879358636" parentZoneId="1879361633" longitude="54.70404" latitude="40.556522"/>
<marker id="1338953792" label="Frenzied Prisoner" category="71" did="1879358636" parentZoneId="1879361633" longitude="54.784843" latitude="40.443455"/>
<marker id="1338953793" label="Frenzied Prisoner" category="71" did="1879358636" parentZoneId="1879361633" longitude="54.358845" latitude="40.05795"/>
<marker id="1338953794" label="Frenzied Prisoner" category="71" did="1879358636" parentZoneId="1879361633" longitude="55.017654" latitude="40.913162"/>
<marker id="1338953795" label="Frenzied Prisoner" category="71" did="1879358636" parentZoneId="1879361633" longitude="54.54439" latitude="40.251347"/>
<marker id="1338953796" label="Frenzied Prisoner" category="71" did="1879358636" parentZoneId="1879361633" longitude="54.863945" latitude="40.87793"/>
<marker id="1338953797" label="Frenzied Prisoner" category="71" did="1879358636" parentZoneId="1879361633" longitude="54.55453" latitude="40.358204"/>
<marker id="1338953798" label="Frenzied Prisoner" category="71" did="1879358636" parentZoneId="1879361633" longitude="55.025116" latitude="40.879276"/>
<marker id="1338953799" label="Frenzied Prisoner" category="71" did="1879358636" parentZoneId="1879361633" longitude="54.359802" latitude="40.04963"/>
<marker id="1338953800" label="Frenzied Prisoner" category="71" did="1879358636" parentZoneId="1879361633" longitude="55.104782" latitude="40.882793"/>
<marker id="1338953801" label="Frenzied Prisoner" category="71" did="1879358636" parentZoneId="1879361633" longitude="54.383614" latitude="40.047947"/>
<marker id="1338953802" label="Door" category="100" did="1879163346" parentZoneId="1879361633" longitude="54.45367" latitude="40.733536"/>
<marker id="1338953803" label="Door" category="100" did="1879163346" parentZoneId="1879361633" longitude="54.408474" latitude="40.68246"/>
<marker id="1338953804" label="Door" category="100" did="1879163346" parentZoneId="1879361633" longitude="54.761444" latitude="40.69248"/>
<marker id="1338953805" label="Door" category="100" did="1879163346" parentZoneId="1879361633" longitude="54.89324" latitude="40.834393"/>
<marker id="1338953806" label="Door" category="100" did="1879163346" parentZoneId="1879361633" longitude="54.90252" latitude="40.501034"/>
<marker id="1338953807" label="Door" category="100" did="1879163346" parentZoneId="1879361633" longitude="55.21418" latitude="40.71031"/>
<marker id="1338953808" label="Door" category="100" did="1879163346" parentZoneId="1879361633" longitude="55.090157" latitude="39.755154"/>
<marker id="1338953809" label="Door" category="100" did="1879163346" parentZoneId="1879361633" longitude="55.090157" latitude="39.555626"/>
<marker id="1338953810" label="Door" category="100" did="1879163346" parentZoneId="1879361633" longitude="55.375626" latitude="40.381443"/>
<marker id="1338953811" label="Door" category="100" did="1879163346" parentZoneId="1879361633" longitude="55.022243" latitude="39.25451"/>
<marker id="1338953812" label="Door" category="100" did="1879163346" parentZoneId="1879361633" longitude="54.671658" latitude="39.4525"/>
<marker id="1338953813" label="Door" category="100" did="1879163346" parentZoneId="1879361633" longitude="54.98535" latitude="40.09047"/>
<marker id="1338953814" label="Door" category="100" did="1879163346" parentZoneId="1879361633" longitude="55.090157" latitude="39.975506"/>
<marker id="1338953815" label="Door" category="100" did="1879163346" parentZoneId="1879361633" longitude="55.09109" latitude="40.211407"/>
<marker id="1338953816" label="Door" category="100" did="1879163346" parentZoneId="1879361633" longitude="55.198025" latitude="40.08816"/>
<marker id="1338953817" label="Door" category="100" did="1879163346" parentZoneId="1879361633" longitude="54.75203" latitude="39.865505"/>
<marker id="1338953818" label="Door" category="100" did="1879163346" parentZoneId="1879361633" longitude="54.646072" latitude="39.76006"/>
<marker id="1338953819" label="Door" category="100" did="1879163346" parentZoneId="1879361633" longitude="54.452168" latitude="40.623573"/>
<marker id="1338953820" label="Thraknûl" category="70" did="1879346926" parentZoneId="1879361633" longitude="54.71453" latitude="39.267185"/>
<marker id="1338953821" label="Spitpyre" category="71" did="1879358637" parentZoneId="1879361633" longitude="54.904804" latitude="40.871582"/>
<marker id="1338953822" label="Ghâsh-hai Berserker" category="71" did="1879358643" parentZoneId="1879361633" longitude="54.452618" latitude="39.97965"/>
<marker id="1338953823" label="Ghâsh-hai Berserker" category="71" did="1879358643" parentZoneId="1879361633" longitude="55.086952" latitude="39.926327"/>
<marker id="1338953824" label="Ghâsh-hai Berserker" category="71" did="1879358643" parentZoneId="1879361633" longitude="54.986286" latitude="40.725174"/>
<marker id="1338953825" label="Ghâsh-hai Berserker" category="71" did="1879358643" parentZoneId="1879361633" longitude="55.37525" latitude="40.093945"/>
<marker id="1338953826" label="Ghâsh-hai Berserker" category="71" did="1879358643" parentZoneId="1879361633" longitude="54.468163" latitude="40.41449"/>
<marker id="1338953827" label="Ghâsh-hai Berserker" category="71" did="1879358643" parentZoneId="1879361633" longitude="54.438007" latitude="40.40838"/>
<marker id="1338953828" label="Ghâsh-hai Berserker" category="71" did="1879358643" parentZoneId="1879361633" longitude="54.8074" latitude="39.513416"/>
<marker id="1338953829" label="Ghâsh-hai Berserker" category="71" did="1879358643" parentZoneId="1879361633" longitude="54.373142" latitude="40.66414"/>
<marker id="1338953830" label="Ghâsh-hai Berserker" category="71" did="1879358643" parentZoneId="1879361633" longitude="54.799274" latitude="39.513515"/>
<marker id="1338953831" label="Ghâsh-hai Berserker" category="71" did="1879358643" parentZoneId="1879361633" longitude="54.9332" latitude="40.07996"/>
<marker id="1338953832" label="Ghâsh-hai Berserker" category="71" did="1879358643" parentZoneId="1879361633" longitude="54.441757" latitude="39.97164"/>
<marker id="1338953833" label="Ghâsh-hai Berserker" category="71" did="1879358643" parentZoneId="1879361633" longitude="54.988613" latitude="40.66168"/>
<marker id="1338953834" label="Ghâsh-hai Skirmisher" category="71" did="1879358642" parentZoneId="1879361633" longitude="55.0966" latitude="39.886112"/>
<marker id="1338953835" label="Ghâsh-hai Skirmisher" category="71" did="1879358642" parentZoneId="1879361633" longitude="54.440273" latitude="40.468845"/>
<marker id="1338953836" label="Ghâsh-hai Skirmisher" category="71" did="1879358642" parentZoneId="1879361633" longitude="54.466934" latitude="40.4691"/>
<marker id="1338953837" label="Ghâsh-hai Skirmisher" category="71" did="1879358642" parentZoneId="1879361633" longitude="54.46748" latitude="40.61627"/>
<marker id="1338953838" label="Ghâsh-hai Skirmisher" category="71" did="1879358642" parentZoneId="1879361633" longitude="55.099297" latitude="39.71174"/>
<marker id="1338953839" label="Ghâsh-hai Skirmisher" category="71" did="1879358642" parentZoneId="1879361633" longitude="54.44152" latitude="40.615604"/>
<marker id="1338953840" label="Ghâsh-hai Skirmisher" category="71" did="1879358642" parentZoneId="1879361633" longitude="55.096386" latitude="39.682186"/>
<marker id="1338953841" label="Ghâsh-hai Skirmisher" category="71" did="1879358642" parentZoneId="1879361633" longitude="54.37316" latitude="40.679356"/>
<marker id="1338953842" label="Ghâsh-hai Defiler" category="71" did="1879358641" parentZoneId="1879361633" longitude="55.009277" latitude="40.670586"/>
<marker id="1338953843" label="Ghâsh-hai Defiler" category="71" did="1879358641" parentZoneId="1879361633" longitude="54.373066" latitude="40.694668"/>
<marker id="1338953844" label="Ghâsh-hai Defiler" category="71" did="1879358641" parentZoneId="1879361633" longitude="54.93832" latitude="40.10418"/>
<marker id="1338953845" label="Ghâsh-hai Defiler" category="71" did="1879358641" parentZoneId="1879361633" longitude="54.949413" latitude="40.086346"/>
<marker id="1338953846" label="Ghâsh-hai Defiler" category="71" did="1879358641" parentZoneId="1879361633" longitude="55.0109" latitude="40.719746"/>
<marker id="1338953847" label="Frenzied Prisoner" category="71" did="1879358640" parentZoneId="1879361633" longitude="55.15285" latitude="40.792595"/>
<marker id="1338953848" label="Frenzied Prisoner" category="71" did="1879358640" parentZoneId="1879361633" longitude="54.757614" latitude="40.43498"/>
<marker id="1338953849" label="Frenzied Prisoner" category="71" did="1879358640" parentZoneId="1879361633" longitude="55.025154" latitude="40.915447"/>
<marker id="1338953850" label="Frenzied Prisoner" category="71" did="1879358640" parentZoneId="1879361633" longitude="54.38426" latitude="40.248028"/>
<marker id="1338953851" label="Frenzied Prisoner" category="71" did="1879358640" parentZoneId="1879361633" longitude="55.061718" latitude="40.89121"/>
<marker id="1338953852" label="Frenzied Prisoner" category="71" did="1879358640" parentZoneId="1879361633" longitude="54.88439" latitude="40.89248"/>
<marker id="1338953853" label="Frenzied Prisoner" category="71" did="1879358640" parentZoneId="1879361633" longitude="54.893047" latitude="40.457245"/>
<marker id="1338953854" label="Frenzied Prisoner" category="71" did="1879358640" parentZoneId="1879361633" longitude="54.881386" latitude="40.44959"/>
<marker id="1338953855" label="Frenzied Prisoner" category="71" did="1879358640" parentZoneId="1879361633" longitude="54.359707" latitude="40.261074"/>
<marker id="1338953856" label="Frenzied Prisoner" category="71" did="1879358640" parentZoneId="1879361633" longitude="54.71488" latitude="40.445274"/>
<marker id="1338953857" label="Frenzied Prisoner" category="71" did="1879358640" parentZoneId="1879361633" longitude="55.07875" latitude="40.25131"/>
<marker id="1338953858" label="Frenzied Prisoner" category="71" did="1879358640" parentZoneId="1879361633" longitude="54.873104" latitude="40.469"/>
<marker id="1338953859" label="Frenzied Prisoner" category="71" did="1879358640" parentZoneId="1879361633" longitude="54.35922" latitude="40.245487"/>
<marker id="1338953860" label="Frenzied Prisoner" category="71" did="1879358640" parentZoneId="1879361633" longitude="54.728905" latitude="40.436737"/>
<marker id="1338953861" label="Frenzied Prisoner" category="71" did="1879358640" parentZoneId="1879361633" longitude="54.553436" latitude="40.153984"/>
<marker id="1338953862" label="Frenzied Prisoner" category="71" did="1879358640" parentZoneId="1879361633" longitude="54.71498" latitude="40.777596"/>
<marker id="1338953863" label="Frenzied Prisoner" category="71" did="1879358640" parentZoneId="1879361633" longitude="54.763065" latitude="40.934784"/>
<marker id="1338953864" label="Frenzied Prisoner" category="71" did="1879358640" parentZoneId="1879361633" longitude="54.87924" latitude="40.88463"/>
<marker id="1338953865" label="Frenzied Prisoner" category="71" did="1879358640" parentZoneId="1879361633" longitude="54.525173" latitude="40.156387"/>
<marker id="1338953866" label="Frenzied Prisoner" category="71" did="1879358640" parentZoneId="1879361633" longitude="55.012577" latitude="40.914845"/>
<marker id="1338953867" label="Frenzied Prisoner" category="71" did="1879358640" parentZoneId="1879361633" longitude="55.16158" latitude="40.58621"/>
<marker id="1338953868" label="Frenzied Prisoner" category="71" did="1879358640" parentZoneId="1879361633" longitude="54.551582" latitude="40.144783"/>
<marker id="1338953869" label="Frenzied Prisoner" category="71" did="1879358647" parentZoneId="1879361633" longitude="54.556522" latitude="40.06125"/>
<marker id="1338953870" label="Frenzied Prisoner" category="71" did="1879358647" parentZoneId="1879361633" longitude="54.891777" latitude="40.45193"/>
<marker id="1338953871" label="Frenzied Prisoner" category="71" did="1879358647" parentZoneId="1879361633" longitude="54.92992" latitude="40.918594"/>
<marker id="1338953872" label="Frenzied Prisoner" category="71" did="1879358647" parentZoneId="1879361633" longitude="54.765156" latitude="40.939297"/>
<marker id="1338953873" label="Frenzied Prisoner" category="71" did="1879358647" parentZoneId="1879361633" longitude="54.383045" latitude="40.351326"/>
<marker id="1338953874" label="Frenzied Prisoner" category="71" did="1879358647" parentZoneId="1879361633" longitude="54.93375" latitude="40.913963"/>
<marker id="1338953875" label="Frenzied Prisoner" category="71" did="1879358647" parentZoneId="1879361633" longitude="54.758007" latitude="40.44211"/>
<marker id="1338953876" label="Frenzied Prisoner" category="71" did="1879358647" parentZoneId="1879361633" longitude="54.359333" latitude="40.346073"/>
<marker id="1338953877" label="Frenzied Prisoner" category="71" did="1879358647" parentZoneId="1879361633" longitude="54.773125" latitude="40.455273"/>
<marker id="1338953878" label="Frenzied Prisoner" category="71" did="1879358647" parentZoneId="1879361633" longitude="54.72953" latitude="40.422245"/>
<marker id="1338953879" label="Frenzied Prisoner" category="71" did="1879358647" parentZoneId="1879361633" longitude="55.088516" latitude="40.24865"/>
<marker id="1338953880" label="Frenzied Prisoner" category="71" did="1879358647" parentZoneId="1879361633" longitude="54.93787" latitude="40.43844"/>
<marker id="1338953881" label="Frenzied Prisoner" category="71" did="1879358647" parentZoneId="1879361633" longitude="54.942966" latitude="40.441387"/>
<marker id="1338953882" label="Frenzied Prisoner" category="71" did="1879358647" parentZoneId="1879361633" longitude="54.523495" latitude="40.059258"/>
<marker id="1338953883" label="Frenzied Prisoner" category="71" did="1879358647" parentZoneId="1879361633" longitude="55.09926" latitude="40.259197"/>
<marker id="1338953884" label="Frenzied Prisoner" category="71" did="1879358647" parentZoneId="1879361633" longitude="54.92492" latitude="40.916523"/>
<marker id="1338953885" label="Frenzied Prisoner" category="71" did="1879358647" parentZoneId="1879361633" longitude="54.71455" latitude="40.93049"/>
<marker id="1338953886" label="Frenzied Prisoner" category="71" did="1879358647" parentZoneId="1879361633" longitude="54.384453" latitude="40.34168"/>
<marker id="1338953887" label="Frenzied Prisoner" category="71" did="1879358647" parentZoneId="1879361633" longitude="55.063847" latitude="40.89621"/>
<marker id="1338953888" label="Frenzied Prisoner" category="71" did="1879358647" parentZoneId="1879361633" longitude="54.519726" latitude="40.052185"/>
<marker id="1338953889" label="Frenzied Prisoner" category="71" did="1879358647" parentZoneId="1879361633" longitude="55.177517" latitude="40.55418"/>
<marker id="1338953890" label="Frenzied Prisoner" category="71" did="1879358647" parentZoneId="1879361633" longitude="54.8533" latitude="40.909256"/>
<marker id="1338953891" label="Ghâsh-hai Warrior" category="71" did="1879358646" parentZoneId="1879361633" longitude="54.97119" latitude="40.669315"/>
<marker id="1338953892" label="Ghâsh-hai Warrior" category="71" did="1879358646" parentZoneId="1879361633" longitude="54.468533" latitude="39.972206"/>
<marker id="1338953893" label="Ghâsh-hai Warrior" category="71" did="1879358646" parentZoneId="1879361633" longitude="55.096912" latitude="39.930332"/>
<marker id="1338953894" label="Ghâsh-hai Warrior" category="71" did="1879358646" parentZoneId="1879361633" longitude="55.362244" latitude="40.388103"/>
<marker id="1338953895" label="Ghâsh-hai Warrior" category="71" did="1879358646" parentZoneId="1879361633" longitude="55.38957" latitude="40.389492"/>
<marker id="1338953896" label="Ghâsh-hai Warrior" category="71" did="1879358646" parentZoneId="1879361633" longitude="54.36611" latitude="40.67135"/>
<marker id="1338953897" label="Ghâsh-hai Warrior" category="71" did="1879358646" parentZoneId="1879361633" longitude="54.97453" latitude="40.719044"/>
<marker id="1338953898" label="Ghâsh-hai Warrior" category="71" did="1879358646" parentZoneId="1879361633" longitude="54.468475" latitude="40.003845"/>
<marker id="1338953899" label="Nuzdum" category="71" did="1879358645" parentZoneId="1879361633" longitude="54.88623" latitude="40.860313"/>
<marker id="1338953900" label="Flame-spirit" category="71" did="1879358644" parentZoneId="1879361633" longitude="54.641365" latitude="40.65381"/>
<marker id="1338953901" label="Flame-spirit" category="71" did="1879358644" parentZoneId="1879361633" longitude="54.950153" latitude="40.542286"/>
<marker id="1338953902" label="Flame-spirit" category="71" did="1879358644" parentZoneId="1879361633" longitude="54.78242" latitude="40.701054"/>
<marker id="1338953903" label="Flame-spirit" category="71" did="1879358644" parentZoneId="1879361633" longitude="54.73703" latitude="40.61215"/>
<marker id="1338953904" label="Flame-spirit" category="71" did="1879358644" parentZoneId="1879361633" longitude="55.07984" latitude="39.90322"/>
<marker id="1338953905" label="Flame-spirit" category="71" did="1879358644" parentZoneId="1879361633" longitude="54.788456" latitude="40.68129"/>
<marker id="1338953906" label="Flame-spirit" category="71" did="1879358644" parentZoneId="1879361633" longitude="54.737656" latitude="40.58711"/>
<marker id="1338953907" label="Flame-spirit" category="71" did="1879358644" parentZoneId="1879361633" longitude="54.45533" latitude="40.777187"/>
<marker id="1338953908" label="Flame-spirit" category="71" did="1879358644" parentZoneId="1879361633" longitude="55.178963" latitude="40.419415"/>
<marker id="1338953909" label="Flame-spirit" category="71" did="1879358644" parentZoneId="1879361633" longitude="54.91078" latitude="40.77584"/>
<marker id="1338953910" label="Flame-spirit" category="71" did="1879358644" parentZoneId="1879361633" longitude="54.462715" latitude="40.76742"/>
<marker id="1338953911" label="Flame-spirit" category="71" did="1879358644" parentZoneId="1879361633" longitude="55.197224" latitude="40.426365"/>
<marker id="1338953912" label="Flame-spirit" category="71" did="1879358644" parentZoneId="1879361633" longitude="54.45002" latitude="40.747032"/>
<marker id="1338953913" label="Flame-spirit" category="71" did="1879358644" parentZoneId="1879361633" longitude="55.31148" latitude="40.421814"/>
<marker id="1338953914" label="Flame-spirit" category="71" did="1879358644" parentZoneId="1879361633" longitude="54.46457" latitude="40.752655"/>
<marker id="1338953915" label="Flame-spirit" category="71" did="1879358644" parentZoneId="1879361633" longitude="55.32502" latitude="40.41318"/>
<marker id="1338953916" label="Flame-spirit" category="71" did="1879358644" parentZoneId="1879361633" longitude="54.44838" latitude="40.762596"/>
<marker id="1338953917" label="Flame-spirit" category="71" did="1879358644" parentZoneId="1879361633" longitude="55.39152" latitude="40.4241"/>
<marker id="1338953918" label="Flame-spirit" category="71" did="1879358644" parentZoneId="1879361633" longitude="54.67789" latitude="40.88334"/>
<marker id="1338953919" label="Flame-spirit" category="71" did="1879358644" parentZoneId="1879361633" longitude="55.389374" latitude="40.45492"/>
<marker id="1338953920" label="Flame-spirit" category="71" did="1879358644" parentZoneId="1879361633" longitude="54.813946" latitude="40.534668"/>
<marker id="1338953921" label="Flame-spirit" category="71" did="1879358644" parentZoneId="1879361633" longitude="55.128593" latitude="40.680157"/>
<marker id="1338953922" label="Flame-spirit" category="71" did="1879358644" parentZoneId="1879361633" longitude="54.824863" latitude="40.517246"/>
<marker id="1338953923" label="Flame-spirit" category="71" did="1879358644" parentZoneId="1879361633" longitude="54.735153" latitude="39.669804"/>
<marker id="1338953924" label="Flame-spirit" category="71" did="1879358644" parentZoneId="1879361633" longitude="55.185116" latitude="40.64162"/>
<marker id="1338953925" label="Flame-spirit" category="71" did="1879358644" parentZoneId="1879361633" longitude="54.763535" latitude="39.642673"/>
<marker id="1338953926" label="Flame-spirit" category="71" did="1879358644" parentZoneId="1879361633" longitude="55.1841" latitude="40.672634"/>
<marker id="1338953927" label="Flame-spirit" category="71" did="1879358644" parentZoneId="1879361633" longitude="54.872967" latitude="40.61658"/>
<marker id="1338953928" label="Flame-spirit" category="71" did="1879358644" parentZoneId="1879361633" longitude="54.75783" latitude="39.705643"/>
<marker id="1338953929" label="Flame-spirit" category="71" did="1879358644" parentZoneId="1879361633" longitude="54.76045" latitude="39.714275"/>
<marker id="1338953930" label="Flame-spirit" category="71" did="1879358644" parentZoneId="1879361633" longitude="55.185604" latitude="40.88357"/>
<marker id="1338953931" label="Flame-spirit" category="71" did="1879358644" parentZoneId="1879361633" longitude="54.89289" latitude="40.59963"/>
<marker id="1338953932" label="Flame-spirit" category="71" did="1879358644" parentZoneId="1879361633" longitude="54.948807" latitude="40.07588"/>
<marker id="1338953933" label="Flame-spirit" category="71" did="1879358644" parentZoneId="1879361633" longitude="55.152813" latitude="40.87867"/>
<marker id="1338953934" label="Flame-spirit" category="71" did="1879358644" parentZoneId="1879361633" longitude="54.87877" latitude="40.589317"/>
<marker id="1338953935" label="Flame-spirit" category="71" did="1879358644" parentZoneId="1879361633" longitude="54.94783" latitude="40.0966"/>
<marker id="1338953936" label="Flame-spirit" category="71" did="1879358644" parentZoneId="1879361633" longitude="55.093845" latitude="40.540684"/>
<marker id="1338953937" label="Flame-spirit" category="71" did="1879358644" parentZoneId="1879361633" longitude="54.882324" latitude="40.885506"/>
<marker id="1338953938" label="Flame-spirit" category="71" did="1879358644" parentZoneId="1879361633" longitude="54.648357" latitude="40.873123"/>
<marker id="1338953939" label="Flame-spirit" category="71" did="1879358644" parentZoneId="1879361633" longitude="55.13359" latitude="40.508026"/>
<marker id="1338953940" label="Flame-spirit" category="71" did="1879358644" parentZoneId="1879361633" longitude="54.955116" latitude="40.880215"/>
<marker id="1338953941" label="Flame-spirit" category="71" did="1879358644" parentZoneId="1879361633" longitude="54.824333" latitude="40.59619"/>
<marker id="1338953942" label="Flame-spirit" category="71" did="1879358644" parentZoneId="1879361633" longitude="55.086346" latitude="39.517384"/>
<marker id="1338953943" label="Flame-spirit" category="71" did="1879358644" parentZoneId="1879361633" longitude="55.150192" latitude="40.53607"/>
<marker id="1338953944" label="Flame-spirit" category="71" did="1879358644" parentZoneId="1879361633" longitude="55.100857" latitude="40.796074"/>
<marker id="1338953945" label="Flame-spirit" category="71" did="1879358644" parentZoneId="1879361633" longitude="54.81322" latitude="40.60789"/>
<marker id="1338953946" label="Flame-spirit" category="71" did="1879358644" parentZoneId="1879361633" longitude="54.634724" latitude="40.78162"/>
<marker id="1338953947" label="Flame-spirit" category="71" did="1879358644" parentZoneId="1879361633" longitude="55.076736" latitude="39.454414"/>
<marker id="1338953948" label="Flame-spirit" category="71" did="1879358644" parentZoneId="1879361633" longitude="55.214725" latitude="40.41289"/>
<marker id="1338953949" label="Flame-spirit" category="71" did="1879358644" parentZoneId="1879361633" longitude="54.635292" latitude="40.734062"/>
<marker id="1338953950" label="Flame-spirit" category="71" did="1879358644" parentZoneId="1879361633" longitude="54.89332" latitude="40.673965"/>
<marker id="1338953951" label="Flame-spirit" category="71" did="1879358644" parentZoneId="1879361633" longitude="54.95695" latitude="40.51254"/>
<marker id="1338953952" label="Uiliúr" category="71" did="1879358651" parentZoneId="1879361633" longitude="55.240173" latitude="40.702732"/>
<marker id="1338953953" label="Bolvág the Cursed" category="71" did="1879358650" parentZoneId="1879361633" longitude="54.89152" latitude="40.475918"/>
<marker id="1338953954" label="Gumog" category="71" did="1879358649" parentZoneId="1879361633" longitude="55.23236" latitude="40.720467"/>
<marker id="1338953955" label="Gumog" category="71" did="1879358649" parentZoneId="1879361633" longitude="55.052616" latitude="40.690037"/>
<marker id="1338953956" label="Black Uruk Torturer" category="71" did="1879358648" parentZoneId="1879361633" longitude="54.92457" latitude="40.08957"/>
<marker id="1338953957" label="Black Uruk Torturer" category="71" did="1879358648" parentZoneId="1879361633" longitude="55.08162" latitude="40.383163"/>
<marker id="1338953958" label="Black Uruk Torturer" category="71" did="1879358648" parentZoneId="1879361633" longitude="55.100056" latitude="40.383945"/>
<marker id="1338953959" label="Black Uruk Torturer" category="71" did="1879358648" parentZoneId="1879361633" longitude="54.448593" latitude="40.499393"/>
<marker id="1338953960" label="Black Uruk Torturer" category="71" did="1879358648" parentZoneId="1879361633" longitude="54.461697" latitude="40.199413"/>
<marker id="1338953961" label="Black Uruk Torturer" category="71" did="1879358648" parentZoneId="1879361633" longitude="54.543533" latitude="40.672363"/>
<marker id="1338953962" label="Black Uruk Torturer" category="71" did="1879358648" parentZoneId="1879361633" longitude="54.54111" latitude="40.686893"/>
<marker id="1338953963" label="Black Uruk Torturer" category="71" did="1879358648" parentZoneId="1879361633" longitude="55.09355" latitude="39.670837"/>
<marker id="1338953964" label="Black Uruk Torturer" category="71" did="1879358648" parentZoneId="1879361633" longitude="54.815098" latitude="39.512363"/>
<marker id="1338953965" label="Black Uruk Torturer" category="71" did="1879358648" parentZoneId="1879361633" longitude="55.106365" latitude="39.666424"/>
<marker id="1338953966" label="Black Uruk Torturer" category="71" did="1879358648" parentZoneId="1879361633" longitude="54.52492" latitude="40.6808"/>
<marker id="1338953967" label="Black Uruk Torturer" category="71" did="1879358648" parentZoneId="1879361633" longitude="55.079433" latitude="40.27451"/>
<marker id="1338953968" label="Black Uruk Torturer" category="71" did="1879358648" parentZoneId="1879361633" longitude="54.65623" latitude="40.659725"/>
<marker id="1338953969" label="Black Uruk Torturer" category="71" did="1879358648" parentZoneId="1879361633" longitude="55.10115" latitude="40.273514"/>
<marker id="1338953970" label="Black Uruk Torturer" category="71" did="1879358648" parentZoneId="1879361633" longitude="55.2642" latitude="40.700134"/>
<marker id="1338953971" label="Black Uruk Torturer" category="71" did="1879358648" parentZoneId="1879361633" longitude="54.656013" latitude="40.68916"/>
<marker id="1338953972" label="Black Uruk Torturer" category="71" did="1879358648" parentZoneId="1879361633" longitude="55.28152" latitude="40.717285"/>
<marker id="1338953973" label="Black Uruk Torturer" category="71" did="1879358648" parentZoneId="1879361633" longitude="54.45416" latitude="40.617302"/>
<marker id="1338953974" label="Black Uruk Torturer" category="71" did="1879358648" parentZoneId="1879361633" longitude="55.084724" latitude="39.480682"/>
<marker id="1338953975" label="Black Uruk Torturer" category="71" did="1879358648" parentZoneId="1879361633" longitude="55.256523" latitude="40.71328"/>
<marker id="1338953976" label="Black Uruk Torturer" category="71" did="1879358648" parentZoneId="1879361633" longitude="54.80494" latitude="39.52211"/>
<marker id="1338953977" label="Black Uruk Torturer" category="71" did="1879358648" parentZoneId="1879361633" longitude="55.079002" latitude="39.491875"/>
<marker id="1338953978" label="Black Uruk Torturer" category="71" did="1879358648" parentZoneId="1879361633" longitude="55.23621" latitude="40.691914"/>
<marker id="1338953979" label="Black Uruk Torturer" category="71" did="1879358648" parentZoneId="1879361633" longitude="55.252224" latitude="40.722694"/>
<marker id="1338953980" label="Black Uruk Torturer" category="71" did="1879358648" parentZoneId="1879361633" longitude="55.088886" latitude="39.910427"/>
<marker id="1338953981" label="Black Uruk Torturer" category="71" did="1879358648" parentZoneId="1879361633" longitude="55.255077" latitude="40.692364"/>
<marker id="1338953982" label="Black Uruk Torturer" category="71" did="1879358648" parentZoneId="1879361633" longitude="54.821503" latitude="39.518494"/>
<marker id="1338953983" label="Black Uruk Torturer" category="71" did="1879358648" parentZoneId="1879361633" longitude="55.269" latitude="40.71361"/>
<marker id="1338953984" label="Thraknûl" category="71" did="1879358654" parentZoneId="1879361633" longitude="54.74992" latitude="39.757557"/>
<marker id="1338953985" label="Small Chest" category="72" did="1879363562" parentZoneId="1879361633" longitude="55.35676" latitude="40.36908"/>
<marker id="1338953986" label="Rotwing" category="71" did="1879358653" parentZoneId="1879361633" longitude="54.90207" latitude="40.727947"/>
<marker id="1338953987" label="Small Fancy Chest" category="72" did="1879363561" parentZoneId="1879361633" longitude="55.35607" latitude="40.36904"/>
<marker id="1338953988" label="Ghâsh-hai Leader" category="71" did="1879358652" parentZoneId="1879361633" longitude="54.453396" latitude="40.48447"/>
<marker id="1338953989" label="Ghâsh-hai Leader" category="71" did="1879358652" parentZoneId="1879361633" longitude="54.7965" latitude="39.52371"/>
<marker id="1338953990" label="Ghâsh-hai Leader" category="71" did="1879358652" parentZoneId="1879361633" longitude="55.37668" latitude="40.385036"/>
<marker id="1338953991" label="Ghâsh-hai Leader" category="71" did="1879358652" parentZoneId="1879361633" longitude="54.35652" latitude="40.675407"/>
<marker id="1338953992" label="Ghâsh-hai Leader" category="71" did="1879358652" parentZoneId="1879361633" longitude="55.096016" latitude="39.490917"/>
<marker id="1338953993" label="Ghâsh-hai Leader" category="71" did="1879358652" parentZoneId="1879361633" longitude="54.8124" latitude="39.522305"/>
<marker id="1338953994" label="Ghâsh-hai Leader" category="71" did="1879358652" parentZoneId="1879361633" longitude="55.078144" latitude="39.914745"/>
