<?xml version="1.0" encoding="UTF-8"?><markers>
<marker id="528941056" label="Elrond" category="70" did="1879350439" parentZoneId="1879358082" longitude="50.80654" latitude="-22.10162"/>
<marker id="528941057" label="Elrohir" category="70" did="1879350434" parentZoneId="1879358082" longitude="50.812107" latitude="-21.938856"/>
<marker id="528941058" label="Elrond" category="70" did="1879350439" parentZoneId="1879358082" longitude="50.83496" latitude="-21.996025"/>
<marker id="528941059" label="Door" category="100" did="1879063389" parentZoneId="1879358082" longitude="50.810234" latitude="-21.925537"/>
<marker id="528941060" label="Packages" category="73" did="1879348271" parentZoneId="1879358082" longitude="50.787987" latitude="-21.992178"/>
<marker id="528941061" label="Elf" category="70" did="1879351437" parentZoneId="1879358082" longitude="50.781544" latitude="-21.995537"/>
<marker id="528941062" label="Elf" category="70" did="1879351437" parentZoneId="1879358082" longitude="50.78982" latitude="-21.99538"/>
<marker id="528941063" label="Elladan" category="70" did="1879350436" parentZoneId="1879358082" longitude="50.80703" latitude="-21.931269"/>
<marker id="528941064" label="Elf" category="70" did="1879350438" parentZoneId="1879358082" longitude="50.89576" latitude="-22.018085"/>
<marker id="528941065" label="Elf" category="70" did="1879350438" parentZoneId="1879358082" longitude="50.868164" latitude="-22.084345"/>
<marker id="528941066" label="Elf" category="70" did="1879350438" parentZoneId="1879358082" longitude="50.771347" latitude="-21.996113"/>
<marker id="528941069" label="Hithgol" category="70" did="1879350432" parentZoneId="1879358082" longitude="50.86914" latitude="-22.091347"/>
<marker id="528941070" label="Harthalín" category="70" did="1879350433" parentZoneId="1879358082" longitude="50.777714" latitude="-22.084091"/>
<marker id="528941072" label="Elf" category="70" did="1879350435" parentZoneId="1879358082" longitude="50.898846" latitude="-22.04914"/>
<marker id="528941073" label="Elf" category="70" did="1879350435" parentZoneId="1879358082" longitude="50.764492" latitude="-22.01747"/>
<marker id="528941074" label="Sealed Collection of Armour" category="73" did="1879350444" parentZoneId="1879358082" longitude="50.762383" latitude="-22.094599"/>
<marker id="528941075" label="Jeweller's Case" category="73" did="1879350442" parentZoneId="1879358082" longitude="50.798904" latitude="-22.100117"/>
<marker id="528941076" label="Elrond's Writings" category="73" did="1879350443" parentZoneId="1879358082" longitude="50.843357" latitude="-21.996357"/>
<marker id="528953344" label="Door" category="100" did="1879063326" parentZoneId="1879342514" longitude="50.767735" latitude="-19.549551"/>
<marker id="528982017" label="Bingo Boffin" category="70" did="1879320515" parentZoneId="1879321719" longitude="50.982616" latitude="-14.397217"/>
<marker id="528982019" label="Bingo's Notes&#10;A Source of Reflection" category="52" did="1879333648" parentZoneId="1879321719" longitude="50.86414" latitude="-14.301885"/>
<marker id="528982020" label="Bingo Boffin" category="70" did="1879330305" parentZoneId="1879321719" longitude="50.90652" latitude="-14.315801"/>
<marker id="528982021" label="Musty Cobwebs" category="73" did="1879330325" parentZoneId="1879321719" longitude="50.894882" latitude="-14.369042"/>
<marker id="528982022" label="Musty Cobwebs" category="73" did="1879330325" parentZoneId="1879321719" longitude="50.87248" latitude="-14.380625"/>
<marker id="528982023" label="Musty Cobwebs" category="73" did="1879330325" parentZoneId="1879321719" longitude="50.93504" latitude="-14.405449"/>
<marker id="528982024" label="Musty Cobwebs" category="73" did="1879330326" parentZoneId="1879321719" longitude="50.933964" latitude="-14.378467"/>
<marker id="528982025" label="Musty Cobwebs" category="73" did="1879330326" parentZoneId="1879321719" longitude="50.93506" latitude="-14.34668"/>
<marker id="528982026" label="Musty Cobwebs" category="73" did="1879330326" parentZoneId="1879321719" longitude="50.96043" latitude="-14.382109"/>
<marker id="528982027" label="Musty Cobwebs" category="73" did="1879330321" parentZoneId="1879321719" longitude="50.92117" latitude="-14.282109"/>
<marker id="528982028" label="Musty Cobwebs" category="73" did="1879330321" parentZoneId="1879321719" longitude="50.874687" latitude="-14.4321575"/>
<marker id="528982029" label="Musty Cobwebs" category="73" did="1879330321" parentZoneId="1879321719" longitude="50.993164" latitude="-14.406123"/>
<marker id="528982030" label="Musty Cobwebs" category="73" did="1879330328" parentZoneId="1879321719" longitude="50.870075" latitude="-14.268887"/>
<marker id="528982031" label="Musty Cobwebs" category="73" did="1879330328" parentZoneId="1879321719" longitude="50.886055" latitude="-14.404814"/>
<marker id="528982032" label="Musty Cobwebs" category="73" did="1879330328" parentZoneId="1879321719" longitude="50.99381" latitude="-14.347217"/>
<marker id="528982033" label="Door" category="100" did="1879063434" parentZoneId="1879321719" longitude="50.9065" latitude="-14.407041"/>
<marker id="528982035" label="Borrowed Teapot" category="73" did="1879320621" parentZoneId="1879321719" longitude="50.817677" latitude="-14.393076"/>
<marker id="528982036" label="Borrowed Bucket" category="73" did="1879320628" parentZoneId="1879321719" longitude="50.776875" latitude="-14.429472"/>
<marker id="528982037" label="Borrowed Twine" category="73" did="1879320631" parentZoneId="1879321719" longitude="50.905956" latitude="-14.292734"/>
<marker id="528982038" label="Bingo's Other Satchel" category="73" did="1879320655" parentZoneId="1879321719" longitude="50.97955" latitude="-14.398525"/>
<marker id="528990208" label="Bingo Boffin" category="70" did="1879330821" parentZoneId="1879321718" longitude="50.345352" latitude="-13.077724"/>
<marker id="528990209" label="Spalvi Stout-heart" category="70" did="1879330830" parentZoneId="1879321718" longitude="50.48119" latitude="-12.941279"/>
<marker id="528990210" label="Haley Meadowsweet" category="70" did="1879330837" parentZoneId="1879321718" longitude="50.481445" latitude="-12.946406"/>
<marker id="528990211" label="Ketill Map-maker" category="70" did="1879330827" parentZoneId="1879321718" longitude="50.481133" latitude="-12.934032"/>
<marker id="528990212" label="Marigold Boffin" category="70" did="1879330824" parentZoneId="1879321718" longitude="50.475857" latitude="-12.944404"/>
<marker id="528990213" label="Iola Isbrun" category="70" did="1879330840" parentZoneId="1879321718" longitude="50.53164" latitude="-13.041992"/>
<marker id="528990214" label="Violed Isbrun" category="70" did="1879330815" parentZoneId="1879321718" longitude="50.5216" latitude="-13.042637"/>
<marker id="528990215" label="Merrimac Fairbairn" category="70" did="1879330818" parentZoneId="1879321718" longitude="50.515137" latitude="-13.035557"/>
<marker id="528990216" label="Myrtle Boggs" category="70" did="1879330839" parentZoneId="1879321718" longitude="50.525917" latitude="-13.034258"/>
<marker id="528990217" label="Dinodas Boffin" category="70" did="1879330841" parentZoneId="1879321718" longitude="50.44584" latitude="-12.934111"/>
<marker id="528990218" label="Celandine Brandybuck" category="70" did="1879330842" parentZoneId="1879321718" longitude="50.44709" latitude="-12.9304"/>
<marker id="528990219" label="Milo Goodbody" category="70" did="1879330832" parentZoneId="1879321718" longitude="50.406876" latitude="-13.060381"/>
<marker id="528990220" label="Griffo Boffin" category="70" did="1879330844" parentZoneId="1879321718" longitude="50.400955" latitude="-13.051162"/>
<marker id="528990221" label="Bert Bartleby" category="70" did="1879330846" parentZoneId="1879321718" longitude="50.417305" latitude="-13.047246"/>
<marker id="528990222" label="Theodore Gorse" category="70" did="1879330835" parentZoneId="1879321718" longitude="50.424274" latitude="-13.0605755"/>
<marker id="528990223" label="Adolinda" category="70" did="1879330816" parentZoneId="1879321718" longitude="50.435017" latitude="-13.074746"/>
<marker id="528990224" label="Donnamira Took" category="70" did="1879330836" parentZoneId="1879321718" longitude="50.553204" latitude="-13.009932"/>
<marker id="528990227" label="Woman" category="70" did="1879330826" parentZoneId="1879321718" longitude="50.33869" latitude="-13.036562"/>
<marker id="528990228" label="Door" category="100" did="1879063434" parentZoneId="1879321718" longitude="50.472637" latitude="-13.059521"/>
<marker id="528990229" label="Maervadhor" category="70" did="1879330820" parentZoneId="1879321718" longitude="50.5474" latitude="-13.00414"/>
<marker id="528990231" label="Prisca Boffin" category="70" did="1879330822" parentZoneId="1879321718" longitude="50.538982" latitude="-12.998359"/>
<marker id="528990234" label="Camellia Boffin" category="70" did="1879330828" parentZoneId="1879321718" longitude="50.475567" latitude="-12.981807"/>
<marker id="528990235" label="Iolo Brochtû" category="70" did="1879330829" parentZoneId="1879321718" longitude="50.52709" latitude="-13.043886"/>
<marker id="528990237" label="Angelica Boffin" category="70" did="1879330831" parentZoneId="1879321718" longitude="50.44301" latitude="-12.9296875"/>
<marker id="528990239" label="Poppy Bracegirdle" category="70" did="1879330825" parentZoneId="1879321718" longitude="50.532734" latitude="-13.035459"/>
<marker id="528990244" label="Willem Whisker" category="70" did="1879330838" parentZoneId="1879321718" longitude="50.34236" latitude="-13.074297"/>
<marker id="528990247" label="Berilac Boffin" category="70" did="1879330834" parentZoneId="1879321718" longitude="50.43484" latitude="-12.964024"/>
<marker id="528990250" label="Esmeralda Boffin" category="70" did="1879330845" parentZoneId="1879321718" longitude="50.342987" latitude="-13.04293"/>
<marker id="528990252" label="Langhár" category="70" did="1879330847" parentZoneId="1879321718" longitude="50.352734" latitude="-13.078554"/>
<marker id="528990256" label="Rhus Cornchúthur" category="70" did="1879330843" parentZoneId="1879321718" longitude="50.51453" latitude="-13.053242"/>
<marker id="528990257" label="Fosco Boffin" category="70" did="1879330848" parentZoneId="1879321718" longitude="50.54785" latitude="-13.019189"/>
<marker id="528990258" label="Egwylf" category="70" did="1879330814" parentZoneId="1879321718" longitude="50.350292" latitude="-13.066611"/>
<marker id="528998400" label="Forge" category="45" did="1879063063" parentZoneId="1879222184" longitude="51.492188" latitude="-10.574736"/>
<marker id="528998401" label="Oven" category="45" did="1879063059" parentZoneId="1879222184" longitude="51.53211" latitude="-10.609482"/>
<marker id="528998402" label="Workbench" category="45" did="1879063072" parentZoneId="1879222184" longitude="51.430252" latitude="-10.676016"/>
<marker id="528998403" label="Forge" category="45" did="1879063063" parentZoneId="1879222184" longitude="51.446114" latitude="-10.513662"/>
<marker id="528998404" label="Study" category="45" did="1879063061" parentZoneId="1879222184" longitude="51.30986" latitude="-10.579355"/>
<marker id="528998405" label="Workbench" category="45" did="1879063072" parentZoneId="1879222184" longitude="51.36213" latitude="-10.690702"/>
<marker id="528998406" label="Mailbox" category="34" did="1879222087" parentZoneId="1879222184" longitude="51.376602" latitude="-10.540049"/>
<marker id="528998407" label="Mailbox" category="34" did="1879222087" parentZoneId="1879222184" longitude="51.340096" latitude="-10.574903"/>
<marker id="528998408" label="Oven" category="45" did="1879063059" parentZoneId="1879222184" longitude="51.520603" latitude="-10.662568"/>
<marker id="528998409" label="Study" category="45" did="1879063061" parentZoneId="1879222184" longitude="51.29133" latitude="-10.615674"/>
<marker id="528998410" label="Improved Recipes" category="33" did="1879222170" parentZoneId="1879222184" longitude="51.391716" latitude="-10.672988"/>
<marker id="528998411" label="Trader" category="58" did="1879222172" parentZoneId="1879222184" longitude="51.37037" latitude="-10.688672"/>
<marker id="528998412" label="Legendary Recipes" category="33" did="1879222171" parentZoneId="1879222184" longitude="51.485195" latitude="-10.58166"/>
<marker id="528998413" label="Guild Leader" category="58" did="1879222163" parentZoneId="1879222184" longitude="51.446873" latitude="-10.575762"/>
<marker id="528998414" label="Recipes" category="33" did="1879222161" parentZoneId="1879222184" longitude="51.478806" latitude="-10.60042"/>
<marker id="528998415" label="Improved Recipes" category="33" did="1879222146" parentZoneId="1879222184" longitude="51.49572" latitude="-10.5453615"/>
<marker id="528998416" label="Trader" category="58" did="1879222153" parentZoneId="1879222184" longitude="51.476833" latitude="-10.563574"/>
<marker id="528998417" label="Legendary Recipes" category="33" did="1879222150" parentZoneId="1879222184" longitude="51.40545" latitude="-10.695341"/>
<marker id="528998418" label="Guild Leader" category="58" did="1879222162" parentZoneId="1879222184" longitude="51.421013" latitude="-10.628653"/>
<marker id="528998419" label="Recipes" category="33" did="1879222160" parentZoneId="1879222184" longitude="51.44744" latitude="-10.6796875"/>
<marker id="528998420" label="Trader" category="58" did="1879222149" parentZoneId="1879222184" longitude="51.418045" latitude="-10.671914"/>
<marker id="528998421" label="Improved Recipes" category="33" did="1879222154" parentZoneId="1879222184" longitude="51.39996" latitude="-10.695713"/>
<marker id="528998422" label="Legendary Recipes" category="33" did="1879222167" parentZoneId="1879222184" longitude="51.49734" latitude="-10.664931"/>
<marker id="528998423" label="Guild Leader" category="58" did="1879222159" parentZoneId="1879222184" longitude="51.459843" latitude="-10.6194725"/>
<marker id="528998424" label="Recipes" category="33" did="1879222174" parentZoneId="1879222184" longitude="51.49918" latitude="-10.628681"/>
<marker id="528998425" label="Improved Recipes" category="33" did="1879222157" parentZoneId="1879222184" longitude="51.471367" latitude="-10.644365"/>
<marker id="528998426" label="Trader" category="58" did="1879222158" parentZoneId="1879222184" longitude="51.494785" latitude="-10.59915"/>
<marker id="528998427" label="Legendary Recipes" category="33" did="1879222145" parentZoneId="1879222184" longitude="51.322987" latitude="-10.652158"/>
<marker id="528998428" label="Guild Leader" category="58" did="1879222166" parentZoneId="1879222184" longitude="51.361797" latitude="-10.639297"/>
<marker id="528998429" label="Recipes" category="33" did="1879222178" parentZoneId="1879222184" longitude="51.364258" latitude="-10.650517"/>
<marker id="528998430" label="Improved Recipes" category="33" did="1879222148" parentZoneId="1879222184" longitude="51.325954" latitude="-10.658379"/>
<marker id="528998431" label="Trader" category="58" did="1879222168" parentZoneId="1879222184" longitude="51.345604" latitude="-10.6427145"/>
<marker id="528998432" label="Legendary Recipes" category="33" did="1879222151" parentZoneId="1879222184" longitude="51.460663" latitude="-10.513799"/>
<marker id="528998433" label="Guild Leader" category="58" did="1879222156" parentZoneId="1879222184" longitude="51.429432" latitude="-10.542587"/>
<marker id="528998434" label="Recipes" category="33" did="1879222177" parentZoneId="1879222184" longitude="51.428417" latitude="-10.506728"/>
<marker id="528998435" label="Improved Recipes" category="33" did="1879222152" parentZoneId="1879222184" longitude="51.405506" latitude="-10.523954"/>
<marker id="528998436" label="Trader" category="58" did="1879222165" parentZoneId="1879222184" longitude="51.460136" latitude="-10.542451"/>
<marker id="528998437" label="Legendary Recipes" category="33" did="1879222176" parentZoneId="1879222184" longitude="51.29156" latitude="-10.622978"/>
<marker id="528998438" label="Guild Leader" category="58" did="1879222175" parentZoneId="1879222184" longitude="51.34447" latitude="-10.608818"/>
<marker id="528998439" label="Recipes" category="33" did="1879222155" parentZoneId="1879222184" longitude="51.320915" latitude="-10.582598"/>
<marker id="528998440" label="Improved Recipes" category="33" did="1879222169" parentZoneId="1879222184" longitude="51.292576" latitude="-10.601572"/>
<marker id="528998441" label="Trader" category="58" did="1879222173" parentZoneId="1879222184" longitude="51.324608" latitude="-10.601807"/>
<marker id="528998442" label="Legendary Recipes" category="33" did="1879222147" parentZoneId="1879222184" longitude="51.34693" latitude="-10.6953125"/>
<marker id="528998443" label="Guild Leader" category="58" did="1879222164" parentZoneId="1879222184" longitude="51.389805" latitude="-10.633808"/>
<marker id="528998444" label="Recipes" category="33" did="1879222144" parentZoneId="1879222184" longitude="51.342186" latitude="-10.677207"/>
<marker id="528998445" label="Master of Crafting Guilds" category="70" did="1879206579" parentZoneId="1879222184" longitude="51.38791" latitude="-10.597597"/>
<marker id="528998488" label="Camp-fire" category="73" did="1879086364" parentZoneId="1879222184" longitude="51.47916" latitude="-10.674639"/>
<marker id="529092608" label="Grasping Pond-lurker" category="71" did="1879095033" parentZoneId="1879095492" longitude="53.99416" latitude="-17.595175"/>
<marker id="529092609" label="Pond-lurker" category="71" did="1879095034" parentZoneId="1879095492" longitude="53.99416" latitude="-17.595175"/>
<marker id="529092610" label="Young Wood-troll Warrior" category="71" did="1879095046" parentZoneId="1879095492" longitude="53.99416" latitude="-17.595175"/>
<marker id="529092611" label="Young Wood-troll Lobber" category="71" did="1879095047" parentZoneId="1879095492" longitude="53.99416" latitude="-17.595175"/>
<marker id="529092616" label="Angmarim Scout" category="71" did="1879095128" parentZoneId="1879095492" longitude="54.039238" latitude="-17.686104"/>
<marker id="529092617" label="Angmarim Scout" category="71" did="1879095128" parentZoneId="1879095492" longitude="54.071033" latitude="-17.591103"/>
<marker id="529092618" label="Dâg Taushakh" category="71" did="1879095048" parentZoneId="1879095492" longitude="53.82828" latitude="-17.01961"/>
<marker id="529092619" label="Dâg Taushakh" category="71" did="1879095048" parentZoneId="1879095492" longitude="53.54664" latitude="-17.76834"/>
<marker id="529092620" label="Young Wood-troll Leader" category="71" did="1879095045" parentZoneId="1879095492" longitude="53.884277" latitude="-17.437803"/>
<marker id="529092621" label="Young Wood-troll Warrior" category="71" did="1879095046" parentZoneId="1879095492" longitude="53.884277" latitude="-17.437803"/>
<marker id="529092622" label="Young Wood-troll Lobber" category="71" did="1879095047" parentZoneId="1879095492" longitude="53.884277" latitude="-17.437803"/>
<marker id="529092623" label="Grasping Pond-lurker" category="71" did="1879095033" parentZoneId="1879095492" longitude="53.884277" latitude="-17.437803"/>
<marker id="529092624" label="Pond-lurker" category="71" did="1879095034" parentZoneId="1879095492" longitude="53.884277" latitude="-17.437803"/>
<marker id="529092625" label="Young Wood-troll Leader" category="71" did="1879095045" parentZoneId="1879095492" longitude="53.803825" latitude="-17.246807"/>
<marker id="529092626" label="Young Wood-troll Warrior" category="71" did="1879095046" parentZoneId="1879095492" longitude="53.803825" latitude="-17.246807"/>
<marker id="529092627" label="Young Wood-troll Lobber" category="71" did="1879095047" parentZoneId="1879095492" longitude="53.803825" latitude="-17.246807"/>
<marker id="529092628" label="Grasping Pond-lurker" category="71" did="1879095033" parentZoneId="1879095492" longitude="53.803825" latitude="-17.246807"/>
<marker id="529092629" label="Pond-lurker" category="71" did="1879095034" parentZoneId="1879095492" longitude="53.803825" latitude="-17.246807"/>
<marker id="529092630" label="Young Wood-troll Leader" category="71" did="1879095045" parentZoneId="1879095492" longitude="53.785175" latitude="-17.328554"/>
<marker id="529092631" label="Young Wood-troll Warrior" category="71" did="1879095046" parentZoneId="1879095492" longitude="53.785175" latitude="-17.328554"/>
<marker id="529092632" label="Young Wood-troll Lobber" category="71" did="1879095047" parentZoneId="1879095492" longitude="53.785175" latitude="-17.328554"/>
<marker id="529092633" label="Grasping Pond-lurker" category="71" did="1879095033" parentZoneId="1879095492" longitude="53.785175" latitude="-17.328554"/>
<marker id="529092634" label="Pond-lurker" category="71" did="1879095034" parentZoneId="1879095492" longitude="53.785175" latitude="-17.328554"/>
<marker id="529092635" label="Young Wood-troll Leader" category="71" did="1879095045" parentZoneId="1879095492" longitude="53.794216" latitude="-17.121513"/>
<marker id="529092636" label="Young Wood-troll Warrior" category="71" did="1879095046" parentZoneId="1879095492" longitude="53.794216" latitude="-17.121513"/>
<marker id="529092637" label="Young Wood-troll Lobber" category="71" did="1879095047" parentZoneId="1879095492" longitude="53.794216" latitude="-17.121513"/>
<marker id="529092638" label="Grasping Pond-lurker" category="71" did="1879095033" parentZoneId="1879095492" longitude="53.794216" latitude="-17.121513"/>
<marker id="529092639" label="Pond-lurker" category="71" did="1879095034" parentZoneId="1879095492" longitude="53.794216" latitude="-17.121513"/>
<marker id="529092640" label="Young Wood-troll Leader" category="71" did="1879095045" parentZoneId="1879095492" longitude="53.922596" latitude="-17.382061"/>
<marker id="529092641" label="Young Wood-troll Warrior" category="71" did="1879095046" parentZoneId="1879095492" longitude="53.922596" latitude="-17.382061"/>
<marker id="529092642" label="Young Wood-troll Lobber" category="71" did="1879095047" parentZoneId="1879095492" longitude="53.922596" latitude="-17.382061"/>
<marker id="529092643" label="Grasping Pond-lurker" category="71" did="1879095033" parentZoneId="1879095492" longitude="53.922596" latitude="-17.382061"/>
<marker id="529092644" label="Pond-lurker" category="71" did="1879095034" parentZoneId="1879095492" longitude="53.922596" latitude="-17.382061"/>
<marker id="529092645" label="Young Wood-troll Leader" category="71" did="1879095045" parentZoneId="1879095492" longitude="53.952774" latitude="-17.590645"/>
<marker id="529092646" label="Young Wood-troll Warrior" category="71" did="1879095046" parentZoneId="1879095492" longitude="53.952774" latitude="-17.590645"/>
<marker id="529092647" label="Young Wood-troll Lobber" category="71" did="1879095047" parentZoneId="1879095492" longitude="53.952774" latitude="-17.590645"/>
<marker id="529092648" label="Grasping Pond-lurker" category="71" did="1879095033" parentZoneId="1879095492" longitude="53.952774" latitude="-17.590645"/>
<marker id="529092649" label="Pond-lurker" category="71" did="1879095034" parentZoneId="1879095492" longitude="53.952774" latitude="-17.590645"/>
<marker id="529092650" label="Young Wood-troll Leader" category="71" did="1879095045" parentZoneId="1879095492" longitude="53.774277" latitude="-17.395733"/>
<marker id="529092651" label="Young Wood-troll Warrior" category="71" did="1879095046" parentZoneId="1879095492" longitude="53.774277" latitude="-17.395733"/>
<marker id="529092652" label="Young Wood-troll Lobber" category="71" did="1879095047" parentZoneId="1879095492" longitude="53.774277" latitude="-17.395733"/>
<marker id="529092653" label="Grasping Pond-lurker" category="71" did="1879095033" parentZoneId="1879095492" longitude="53.774277" latitude="-17.395733"/>
<marker id="529092654" label="Pond-lurker" category="71" did="1879095034" parentZoneId="1879095492" longitude="53.774277" latitude="-17.395733"/>
<marker id="529092655" label="Young Wood-troll Leader" category="71" did="1879095045" parentZoneId="1879095492" longitude="53.61166" latitude="-17.48995"/>
<marker id="529092656" label="Young Wood-troll Warrior" category="71" did="1879095046" parentZoneId="1879095492" longitude="53.61166" latitude="-17.48995"/>
<marker id="529092657" label="Young Wood-troll Lobber" category="71" did="1879095047" parentZoneId="1879095492" longitude="53.61166" latitude="-17.48995"/>
<marker id="529092658" label="Grasping Pond-lurker" category="71" did="1879095033" parentZoneId="1879095492" longitude="53.61166" latitude="-17.48995"/>
<marker id="529092659" label="Pond-lurker" category="71" did="1879095034" parentZoneId="1879095492" longitude="53.61166" latitude="-17.48995"/>
<marker id="529092660" label="Young Wood-troll Leader" category="71" did="1879095045" parentZoneId="1879095492" longitude="53.595722" latitude="-17.555136"/>
<marker id="529092661" label="Young Wood-troll Warrior" category="71" did="1879095046" parentZoneId="1879095492" longitude="53.595722" latitude="-17.555136"/>
<marker id="529092662" label="Young Wood-troll Lobber" category="71" did="1879095047" parentZoneId="1879095492" longitude="53.595722" latitude="-17.555136"/>
<marker id="529092663" label="Grasping Pond-lurker" category="71" did="1879095033" parentZoneId="1879095492" longitude="53.595722" latitude="-17.555136"/>
<marker id="529092664" label="Pond-lurker" category="71" did="1879095034" parentZoneId="1879095492" longitude="53.595722" latitude="-17.555136"/>
<marker id="529092665" label="Young Wood-troll Leader" category="71" did="1879095045" parentZoneId="1879095492" longitude="53.602383" latitude="-17.686972"/>
<marker id="529092666" label="Young Wood-troll Warrior" category="71" did="1879095046" parentZoneId="1879095492" longitude="53.602383" latitude="-17.686972"/>
<marker id="529092667" label="Young Wood-troll Lobber" category="71" did="1879095047" parentZoneId="1879095492" longitude="53.602383" latitude="-17.686972"/>
<marker id="529092668" label="Grasping Pond-lurker" category="71" did="1879095033" parentZoneId="1879095492" longitude="53.602383" latitude="-17.686972"/>
<marker id="529092669" label="Pond-lurker" category="71" did="1879095034" parentZoneId="1879095492" longitude="53.602383" latitude="-17.686972"/>
<marker id="529096704" label="Gauradan Ritualist" category="71" did="1879095037" parentZoneId="1879095491" longitude="51.874355" latitude="-17.109463"/>
<marker id="529096705" label="Gauradan Forest-walker" category="71" did="1879095038" parentZoneId="1879095491" longitude="51.874355" latitude="-17.109463"/>
<marker id="529096706" label="Gauradan Far-seer" category="71" did="1879095039" parentZoneId="1879095491" longitude="51.874355" latitude="-17.109463"/>
<marker id="529096707" label="Snarling Forest-stalker" category="71" did="1879095044" parentZoneId="1879095491" longitude="51.874355" latitude="-17.109463"/>
<marker id="529096708" label="Door" category="100" did="1879085721" parentZoneId="1879095491" longitude="52.16238" latitude="-17.202246"/>
<marker id="529096709" label="Ferocious Pack-leader" category="71" did="1879095043" parentZoneId="1879095491" longitude="51.62574" latitude="-17.367723"/>
<marker id="529096710" label="Snarling Forest-stalker" category="71" did="1879095044" parentZoneId="1879095491" longitude="51.62574" latitude="-17.367723"/>
<marker id="529096711" label="Gauradan Ritualist" category="71" did="1879095037" parentZoneId="1879095491" longitude="51.62574" latitude="-17.367723"/>
<marker id="529096712" label="Gauradan Forest-walker" category="71" did="1879095038" parentZoneId="1879095491" longitude="51.62574" latitude="-17.367723"/>
<marker id="529096713" label="Gauradan Far-seer" category="71" did="1879095039" parentZoneId="1879095491" longitude="51.62574" latitude="-17.367723"/>
<marker id="529096714" label="Ferocious Pack-leader" category="71" did="1879095043" parentZoneId="1879095491" longitude="51.695293" latitude="-17.327187"/>
<marker id="529096715" label="Snarling Forest-stalker" category="71" did="1879095044" parentZoneId="1879095491" longitude="51.695293" latitude="-17.327187"/>
<marker id="529096716" label="Gauradan Ritualist" category="71" did="1879095037" parentZoneId="1879095491" longitude="51.695293" latitude="-17.327187"/>
<marker id="529096717" label="Gauradan Forest-walker" category="71" did="1879095038" parentZoneId="1879095491" longitude="51.695293" latitude="-17.327187"/>
<marker id="529096718" label="Gauradan Far-seer" category="71" did="1879095039" parentZoneId="1879095491" longitude="51.695293" latitude="-17.327187"/>
<marker id="529096719" label="Ferocious Pack-leader" category="71" did="1879095043" parentZoneId="1879095491" longitude="51.637596" latitude="-17.314833"/>
<marker id="529096720" label="Snarling Forest-stalker" category="71" did="1879095044" parentZoneId="1879095491" longitude="51.637596" latitude="-17.314833"/>
<marker id="529096721" label="Gauradan Ritualist" category="71" did="1879095037" parentZoneId="1879095491" longitude="51.637596" latitude="-17.314833"/>
<marker id="529096722" label="Gauradan Forest-walker" category="71" did="1879095038" parentZoneId="1879095491" longitude="51.637596" latitude="-17.314833"/>
<marker id="529096723" label="Gauradan Far-seer" category="71" did="1879095039" parentZoneId="1879095491" longitude="51.637596" latitude="-17.314833"/>
<marker id="529096724" label="Ferocious Pack-leader" category="71" did="1879095043" parentZoneId="1879095491" longitude="51.660213" latitude="-17.374863"/>
<marker id="529096725" label="Snarling Forest-stalker" category="71" did="1879095044" parentZoneId="1879095491" longitude="51.660213" latitude="-17.374863"/>
<marker id="529096726" label="Gauradan Ritualist" category="71" did="1879095037" parentZoneId="1879095491" longitude="51.660213" latitude="-17.374863"/>
<marker id="529096727" label="Gauradan Forest-walker" category="71" did="1879095038" parentZoneId="1879095491" longitude="51.660213" latitude="-17.374863"/>
<marker id="529096728" label="Gauradan Far-seer" category="71" did="1879095039" parentZoneId="1879095491" longitude="51.660213" latitude="-17.374863"/>
<marker id="529096729" label="Ferocious Pack-leader" category="71" did="1879095043" parentZoneId="1879095491" longitude="51.76615" latitude="-17.19998"/>
<marker id="529096730" label="Snarling Forest-stalker" category="71" did="1879095044" parentZoneId="1879095491" longitude="51.76615" latitude="-17.19998"/>
<marker id="529096731" label="Gauradan Ritualist" category="71" did="1879095037" parentZoneId="1879095491" longitude="51.76615" latitude="-17.19998"/>
<marker id="529096732" label="Gauradan Forest-walker" category="71" did="1879095038" parentZoneId="1879095491" longitude="51.76615" latitude="-17.19998"/>
<marker id="529096733" label="Gauradan Far-seer" category="71" did="1879095039" parentZoneId="1879095491" longitude="51.76615" latitude="-17.19998"/>
<marker id="529096734" label="Ferocious Pack-leader" category="71" did="1879095043" parentZoneId="1879095491" longitude="51.70123" latitude="-17.207745"/>
<marker id="529096735" label="Snarling Forest-stalker" category="71" did="1879095044" parentZoneId="1879095491" longitude="51.70123" latitude="-17.207745"/>
<marker id="529096736" label="Gauradan Ritualist" category="71" did="1879095037" parentZoneId="1879095491" longitude="51.70123" latitude="-17.207745"/>
<marker id="529096737" label="Gauradan Forest-walker" category="71" did="1879095038" parentZoneId="1879095491" longitude="51.70123" latitude="-17.207745"/>
<marker id="529096738" label="Gauradan Far-seer" category="71" did="1879095039" parentZoneId="1879095491" longitude="51.70123" latitude="-17.207745"/>
<marker id="529096739" label="Ferocious Pack-leader" category="71" did="1879095043" parentZoneId="1879095491" longitude="51.749256" latitude="-17.175156"/>
<marker id="529096740" label="Snarling Forest-stalker" category="71" did="1879095044" parentZoneId="1879095491" longitude="51.749256" latitude="-17.175156"/>
<marker id="529096741" label="Gauradan Ritualist" category="71" did="1879095037" parentZoneId="1879095491" longitude="51.749256" latitude="-17.175156"/>
<marker id="529096742" label="Gauradan Forest-walker" category="71" did="1879095038" parentZoneId="1879095491" longitude="51.749256" latitude="-17.175156"/>
<marker id="529096743" label="Gauradan Far-seer" category="71" did="1879095039" parentZoneId="1879095491" longitude="51.749256" latitude="-17.175156"/>
<marker id="529096744" label="Ferocious Pack-leader" category="71" did="1879095043" parentZoneId="1879095491" longitude="51.736835" latitude="-17.16544"/>
<marker id="529096745" label="Snarling Forest-stalker" category="71" did="1879095044" parentZoneId="1879095491" longitude="51.736835" latitude="-17.16544"/>
<marker id="529096746" label="Gauradan Ritualist" category="71" did="1879095037" parentZoneId="1879095491" longitude="51.736835" latitude="-17.16544"/>
<marker id="529096747" label="Gauradan Forest-walker" category="71" did="1879095038" parentZoneId="1879095491" longitude="51.736835" latitude="-17.16544"/>
<marker id="529096748" label="Gauradan Far-seer" category="71" did="1879095039" parentZoneId="1879095491" longitude="51.736835" latitude="-17.16544"/>
<marker id="529096749" label="Ferocious Pack-leader" category="71" did="1879095043" parentZoneId="1879095491" longitude="51.870625" latitude="-17.015253"/>
<marker id="529096750" label="Snarling Forest-stalker" category="71" did="1879095044" parentZoneId="1879095491" longitude="51.870625" latitude="-17.015253"/>
<marker id="529096751" label="Gauradan Ritualist" category="71" did="1879095037" parentZoneId="1879095491" longitude="51.870625" latitude="-17.015253"/>
<marker id="529096752" label="Gauradan Forest-walker" category="71" did="1879095038" parentZoneId="1879095491" longitude="51.870625" latitude="-17.015253"/>
<marker id="529096753" label="Gauradan Far-seer" category="71" did="1879095039" parentZoneId="1879095491" longitude="51.870625" latitude="-17.015253"/>
<marker id="529096754" label="Ferocious Pack-leader" category="71" did="1879095043" parentZoneId="1879095491" longitude="51.896442" latitude="-17.029472"/>
<marker id="529096755" label="Snarling Forest-stalker" category="71" did="1879095044" parentZoneId="1879095491" longitude="51.896442" latitude="-17.029472"/>
<marker id="529096756" label="Gauradan Ritualist" category="71" did="1879095037" parentZoneId="1879095491" longitude="51.896442" latitude="-17.029472"/>
<marker id="529096757" label="Gauradan Forest-walker" category="71" did="1879095038" parentZoneId="1879095491" longitude="51.896442" latitude="-17.029472"/>
<marker id="529096758" label="Gauradan Far-seer" category="71" did="1879095039" parentZoneId="1879095491" longitude="51.896442" latitude="-17.029472"/>
<marker id="529096759" label="Ferocious Pack-leader" category="71" did="1879095043" parentZoneId="1879095491" longitude="51.87242" latitude="-17.160479"/>
<marker id="529096760" label="Snarling Forest-stalker" category="71" did="1879095044" parentZoneId="1879095491" longitude="51.87242" latitude="-17.160479"/>
<marker id="529096761" label="Gauradan Ritualist" category="71" did="1879095037" parentZoneId="1879095491" longitude="51.87242" latitude="-17.160479"/>
<marker id="529096762" label="Gauradan Forest-walker" category="71" did="1879095038" parentZoneId="1879095491" longitude="51.87242" latitude="-17.160479"/>
<marker id="529096763" label="Gauradan Far-seer" category="71" did="1879095039" parentZoneId="1879095491" longitude="51.87242" latitude="-17.160479"/>
<marker id="529096764" label="Ferocious Pack-leader" category="71" did="1879095043" parentZoneId="1879095491" longitude="51.820114" latitude="-17.106054"/>
<marker id="529096765" label="Snarling Forest-stalker" category="71" did="1879095044" parentZoneId="1879095491" longitude="51.820114" latitude="-17.106054"/>
<marker id="529096766" label="Gauradan Ritualist" category="71" did="1879095037" parentZoneId="1879095491" longitude="51.820114" latitude="-17.106054"/>
<marker id="529096767" label="Gauradan Forest-walker" category="71" did="1879095038" parentZoneId="1879095491" longitude="51.820114" latitude="-17.106054"/>
<marker id="529096768" label="Gauradan Far-seer" category="71" did="1879095039" parentZoneId="1879095491" longitude="51.820114" latitude="-17.106054"/>
<marker id="529096769" label="Ferocious Pack-leader" category="71" did="1879095043" parentZoneId="1879095491" longitude="51.74412" latitude="-17.06165"/>
<marker id="529096770" label="Snarling Forest-stalker" category="71" did="1879095044" parentZoneId="1879095491" longitude="51.74412" latitude="-17.06165"/>
<marker id="529096771" label="Gauradan Ritualist" category="71" did="1879095037" parentZoneId="1879095491" longitude="51.74412" latitude="-17.06165"/>
<marker id="529096772" label="Gauradan Forest-walker" category="71" did="1879095038" parentZoneId="1879095491" longitude="51.74412" latitude="-17.06165"/>
<marker id="529096773" label="Gauradan Far-seer" category="71" did="1879095039" parentZoneId="1879095491" longitude="51.74412" latitude="-17.06165"/>
<marker id="529096774" label="Ferocious Pack-leader" category="71" did="1879095043" parentZoneId="1879095491" longitude="51.884686" latitude="-17.323164"/>
<marker id="529096775" label="Snarling Forest-stalker" category="71" did="1879095044" parentZoneId="1879095491" longitude="51.884686" latitude="-17.323164"/>
<marker id="529096776" label="Gauradan Ritualist" category="71" did="1879095037" parentZoneId="1879095491" longitude="51.884686" latitude="-17.323164"/>
<marker id="529096777" label="Gauradan Forest-walker" category="71" did="1879095038" parentZoneId="1879095491" longitude="51.884686" latitude="-17.323164"/>
<marker id="529096778" label="Gauradan Far-seer" category="71" did="1879095039" parentZoneId="1879095491" longitude="51.884686" latitude="-17.323164"/>
<marker id="529096779" label="Ferocious Pack-leader" category="71" did="1879095043" parentZoneId="1879095491" longitude="52.03119" latitude="-17.203983"/>
<marker id="529096780" label="Snarling Forest-stalker" category="71" did="1879095044" parentZoneId="1879095491" longitude="52.03119" latitude="-17.203983"/>
<marker id="529096781" label="Gauradan Ritualist" category="71" did="1879095037" parentZoneId="1879095491" longitude="52.03119" latitude="-17.203983"/>
<marker id="529096782" label="Gauradan Forest-walker" category="71" did="1879095038" parentZoneId="1879095491" longitude="52.03119" latitude="-17.203983"/>
<marker id="529096783" label="Gauradan Far-seer" category="71" did="1879095039" parentZoneId="1879095491" longitude="52.03119" latitude="-17.203983"/>
<marker id="529096784" label="Ferocious Pack-leader" category="71" did="1879095043" parentZoneId="1879095491" longitude="52.036892" latitude="-17.228153"/>
<marker id="529096785" label="Snarling Forest-stalker" category="71" did="1879095044" parentZoneId="1879095491" longitude="52.036892" latitude="-17.228153"/>
<marker id="529096786" label="Gauradan Ritualist" category="71" did="1879095037" parentZoneId="1879095491" longitude="52.036892" latitude="-17.228153"/>
<marker id="529096787" label="Gauradan Forest-walker" category="71" did="1879095038" parentZoneId="1879095491" longitude="52.036892" latitude="-17.228153"/>
<marker id="529096788" label="Gauradan Far-seer" category="71" did="1879095039" parentZoneId="1879095491" longitude="52.036892" latitude="-17.228153"/>
<marker id="529096789" label="Ferocious Pack-leader" category="71" did="1879095043" parentZoneId="1879095491" longitude="52.020935" latitude="-17.08955"/>
<marker id="529096790" label="Snarling Forest-stalker" category="71" did="1879095044" parentZoneId="1879095491" longitude="52.020935" latitude="-17.08955"/>
<marker id="529096791" label="Gauradan Ritualist" category="71" did="1879095037" parentZoneId="1879095491" longitude="52.020935" latitude="-17.08955"/>
<marker id="529096792" label="Gauradan Forest-walker" category="71" did="1879095038" parentZoneId="1879095491" longitude="52.020935" latitude="-17.08955"/>
<marker id="529096793" label="Gauradan Far-seer" category="71" did="1879095039" parentZoneId="1879095491" longitude="52.020935" latitude="-17.08955"/>
<marker id="529096794" label="Ferocious Pack-leader" category="71" did="1879095043" parentZoneId="1879095491" longitude="51.806053" latitude="-17.233076"/>
<marker id="529096795" label="Snarling Forest-stalker" category="71" did="1879095044" parentZoneId="1879095491" longitude="51.806053" latitude="-17.233076"/>
<marker id="529096796" label="Gauradan Ritualist" category="71" did="1879095037" parentZoneId="1879095491" longitude="51.806053" latitude="-17.233076"/>
<marker id="529096797" label="Gauradan Forest-walker" category="71" did="1879095038" parentZoneId="1879095491" longitude="51.806053" latitude="-17.233076"/>
<marker id="529096798" label="Gauradan Far-seer" category="71" did="1879095039" parentZoneId="1879095491" longitude="51.806053" latitude="-17.233076"/>
<marker id="529096799" label="Ferocious Pack-leader" category="71" did="1879095043" parentZoneId="1879095491" longitude="51.680565" latitude="-17.10333"/>
<marker id="529096800" label="Snarling Forest-stalker" category="71" did="1879095044" parentZoneId="1879095491" longitude="51.680565" latitude="-17.10333"/>
<marker id="529096801" label="Gauradan Ritualist" category="71" did="1879095037" parentZoneId="1879095491" longitude="51.680565" latitude="-17.10333"/>
<marker id="529096802" label="Gauradan Forest-walker" category="71" did="1879095038" parentZoneId="1879095491" longitude="51.680565" latitude="-17.10333"/>
<marker id="529096803" label="Gauradan Far-seer" category="71" did="1879095039" parentZoneId="1879095491" longitude="51.680565" latitude="-17.10333"/>
<marker id="529096804" label="Ferocious Pack-leader" category="71" did="1879095043" parentZoneId="1879095491" longitude="51.697304" latitude="-17.044199"/>
<marker id="529096805" label="Snarling Forest-stalker" category="71" did="1879095044" parentZoneId="1879095491" longitude="51.697304" latitude="-17.044199"/>
<marker id="529096806" label="Gauradan Ritualist" category="71" did="1879095037" parentZoneId="1879095491" longitude="51.697304" latitude="-17.044199"/>
<marker id="529096807" label="Gauradan Forest-walker" category="71" did="1879095038" parentZoneId="1879095491" longitude="51.697304" latitude="-17.044199"/>
<marker id="529096808" label="Gauradan Far-seer" category="71" did="1879095039" parentZoneId="1879095491" longitude="51.697304" latitude="-17.044199"/>
<marker id="529096809" label="Ferocious Pack-leader" category="71" did="1879095043" parentZoneId="1879095491" longitude="51.945076" latitude="-17.303984"/>
<marker id="529096810" label="Snarling Forest-stalker" category="71" did="1879095044" parentZoneId="1879095491" longitude="51.945076" latitude="-17.303984"/>
<marker id="529096811" label="Gauradan Ritualist" category="71" did="1879095037" parentZoneId="1879095491" longitude="51.945076" latitude="-17.303984"/>
<marker id="529096812" label="Gauradan Forest-walker" category="71" did="1879095038" parentZoneId="1879095491" longitude="51.945076" latitude="-17.303984"/>
<marker id="529096813" label="Gauradan Far-seer" category="71" did="1879095039" parentZoneId="1879095491" longitude="51.945076" latitude="-17.303984"/>
<marker id="529096814" label="Ferocious Pack-leader" category="71" did="1879095043" parentZoneId="1879095491" longitude="51.84408" latitude="-17.308096"/>
<marker id="529096815" label="Snarling Forest-stalker" category="71" did="1879095044" parentZoneId="1879095491" longitude="51.84408" latitude="-17.308096"/>
<marker id="529096816" label="Gauradan Ritualist" category="71" did="1879095037" parentZoneId="1879095491" longitude="51.84408" latitude="-17.308096"/>
<marker id="529096817" label="Gauradan Forest-walker" category="71" did="1879095038" parentZoneId="1879095491" longitude="51.84408" latitude="-17.308096"/>
<marker id="529096818" label="Gauradan Far-seer" category="71" did="1879095039" parentZoneId="1879095491" longitude="51.84408" latitude="-17.308096"/>
<marker id="529096819" label="Ferocious Pack-leader" category="71" did="1879095043" parentZoneId="1879095491" longitude="51.90463" latitude="-17.469374"/>
<marker id="529096820" label="Snarling Forest-stalker" category="71" did="1879095044" parentZoneId="1879095491" longitude="51.90463" latitude="-17.469374"/>
<marker id="529096821" label="Gauradan Ritualist" category="71" did="1879095037" parentZoneId="1879095491" longitude="51.90463" latitude="-17.469374"/>
<marker id="529096822" label="Gauradan Forest-walker" category="71" did="1879095038" parentZoneId="1879095491" longitude="51.90463" latitude="-17.469374"/>
<marker id="529096823" label="Gauradan Far-seer" category="71" did="1879095039" parentZoneId="1879095491" longitude="51.90463" latitude="-17.469374"/>
<marker id="529096824" label="Ferocious Pack-leader" category="71" did="1879095043" parentZoneId="1879095491" longitude="51.876892" latitude="-17.451826"/>
<marker id="529096825" label="Snarling Forest-stalker" category="71" did="1879095044" parentZoneId="1879095491" longitude="51.876892" latitude="-17.451826"/>
<marker id="529096826" label="Gauradan Ritualist" category="71" did="1879095037" parentZoneId="1879095491" longitude="51.876892" latitude="-17.451826"/>
<marker id="529096827" label="Gauradan Forest-walker" category="71" did="1879095038" parentZoneId="1879095491" longitude="51.876892" latitude="-17.451826"/>
<marker id="529096828" label="Gauradan Far-seer" category="71" did="1879095039" parentZoneId="1879095491" longitude="51.876892" latitude="-17.451826"/>
<marker id="529096829" label="Ferocious Pack-leader" category="71" did="1879095043" parentZoneId="1879095491" longitude="51.923183" latitude="-17.388916"/>
<marker id="529096830" label="Snarling Forest-stalker" category="71" did="1879095044" parentZoneId="1879095491" longitude="51.923183" latitude="-17.388916"/>
<marker id="529096831" label="Gauradan Ritualist" category="71" did="1879095037" parentZoneId="1879095491" longitude="51.923183" latitude="-17.388916"/>
<marker id="529096832" label="Gauradan Forest-walker" category="71" did="1879095038" parentZoneId="1879095491" longitude="51.923183" latitude="-17.388916"/>
<marker id="529096833" label="Gauradan Far-seer" category="71" did="1879095039" parentZoneId="1879095491" longitude="51.923183" latitude="-17.388916"/>
<marker id="529096834" label="Ferocious Pack-leader" category="71" did="1879095043" parentZoneId="1879095491" longitude="51.66049" latitude="-17.207607"/>
<marker id="529096835" label="Snarling Forest-stalker" category="71" did="1879095044" parentZoneId="1879095491" longitude="51.66049" latitude="-17.207607"/>
<marker id="529096836" label="Gauradan Ritualist" category="71" did="1879095037" parentZoneId="1879095491" longitude="51.66049" latitude="-17.207607"/>
<marker id="529096837" label="Gauradan Forest-walker" category="71" did="1879095038" parentZoneId="1879095491" longitude="51.66049" latitude="-17.207607"/>
<marker id="529096838" label="Gauradan Far-seer" category="71" did="1879095039" parentZoneId="1879095491" longitude="51.66049" latitude="-17.207607"/>
<marker id="529137664" label="Nazgûl" category="71" did="1879079097" parentZoneId="1879048542" longitude="53.12072" latitude="-21.99662"/>
<marker id="529149953" label="Ancient Dwarf-chest" category="73" did="1879062579" parentZoneId="1879048493" longitude="53.178593" latitude="-19.399248"/>
<marker id="529149954" label="Door" category="100" did="1879063337" parentZoneId="1879048493" longitude="53.177715" latitude="-19.591444"/>
<marker id="529149955" label="Halmur Stoneshaper" category="70" did="1879048494" parentZoneId="1879048493" longitude="53.1792" latitude="-19.465937"/>
<marker id="529158144" label="Muildir" category="70" did="1879098757" parentZoneId="1879095490" longitude="53.206932" latitude="-16.648945"/>
<marker id="529158145" label="Glorenthol" category="70" did="1879112762" parentZoneId="1879095490" longitude="53.09373" latitude="-17.191278"/>
<marker id="529158147" label="Narmeleth" category="70" did="1879140449" parentZoneId="1879095490" longitude="53.348866" latitude="-16.679726"/>
<marker id="529158150" label="Townsperson" category="70" did="1879077008" parentZoneId="1879095490" longitude="53.22623" latitude="-16.669825"/>
<marker id="529158151" label="Door" category="100" did="1879079096" parentZoneId="1879095490" longitude="53.242107" latitude="-16.680683"/>
<marker id="529158152" label="Door" category="100" did="1879079096" parentZoneId="1879095490" longitude="53.091797" latitude="-17.146591"/>
<marker id="529158153" label="Glorfindel" category="70" did="1879140447" parentZoneId="1879095490" longitude="53.31699" latitude="-16.681005"/>
<marker id="529158154" label="Narmeleth" category="70" did="1879140449" parentZoneId="1879095490" longitude="53.092186" latitude="-17.25541"/>
<marker id="529158155" label="Door" category="100" did="1879063526" parentZoneId="1879095490" longitude="53.09414" latitude="-17.327509"/>
<marker id="529158156" label="Shortened Account" category="73" did="1879451848" parentZoneId="1879095490" longitude="53.116405" latitude="-17.273272"/>
<marker id="529158157" label="Door" category="100" did="1879083474" parentZoneId="1879095490" longitude="53.341816" latitude="-16.67957"/>
<marker id="529158158" label="Mordirith" category="70" did="1879094976" parentZoneId="1879095490" longitude="53.35283" latitude="-16.680555"/>
<marker id="529158159" label="Mordirith" category="70" did="1879094976" parentZoneId="1879095490" longitude="53.091816" latitude="-16.973574"/>
<marker id="529158160" label="Fallen Brazier" category="73" did="1879098752" parentZoneId="1879095490" longitude="53.00166" latitude="-17.095741"/>
<marker id="529158161" label="Narmeleth" category="70" did="1879094977" parentZoneId="1879095490" longitude="53.411835" latitude="-16.679003"/>
<marker id="529158162" label="Narmeleth" category="70" did="1879094977" parentZoneId="1879095490" longitude="53.092518" latitude="-16.368183"/>
<marker id="529158163" label="Narmeleth" category="70" did="1879094977" parentZoneId="1879095490" longitude="52.977497" latitude="-17.091124"/>
<marker id="529158164" label="Narmeleth" category="70" did="1879094977" parentZoneId="1879095490" longitude="53.093964" latitude="-17.27581"/>
<marker id="529158165" label="Urn" category="73" did="1879098753" parentZoneId="1879095490" longitude="53.07865" latitude="-17.11294"/>
<marker id="529158166" label="Sara Oakheart" category="70" did="1879094978" parentZoneId="1879095490" longitude="52.926132" latitude="-16.681396"/>
<marker id="529158167" label="Sara Oakheart" category="70" did="1879094978" parentZoneId="1879095490" longitude="53.069393" latitude="-17.101093"/>
<marker id="529158168" label="Brazier" category="73" did="1879098754" parentZoneId="1879095490" longitude="53.0851" latitude="-16.395966"/>
<marker id="529158169" label="Brazier" category="70" did="1879099010" parentZoneId="1879095490" longitude="53.00004" latitude="-17.09207"/>
<marker id="529158170" label="Fallen Brazier" category="73" did="1879098755" parentZoneId="1879095490" longitude="53.09953" latitude="-16.93085"/>
<marker id="529158171" label="Urn" category="73" did="1879098756" parentZoneId="1879095490" longitude="53.411133" latitude="-16.684101"/>
<marker id="529158173" label="Sithad Blade-beak" category="71" did="1879098758" parentZoneId="1879095490" longitude="52.99326" latitude="-17.076689"/>
<marker id="529158174" label="Sithad Blade-beak" category="71" did="1879098758" parentZoneId="1879095490" longitude="52.99623" latitude="-16.664404"/>
<marker id="529158175" label="Sithad Blade-beak" category="71" did="1879098758" parentZoneId="1879095490" longitude="52.973946" latitude="-17.112295"/>
<marker id="529158176" label="Sithad Blade-beak" category="71" did="1879098758" parentZoneId="1879095490" longitude="53.004726" latitude="-16.732685"/>
<marker id="529158177" label="Sithad root-crawler" category="71" did="1879098759" parentZoneId="1879095490" longitude="53.408787" latitude="-16.67545"/>
<marker id="529158178" label="Sithad root-crawler" category="71" did="1879098759" parentZoneId="1879095490" longitude="53.12199" latitude="-17.212255"/>
<marker id="529158179" label="Sithad root-crawler" category="71" did="1879098759" parentZoneId="1879095490" longitude="53.068047" latitude="-17.21582"/>
<marker id="529158180" label="Sithad root-crawler" category="71" did="1879098759" parentZoneId="1879095490" longitude="53.091152" latitude="-17.06206"/>
<marker id="529158181" label="Sithad root-crawler" category="71" did="1879098759" parentZoneId="1879095490" longitude="53.103027" latitude="-16.371601"/>
<marker id="529158182" label="Sithad root-crawler" category="71" did="1879098759" parentZoneId="1879095490" longitude="53.072247" latitude="-16.888632"/>
<marker id="529158183" label="Sithad root-crawler" category="71" did="1879098759" parentZoneId="1879095490" longitude="53.111973" latitude="-17.098536"/>
<marker id="529158184" label="Sithad root-crawler" category="71" did="1879098759" parentZoneId="1879095490" longitude="53.091034" latitude="-16.40211"/>
<marker id="529158185" label="Sithad root-crawler" category="71" did="1879098759" parentZoneId="1879095490" longitude="53.09424" latitude="-17.011034"/>
<marker id="529158186" label="Sithad root-crawler" category="71" did="1879098759" parentZoneId="1879095490" longitude="53.04621" latitude="-17.0962"/>
<marker id="529158187" label="Sithad root-crawler" category="71" did="1879098759" parentZoneId="1879095490" longitude="53.075897" latitude="-16.36786"/>
<marker id="529158188" label="Sithad root-crawler" category="71" did="1879098759" parentZoneId="1879095490" longitude="53.115017" latitude="-16.978193"/>
<marker id="529158190" label="Múra" category="71" did="1879082079" parentZoneId="1879095490" longitude="53.08617" latitude="-16.973173"/>
<marker id="529158192" label="Sálvakh" category="71" did="1879082295" parentZoneId="1879095490" longitude="53.098007" latitude="-16.972832"/>
<marker id="529158193" label="Door" category="100" did="1879079096" parentZoneId="1879095490" longitude="53.040234" latitude="-17.096914"/>
<marker id="529158195" label="Door" category="100" did="1879079096" parentZoneId="1879095490" longitude="53.092712" latitude="-17.046337"/>
<marker id="529158196" label="Door" category="100" did="1879079096" parentZoneId="1879095490" longitude="52.94045" latitude="-16.681631"/>
<marker id="529158197" label="Door" category="100" did="1879079096" parentZoneId="1879095490" longitude="53.091736" latitude="-16.531015"/>
<marker id="529158199" label="Door" category="100" did="1879079096" parentZoneId="1879095490" longitude="53.093243" latitude="-16.832432"/>
<marker id="529158200" label="Door" category="100" did="1879079096" parentZoneId="1879095490" longitude="52.84332" latitude="-16.681963"/>
<marker id="529158201" label="Door" category="100" did="1879079096" parentZoneId="1879095490" longitude="53.09158" latitude="-16.431475"/>
<marker id="529158202" label="Mordrambor" category="70" did="1879094972" parentZoneId="1879095490" longitude="53.307674" latitude="-16.679062"/>
<marker id="529158203" label="Books" category="73" did="1879098750" parentZoneId="1879095490" longitude="52.973183" latitude="-16.695936"/>
<marker id="529158204" label="Laerdan" category="70" did="1879094975" parentZoneId="1879095490" longitude="52.991093" latitude="-17.099892"/>
<marker id="529158205" label="Laerdan" category="70" did="1879094975" parentZoneId="1879095490" longitude="53.09416" latitude="-17.282724"/>
<marker id="529158206" label="Laerdan" category="70" did="1879094975" parentZoneId="1879095490" longitude="52.976093" latitude="-16.682402"/>
<marker id="529158207" label="Laerdan" category="70" did="1879094975" parentZoneId="1879095490" longitude="53.05631" latitude="-17.096016"/>
<marker id="529158208" label="Laerdan" category="70" did="1879094975" parentZoneId="1879095490" longitude="53.098965" latitude="-16.379707"/>
<marker id="529158209" label="Brazier" category="73" did="1879098751" parentZoneId="1879095490" longitude="53.10709" latitude="-17.212431"/>
<marker id="529158215" label="Townsperson" category="70" did="1879077008" parentZoneId="1879095490" longitude="53.22789" latitude="-16.689795"/>
<marker id="529158217" label="Townsperson" category="70" did="1879077008" parentZoneId="1879095490" longitude="53.086132" latitude="-17.168613"/>
<marker id="529158219" label="Narmeleth" category="70" did="1879146565" parentZoneId="1879095490" longitude="53.372227" latitude="-16.674952"/>
<marker id="529158221" label="Townsperson" category="70" did="1879077007" parentZoneId="1879095490" longitude="53.10045" latitude="-17.167763"/>
<marker id="529158222" label="Townsperson" category="70" did="1879077008" parentZoneId="1879095490" longitude="53.228806" latitude="-16.669619"/>
<marker id="529158223" label="Townsperson" category="70" did="1879077008" parentZoneId="1879095490" longitude="53.23047" latitude="-16.689589"/>
<marker id="529158226" label="Townsperson" category="70" did="1879077008" parentZoneId="1879095490" longitude="53.0858" latitude="-17.165878"/>
<marker id="529158232" label="Townsperson" category="70" did="1879077007" parentZoneId="1879095490" longitude="53.100117" latitude="-17.16503"/>
<marker id="529162240" label="Postman Took" category="70" did="1879048498" parentZoneId="1879048497" longitude="53.204216" latitude="-17.214844"/>
<marker id="529162241" label="Townsperson" category="70" did="1879077014" parentZoneId="1879048497" longitude="53.19711" latitude="-17.200537"/>
<marker id="529162242" label="Townsperson" category="70" did="1879077014" parentZoneId="1879048497" longitude="53.19744" latitude="-17.214628"/>
<marker id="529162243" label="Townsperson" category="70" did="1879077015" parentZoneId="1879048497" longitude="53.232635" latitude="-17.196493"/>
<marker id="529162244" label="Townsperson" category="70" did="1879077015" parentZoneId="1879048497" longitude="53.19785" latitude="-17.204815"/>
<marker id="529162245" label="Townsperson" category="70" did="1879077015" parentZoneId="1879048497" longitude="53.213436" latitude="-17.215918"/>
<marker id="529162247" label="Door" category="100" did="1879063411" parentZoneId="1879048497" longitude="53.204998" latitude="-17.142422"/>
<marker id="529170435" label="Door" category="100" did="1879084311" parentZoneId="1879048501" longitude="53.1082" latitude="-15.554619"/>
<marker id="529170437" label="Hearty Meal" category="73" did="1879343179" parentZoneId="1879048501" longitude="53.14459" latitude="-15.536709"/>
<marker id="529170438" label="Hearty Meal" category="73" did="1879343179" parentZoneId="1879048501" longitude="53.15578" latitude="-15.536777"/>
<marker id="529170442" label="Tom Bombadil" category="70" did="1879048502" parentZoneId="1879048501" longitude="53.11275" latitude="-15.555049"/>
<marker id="529170447" label="Goldberry" category="70" did="1879320533" parentZoneId="1879048501" longitude="53.16705" latitude="-15.560722"/>
<marker id="529174535" label="Cage Door" category="100" did="1879077836" parentZoneId="1879413346" longitude="52.839256" latitude="-14.390625"/>
<marker id="529174536" label="Cage Door" category="100" did="1879077836" parentZoneId="1879413346" longitude="53.339256" latitude="-14.390625"/>
<marker id="529174543" label="Wildwood Skirmisher" category="71" did="1879399149" parentZoneId="1879413346" longitude="53.350037" latitude="-14.513984"/>
<marker id="529174544" label="Writhenset Creeper" category="71" did="1879399151" parentZoneId="1879413347" longitude="53.253613" latitude="-14.719648"/>
<marker id="529174545" label="Writhenset Brood-watcher" category="71" did="1879399150" parentZoneId="1879413347" longitude="53.253613" latitude="-14.719648"/>
<marker id="529174546" label="Writhenset Lurker" category="71" did="1879399157" parentZoneId="1879413347" longitude="53.253613" latitude="-14.719648"/>
<marker id="529174547" label="Wildwood Captain" category="71" did="1879399156" parentZoneId="1879413346" longitude="53.36004" latitude="-14.513984"/>
<marker id="529174548" label="Tarkrîp Poacher" category="71" did="1879399159" parentZoneId="1879413346" longitude="53.330036" latitude="-14.513984"/>
<marker id="529174549" label="Wildwood Gang-leader" category="71" did="1879399154" parentZoneId="1879413346" longitude="53.350037" latitude="-14.513984"/>
<marker id="529174550" label="Half-orc Poacher" category="71" did="1879399165" parentZoneId="1879413346" longitude="53.34004" latitude="-14.513984"/>
<marker id="529174551" label="Wildwood Scout" category="71" did="1879399164" parentZoneId="1879413346" longitude="53.350037" latitude="-14.513984"/>
<marker id="529174552" label="Half-orc Sniper" category="71" did="1879399173" parentZoneId="1879413346" longitude="53.34004" latitude="-14.513984"/>
<marker id="529174555" label="Tarkrîp Sniper" category="71" did="1879399182" parentZoneId="1879413346" longitude="53.330036" latitude="-14.513984"/>
<marker id="529174556" label="Wildwood Scout" category="71" did="1879399176" parentZoneId="1879413346" longitude="53.36004" latitude="-14.513984"/>
<marker id="529174557" label="Half-orc Captain" category="71" did="1879399188" parentZoneId="1879413346" longitude="53.34004" latitude="-14.513984"/>
<marker id="529174558" label="Tarkrîp Gang-leader" category="71" did="1879399184" parentZoneId="1879413346" longitude="53.330036" latitude="-14.513984"/>
<marker id="529174559" label="Wildwood Poacher" category="71" did="1879399186" parentZoneId="1879413346" longitude="53.36004" latitude="-14.513984"/>
<marker id="529174575" label="Hardened Tomb-robber" category="71" did="1879413451" parentZoneId="1879413348" longitude="52.466816" latitude="-14.723251"/>
<marker id="529174576" label="Hardened Tomb-robber" category="71" did="1879413451" parentZoneId="1879413348" longitude="52.349724" latitude="-14.7873535"/>
<marker id="529174577" label="Hardened Tomb-robber" category="71" did="1879413451" parentZoneId="1879413348" longitude="52.385544" latitude="-14.741465"/>
<marker id="529174578" label="Hardened Tomb-robber" category="71" did="1879413451" parentZoneId="1879413348" longitude="52.47201" latitude="-14.790634"/>
<marker id="529174579" label="Hardened Tomb-robber" category="71" did="1879413451" parentZoneId="1879413348" longitude="52.489746" latitude="-14.812715"/>
<marker id="529174580" label="Hardened Tomb-robber" category="71" did="1879413451" parentZoneId="1879413348" longitude="52.35697" latitude="-14.761054"/>
<marker id="529174581" label="Hardened Tomb-robber" category="71" did="1879413451" parentZoneId="1879413348" longitude="52.418552" latitude="-14.826025"/>
<marker id="529174637" label="Mission Reward" category="72" did="1879415428" parentZoneId="1879413346" longitude="53.438435" latitude="-15.105087"/>
<marker id="529174641" label="Cage Door" category="100" did="1879077836" parentZoneId="1879413346" longitude="53.2533" latitude="-14.893633"/>
<marker id="529174642" label="Cage Door" category="100" did="1879077836" parentZoneId="1879413346" longitude="53.248848" latitude="-15.158632"/>
<marker id="529174643" label="Cage Door" category="100" did="1879077836" parentZoneId="1879413346" longitude="53.453163" latitude="-15.138203"/>
<marker id="529174664" label="Ruffian Robber" category="71" did="1879414421" parentZoneId="1879413346" longitude="53.249355" latitude="-14.943252"/>
<marker id="529174665" label="Ruffian Robber" category="71" did="1879414421" parentZoneId="1879413346" longitude="53.34625" latitude="-14.719218"/>
<marker id="529174666" label="Ruffian Robber" category="71" did="1879414421" parentZoneId="1879413346" longitude="53.35908" latitude="-15.114404"/>
<marker id="529174667" label="Ruffian Robber" category="71" did="1879414421" parentZoneId="1879413346" longitude="53.385994" latitude="-15.095038"/>
<marker id="529174668" label="Ruffian Robber" category="71" did="1879414421" parentZoneId="1879413346" longitude="53.324314" latitude="-15.060946"/>
<marker id="529174669" label="Ruffian Robber" category="71" did="1879414421" parentZoneId="1879413346" longitude="53.252773" latitude="-15.10625"/>
<marker id="529174670" label="Ruffian Robber" category="71" did="1879414421" parentZoneId="1879413346" longitude="53.313435" latitude="-15.199892"/>
<marker id="529174671" label="Ruffian Robber" category="71" did="1879414421" parentZoneId="1879413346" longitude="53.35738" latitude="-15.197724"/>
<marker id="529174672" label="Ruffian Robber" category="71" did="1879414421" parentZoneId="1879413346" longitude="53.330368" latitude="-14.810342"/>
<marker id="529174673" label="Ruffian Robber" category="71" did="1879414421" parentZoneId="1879413346" longitude="53.27369" latitude="-14.790498"/>
<marker id="529174676" label="Ruffian Cutthroat" category="71" did="1879414390" parentZoneId="1879413346" longitude="53.347794" latitude="-14.631152"/>
<marker id="529174677" label="Ruffian Cutthroat" category="71" did="1879414390" parentZoneId="1879413346" longitude="53.361385" latitude="-14.6627245"/>
<marker id="529174678" label="Ruffian Cutthroat" category="71" did="1879414390" parentZoneId="1879413346" longitude="53.3474" latitude="-14.780058"/>
<marker id="529174679" label="Ruffian Cutthroat" category="71" did="1879414390" parentZoneId="1879413346" longitude="53.327305" latitude="-14.780058"/>
<marker id="529174680" label="Ruffian Cutthroat" category="71" did="1879414390" parentZoneId="1879413346" longitude="53.430996" latitude="-14.781133"/>
<marker id="529174681" label="Ruffian Cutthroat" category="71" did="1879414390" parentZoneId="1879413346" longitude="53.425957" latitude="-14.802871"/>
<marker id="529174682" label="Ruffian Cutthroat" category="71" did="1879414390" parentZoneId="1879413346" longitude="53.45867" latitude="-14.800468"/>
<marker id="529174683" label="Ruffian Cutthroat" category="71" did="1879414390" parentZoneId="1879413346" longitude="53.24381" latitude="-14.790859"/>
<marker id="529174684" label="Ruffian Cutthroat" category="71" did="1879414390" parentZoneId="1879413346" longitude="53.240215" latitude="-14.867158"/>
<marker id="529174685" label="Ruffian Cutthroat" category="71" did="1879414390" parentZoneId="1879413346" longitude="53.241055" latitude="-14.988047"/>
<marker id="529174686" label="Ruffian Cutthroat" category="71" did="1879414390" parentZoneId="1879413346" longitude="53.257988" latitude="-14.990019"/>
<marker id="529174687" label="Ruffian Cutthroat" category="71" did="1879414390" parentZoneId="1879413346" longitude="53.24217" latitude="-15.112773"/>
<marker id="529174688" label="Ruffian Cutthroat" category="71" did="1879414390" parentZoneId="1879413346" longitude="53.416523" latitude="-15.12331"/>
<marker id="529174689" label="Ruffian Cutthroat" category="71" did="1879414390" parentZoneId="1879413346" longitude="53.432693" latitude="-15.106563"/>
<marker id="529174690" label="Ruffian Cutthroat" category="71" did="1879414390" parentZoneId="1879413346" longitude="53.28281" latitude="-15.080664"/>
<marker id="529174691" label="Ruffian Cutthroat" category="71" did="1879414390" parentZoneId="1879413346" longitude="53.293533" latitude="-15.100381"/>
<marker id="529174692" label="Ruffian Cutthroat" category="71" did="1879414390" parentZoneId="1879413346" longitude="53.271873" latitude="-15.224267"/>
<marker id="529174693" label="Ruffian Cutthroat" category="71" did="1879414390" parentZoneId="1879413346" longitude="53.264217" latitude="-15.214218"/>
<marker id="529174694" label="Ruffian Cutthroat" category="71" did="1879414390" parentZoneId="1879413346" longitude="53.476074" latitude="-15.181328"/>
<marker id="529174695" label="Ruffian Cutthroat" category="71" did="1879414390" parentZoneId="1879413346" longitude="53.43412" latitude="-15.092636"/>
<marker id="529174696" label="Ruffian Cutthroat" category="71" did="1879414390" parentZoneId="1879413346" longitude="53.461014" latitude="-15.103906"/>
<marker id="529174700" label="Tarkríp Brute" category="71" did="1879414405" parentZoneId="1879413346" longitude="52.843357" latitude="-14.9508295"/>
<marker id="529174701" label="Tarkríp Brute" category="71" did="1879414405" parentZoneId="1879413346" longitude="52.832634" latitude="-14.52997"/>
<marker id="529174702" label="Tarkríp Brute" category="71" did="1879414405" parentZoneId="1879413346" longitude="52.861015" latitude="-14.540791"/>
<marker id="529174703" label="Tarkríp Brute" category="71" did="1879414405" parentZoneId="1879413346" longitude="52.853554" latitude="-14.648926"/>
<marker id="529174704" label="Tarkríp Brute" category="71" did="1879414405" parentZoneId="1879413346" longitude="52.889336" latitude="-14.79164"/>
<marker id="529174705" label="Tarkríp Brute" category="71" did="1879414405" parentZoneId="1879413346" longitude="52.803825" latitude="-14.799052"/>
<marker id="529174706" label="Tarkríp Brute" category="71" did="1879414405" parentZoneId="1879413346" longitude="52.80795" latitude="-14.810469"/>
<marker id="529174707" label="Tarkríp Brute" category="71" did="1879414405" parentZoneId="1879413346" longitude="52.856247" latitude="-14.839101"/>
<marker id="529174708" label="Tarkríp Brute" category="71" did="1879414405" parentZoneId="1879413346" longitude="52.840683" latitude="-14.844727"/>
<marker id="529174709" label="Tarkríp Brute" category="71" did="1879414405" parentZoneId="1879413346" longitude="53.05713" latitude="-15.120751"/>
<marker id="529174710" label="Tarkríp Brute" category="71" did="1879414405" parentZoneId="1879413346" longitude="53.041286" latitude="-15.120898"/>
<marker id="529174711" label="Tarkríp Brute" category="71" did="1879414405" parentZoneId="1879413346" longitude="52.93775" latitude="-15.068242"/>
<marker id="529174712" label="Tarkríp Brute" category="71" did="1879414405" parentZoneId="1879413346" longitude="52.94033" latitude="-15.03251"/>
<marker id="529174713" label="Mission Reward" category="72" did="1879415428" parentZoneId="1879413346" longitude="52.849392" latitude="-14.774472"/>
<marker id="529174714" label="Tarkríp Gang-leader" category="71" did="1879414413" parentZoneId="1879413346" longitude="52.887733" latitude="-15.058134"/>
<marker id="529174715" label="Tarkríp Gang-leader" category="71" did="1879414413" parentZoneId="1879413346" longitude="53.03537" latitude="-15.057079"/>
<marker id="529174716" label="Tarkríp Gang-leader" category="71" did="1879414413" parentZoneId="1879413346" longitude="52.999863" latitude="-15.048476"/>
<marker id="529174717" label="Tarkríp Gang-leader" category="71" did="1879414413" parentZoneId="1879413346" longitude="53.04414" latitude="-15.140722"/>
<marker id="529174718" label="Tarkríp Gang-leader" category="71" did="1879414413" parentZoneId="1879413346" longitude="52.845078" latitude="-14.741396"/>
<marker id="529174719" label="Tarkríp Gang-leader" category="71" did="1879414413" parentZoneId="1879413346" longitude="52.84951" latitude="-14.783183"/>
<marker id="529174720" label="Tarkríp Gang-leader" category="71" did="1879414413" parentZoneId="1879413346" longitude="52.956875" latitude="-14.782089"/>
<marker id="529174721" label="Tarkríp Gang-leader" category="71" did="1879414413" parentZoneId="1879413346" longitude="52.708847" latitude="-14.790312"/>
<marker id="529174722" label="Tarkríp Gang-leader" category="71" did="1879414413" parentZoneId="1879413346" longitude="52.85783" latitude="-15.017489"/>
<marker id="529174764" label="Tarkríp Reaver" category="71" did="1879414429" parentZoneId="1879413346" longitude="52.946484" latitude="-14.774716"/>
<marker id="529174765" label="Tarkríp Reaver" category="71" did="1879414429" parentZoneId="1879413346" longitude="52.91795" latitude="-14.824141"/>
<marker id="529174766" label="Tarkríp Reaver" category="71" did="1879414429" parentZoneId="1879413346" longitude="52.73" latitude="-14.785039"/>
<marker id="529174767" label="Tarkríp Reaver" category="71" did="1879414429" parentZoneId="1879413346" longitude="52.86121" latitude="-14.910224"/>
<marker id="529174768" label="Tarkríp Reaver" category="71" did="1879414429" parentZoneId="1879413346" longitude="52.839157" latitude="-14.936611"/>
<marker id="529174769" label="Tarkríp Reaver" category="71" did="1879414429" parentZoneId="1879413346" longitude="52.84086" latitude="-15.058134"/>
<marker id="529174770" label="Tarkríp Reaver" category="71" did="1879414429" parentZoneId="1879413346" longitude="52.84613" latitude="-15.07459"/>
<marker id="529174771" label="Tarkríp Reaver" category="71" did="1879414429" parentZoneId="1879413346" longitude="52.898438" latitude="-14.992324"/>
<marker id="529174772" label="Tarkríp Reaver" category="71" did="1879414429" parentZoneId="1879413346" longitude="53.02701" latitude="-14.988848"/>
<marker id="529174773" label="Tarkríp Reaver" category="71" did="1879414429" parentZoneId="1879413346" longitude="52.977497" latitude="-14.991045"/>
<marker id="529174774" label="Tarkríp Reaver" category="71" did="1879414429" parentZoneId="1879413346" longitude="52.997734" latitude="-14.968838"/>
<marker id="529174775" label="Tarkríp Reaver" category="71" did="1879414429" parentZoneId="1879413346" longitude="52.962578" latitude="-15.043086"/>
<marker id="529174776" label="Tarkríp Reaver" category="71" did="1879414429" parentZoneId="1879413346" longitude="53.040215" latitude="-15.0140915"/>
<marker id="529174777" label="Tarkríp Reaver" category="71" did="1879414429" parentZoneId="1879413346" longitude="53.004803" latitude="-15.096874"/>
<marker id="529174778" label="Tarkríp Reaver" category="71" did="1879414429" parentZoneId="1879413346" longitude="53.051777" latitude="-15.155703"/>
<marker id="529174779" label="Tarkríp Reaver" category="71" did="1879414429" parentZoneId="1879413346" longitude="53.05855" latitude="-15.194443"/>
<marker id="529174780" label="Tarkríp Reaver" category="71" did="1879414429" parentZoneId="1879413346" longitude="53.10279" latitude="-15.200664"/>
<marker id="529174781" label="Tarkríp Reaver" category="71" did="1879414429" parentZoneId="1879413346" longitude="53.145584" latitude="-15.194258"/>
<marker id="529174782" label="Tarkríp Reaver" category="71" did="1879414429" parentZoneId="1879413346" longitude="52.84959" latitude="-14.558125"/>
<marker id="529174783" label="Tarkríp Reaver" category="71" did="1879414429" parentZoneId="1879413346" longitude="53.154785" latitude="-15.16582"/>
<marker id="529174784" label="Tarkríp Reaver" category="71" did="1879414429" parentZoneId="1879413346" longitude="52.85873" latitude="-14.675732"/>
<marker id="529174785" label="Tarkríp Reaver" category="71" did="1879414429" parentZoneId="1879413346" longitude="52.83662" latitude="-14.718867"/>
<marker id="529174786" label="Tarkríp Reaver" category="71" did="1879414429" parentZoneId="1879413346" longitude="52.761894" latitude="-14.804472"/>
<marker id="529174787" label="Tarkríp Reaver" category="71" did="1879414429" parentZoneId="1879413346" longitude="52.954258" latitude="-14.82041"/>
<marker id="529174788" label="Mission Reward" category="72" did="1879415428" parentZoneId="1879413347" longitude="53.072323" latitude="-15.222138"/>
<marker id="529174790" label="Writhenset Lurker" category="71" did="1879414414" parentZoneId="1879413347" longitude="53.04119" latitude="-14.814795"/>
<marker id="529174791" label="Writhenset Lurker" category="71" did="1879414414" parentZoneId="1879413347" longitude="53.05668" latitude="-14.775537"/>
<marker id="529174792" label="Writhenset Lurker" category="71" did="1879414414" parentZoneId="1879413347" longitude="53.350956" latitude="-14.612294"/>
<marker id="529174793" label="Writhenset Lurker" category="71" did="1879414414" parentZoneId="1879413347" longitude="53.14914" latitude="-14.807959"/>
<marker id="529174794" label="Writhenset Lurker" category="71" did="1879414414" parentZoneId="1879413347" longitude="53.35914" latitude="-14.431924"/>
<marker id="529174795" label="Writhenset Lurker" category="71" did="1879414414" parentZoneId="1879413347" longitude="53.29076" latitude="-14.349902"/>
<marker id="529174796" label="Writhenset Lurker" category="71" did="1879414414" parentZoneId="1879413347" longitude="53.11449" latitude="-15.281161"/>
<marker id="529174797" label="Writhenset Lurker" category="71" did="1879414414" parentZoneId="1879413347" longitude="53.054707" latitude="-15.231386"/>
<marker id="529174798" label="Writhenset Lurker" category="71" did="1879414414" parentZoneId="1879413347" longitude="53.240253" latitude="-15.093691"/>
<marker id="529174799" label="Writhenset Lurker" category="71" did="1879414414" parentZoneId="1879413347" longitude="53.27238" latitude="-14.901513"/>
<marker id="529174800" label="Writhenset Lurker" category="71" did="1879414414" parentZoneId="1879413347" longitude="53.195915" latitude="-14.698134"/>
<marker id="529174801" label="Writhenset Lurker" category="71" did="1879414414" parentZoneId="1879413347" longitude="53.196346" latitude="-15.257714"/>
<marker id="529174802" label="Writhenset Lurker" category="71" did="1879414414" parentZoneId="1879413347" longitude="53.35826" latitude="-14.711269"/>
<marker id="529174803" label="Writhenset Lurker" category="71" did="1879414414" parentZoneId="1879413347" longitude="53.466816" latitude="-14.790889"/>
<marker id="529174804" label="Writhenset Lurker" category="71" did="1879414414" parentZoneId="1879413347" longitude="53.230583" latitude="-15.317685"/>
<marker id="529174805" label="Writhenset Lurker" category="71" did="1879414414" parentZoneId="1879413347" longitude="53.42115" latitude="-14.824775"/>
<marker id="529174806" label="Writhenset Lurker" category="71" did="1879414414" parentZoneId="1879413347" longitude="53.260918" latitude="-14.243828"/>
<marker id="529174807" label="Writhenset Creeper" category="71" did="1879414410" parentZoneId="1879413347" longitude="53.08818" latitude="-14.80414"/>
<marker id="529174808" label="Writhenset Creeper" category="71" did="1879414410" parentZoneId="1879413347" longitude="53.33121" latitude="-14.5289545"/>
<marker id="529174809" label="Writhenset Creeper" category="71" did="1879414410" parentZoneId="1879413347" longitude="53.14289" latitude="-14.707265"/>
<marker id="529174810" label="Writhenset Creeper" category="71" did="1879414410" parentZoneId="1879413347" longitude="53.296856" latitude="-14.389209"/>
<marker id="529174811" label="Writhenset Creeper" category="71" did="1879414410" parentZoneId="1879413347" longitude="53.347305" latitude="-14.376171"/>
<marker id="529174812" label="Writhenset Creeper" category="71" did="1879414410" parentZoneId="1879413347" longitude="53.231934" latitude="-15.180614"/>
<marker id="529174813" label="Writhenset Creeper" category="71" did="1879414410" parentZoneId="1879413347" longitude="53.055157" latitude="-15.196377"/>
<marker id="529174814" label="Writhenset Creeper" category="71" did="1879414410" parentZoneId="1879413347" longitude="53.28082" latitude="-15.012793"/>
<marker id="529174815" label="Writhenset Creeper" category="71" did="1879414410" parentZoneId="1879413347" longitude="53.228867" latitude="-14.871972"/>
<marker id="529174816" label="Writhenset Creeper" category="71" did="1879414410" parentZoneId="1879413347" longitude="53.10793" latitude="-15.34499"/>
<marker id="529174817" label="Writhenset Creeper" category="71" did="1879414410" parentZoneId="1879413347" longitude="53.330723" latitude="-14.693915"/>
<marker id="529174818" label="Writhenset Creeper" category="71" did="1879414410" parentZoneId="1879413347" longitude="53.344296" latitude="-14.782568"/>
<marker id="529174819" label="Writhenset Creeper" category="71" did="1879414410" parentZoneId="1879413347" longitude="53.456833" latitude="-14.816806"/>
<marker id="529174820" label="Writhenset Creeper" category="71" did="1879414410" parentZoneId="1879413347" longitude="53.18328" latitude="-15.367089"/>
<marker id="529174821" label="Writhenset Creeper" category="71" did="1879414410" parentZoneId="1879413347" longitude="53.335136" latitude="-14.252431"/>
<marker id="529174822" label="Writhenset Creeper" category="71" did="1879414410" parentZoneId="1879413347" longitude="53.42299" latitude="-14.800839"/>
<marker id="529174823" label="Writhenset Creeper" category="71" did="1879414410" parentZoneId="1879413347" longitude="53.01537" latitude="-14.796348"/>
<marker id="529174851" label="Haudh Eglan" category="74" did="1879413344" parentZoneId="1879413348" longitude="52.426132" latitude="-14.787949"/>
<marker id="529174852" label="Addy Rushtuft" category="71" did="1879413501" parentZoneId="1879413348" longitude="52.424374" latitude="-14.773613"/>
<marker id="529174853" label="Nye Crowfoot" category="71" did="1879413494" parentZoneId="1879413348" longitude="52.43168" latitude="-14.774053"/>
<marker id="529174854" label="Ceremonial Coffer" category="73" did="1879413472" parentZoneId="1879413348" longitude="52.449883" latitude="-14.787559"/>
<marker id="529174856" label="Enid Nettlesting" category="70" did="1879413434" parentZoneId="1879413346" longitude="52.725098" latitude="-14.781875"/>
<marker id="529174857" label="Writhenset Foreman" category="71" did="1879413481" parentZoneId="1879413346" longitude="53.045155" latitude="-15.049248"/>
<marker id="529174858" label="Writhenset Overseer" category="71" did="1879413469" parentZoneId="1879413346" longitude="53.506542" latitude="-14.841367"/>
<marker id="529174859" label="Support Beam" category="73" did="1879413455" parentZoneId="1879413346" longitude="53.39582" latitude="-14.48209"/>
<marker id="529174860" label="Support Beam" category="73" did="1879413455" parentZoneId="1879413346" longitude="53.39736" latitude="-14.699648"/>
<marker id="529174861" label="Support Beam" category="73" did="1879413455" parentZoneId="1879413346" longitude="53.3091" latitude="-14.699648"/>
<marker id="529174862" label="Support Beam" category="73" did="1879413455" parentZoneId="1879413346" longitude="53.485798" latitude="-14.869346"/>
<marker id="529174863" label="Support Beam" category="73" did="1879413455" parentZoneId="1879413346" longitude="53.205036" latitude="-14.788164"/>
<marker id="529174864" label="Support Beam" category="73" did="1879413455" parentZoneId="1879413346" longitude="53.295975" latitude="-14.896894"/>
<marker id="529174865" label="Support Beam" category="73" did="1879413455" parentZoneId="1879413346" longitude="53.202927" latitude="-15.029297"/>
<marker id="529174866" label="Support Beam" category="73" did="1879413455" parentZoneId="1879413346" longitude="53.32738" latitude="-15.126855"/>
<marker id="529174867" label="Support Beam" category="73" did="1879413455" parentZoneId="1879413346" longitude="53.074997" latitude="-15.030029"/>
<marker id="529174868" label="Support Beam" category="73" did="1879413455" parentZoneId="1879413346" longitude="52.997753" latitude="-14.979736"/>
<marker id="529174869" label="Support Beam" category="73" did="1879413455" parentZoneId="1879413346" longitude="52.809998" latitude="-14.896894"/>
<marker id="529174870" label="Support Beam" category="73" did="1879413455" parentZoneId="1879413346" longitude="52.74965" latitude="-14.75123"/>
<marker id="529174871" label="Support Beam" category="73" did="1879413455" parentZoneId="1879413346" longitude="52.985798" latitude="-14.869346"/>
<marker id="529174872" label="Support Beam" category="73" did="1879413455" parentZoneId="1879413346" longitude="52.890896" latitude="-14.700351"/>
<marker id="529174878" label="Rubble" category="73" did="1879413499" parentZoneId="1879413346" longitude="52.70996" latitude="-14.812353"/>
<marker id="529174879" label="Rubble" category="73" did="1879413499" parentZoneId="1879413346" longitude="52.6991" latitude="-14.796767"/>
<marker id="529174880" label="Rubble" category="73" did="1879413499" parentZoneId="1879413346" longitude="52.71842" latitude="-14.77666"/>
<marker id="529174881" label="Rubble" category="73" did="1879413499" parentZoneId="1879413346" longitude="52.726543" latitude="-14.800107"/>
<marker id="529174882" label="Rubble" category="73" did="1879413499" parentZoneId="1879413346" longitude="52.73025" latitude="-14.783086"/>
<marker id="529174883" label="Rubble" category="73" did="1879413499" parentZoneId="1879413346" longitude="52.748962" latitude="-14.792354"/>
<marker id="529174913" label="Stolen Goods" category="73" did="1879414440" parentZoneId="1879413346" longitude="53.42252" latitude="-15.124296"/>
<marker id="529174914" label="Stolen Goods" category="73" did="1879414440" parentZoneId="1879413346" longitude="53.467224" latitude="-15.105225"/>
<marker id="529174915" label="Stolen Goods" category="73" did="1879414440" parentZoneId="1879413346" longitude="53.427773" latitude="-15.094794"/>
<marker id="529174916" label="Stolen Goods" category="73" did="1879414440" parentZoneId="1879413346" longitude="53.458748" latitude="-15.190234"/>
<marker id="529174917" label="Stolen Goods" category="73" did="1879414440" parentZoneId="1879413346" longitude="53.460407" latitude="-15.095566"/>
<marker id="529174918" label="Stolen Goods" category="73" did="1879414440" parentZoneId="1879413346" longitude="53.342304" latitude="-14.698886"/>
<marker id="529174919" label="Stolen Goods" category="73" did="1879414440" parentZoneId="1879413346" longitude="53.29836" latitude="-14.803994"/>
<marker id="529174920" label="Stolen Goods" category="73" did="1879414440" parentZoneId="1879413346" longitude="53.46375" latitude="-14.832919"/>
<marker id="529174921" label="Stolen Goods" category="73" did="1879414440" parentZoneId="1879413346" longitude="53.239647" latitude="-14.913554"/>
<marker id="529174922" label="Stolen Goods" category="73" did="1879414440" parentZoneId="1879413346" longitude="53.286053" latitude="-15.102968"/>
<marker id="529174923" label="Stolen Goods" category="73" did="1879414440" parentZoneId="1879413346" longitude="53.424374" latitude="-15.100146"/>
<marker id="529174924" label="Stolen Goods" category="73" did="1879414440" parentZoneId="1879413346" longitude="53.239628" latitude="-14.848926"/>
<marker id="529174925" label="Stolen Goods" category="73" did="1879414440" parentZoneId="1879413346" longitude="53.457382" latitude="-14.780468"/>
<marker id="529174926" label="Stolen Goods" category="73" did="1879414440" parentZoneId="1879413346" longitude="53.353165" latitude="-14.779111"/>
<marker id="529174927" label="Stolen Goods" category="73" did="1879414440" parentZoneId="1879413346" longitude="53.367733" latitude="-14.65787"/>
<marker id="529174928" label="Stolen Goods" category="73" did="1879414440" parentZoneId="1879413346" longitude="53.278572" latitude="-15.225859"/>
<marker id="529174929" label="Stolen Goods" category="73" did="1879414440" parentZoneId="1879413346" longitude="53.476425" latitude="-15.174365"/>
<marker id="529174930" label="Stolen Goods" category="73" did="1879414440" parentZoneId="1879413346" longitude="53.261856" latitude="-15.222578"/>
<marker id="529174931" label="Stolen Goods" category="73" did="1879414440" parentZoneId="1879413346" longitude="53.26254" latitude="-14.995967"/>
<marker id="529174932" label="Stolen Goods" category="73" did="1879414440" parentZoneId="1879413346" longitude="53.234783" latitude="-15.116338"/>
<marker id="529174933" label="Ruffian Warden" category="71" did="1879414420" parentZoneId="1879413346" longitude="53.258846" latitude="-14.86541"/>
<marker id="529174934" label="Ruffian Warden" category="71" did="1879414420" parentZoneId="1879413346" longitude="53.456326" latitude="-14.774325"/>
<marker id="529174935" label="Ruffian Warden" category="71" did="1879414415" parentZoneId="1879413346" longitude="53.453125" latitude="-15.134511"/>
<marker id="529174936" label="Ruffian Warden" category="71" did="1879414415" parentZoneId="1879413346" longitude="53.231796" latitude="-15.108935"/>
<marker id="529174937" label="Ruffian Warden" category="71" did="1879414418" parentZoneId="1879413346" longitude="53.411797" latitude="-15.224882"/>
<marker id="529174938" label="Ruffian Warden" category="71" did="1879414418" parentZoneId="1879413346" longitude="53.467773" latitude="-15.162363"/>
<marker id="529174942" label="Ruffian Captain" category="71" did="1879414430" parentZoneId="1879413346" longitude="53.441795" latitude="-15.087949"/>
<marker id="529175036" label="Bomb" category="73" did="1879414450" parentZoneId="1879413346" longitude="52.98957" latitude="-14.841865"/>
<marker id="529175037" label="Bomb" category="73" did="1879414450" parentZoneId="1879413346" longitude="53.106583" latitude="-15.216933"/>
<marker id="529175038" label="Bomb" category="73" did="1879414450" parentZoneId="1879413346" longitude="53.100956" latitude="-15.178574"/>
<marker id="529175039" label="Bomb" category="73" did="1879414450" parentZoneId="1879413346" longitude="53.164333" latitude="-15.176777"/>
<marker id="529175040" label="Bomb" category="73" did="1879414450" parentZoneId="1879413346" longitude="53.150078" latitude="-15.197724"/>
<marker id="529175041" label="Bomb" category="73" did="1879414450" parentZoneId="1879413346" longitude="52.871933" latitude="-14.906405"/>
<marker id="529175042" label="Bomb" category="73" did="1879414450" parentZoneId="1879413346" longitude="53.072247" latitude="-15.213935"/>
<marker id="529175043" label="Bomb" category="73" did="1879414450" parentZoneId="1879413346" longitude="53.061462" latitude="-15.185497"/>
<marker id="529175044" label="Bomb" category="73" did="1879414450" parentZoneId="1879413346" longitude="52.82668" latitude="-14.698994"/>
<marker id="529175045" label="Bomb" category="73" did="1879414450" parentZoneId="1879413346" longitude="52.914257" latitude="-14.840468"/>
<marker id="529175046" label="Bomb" category="73" did="1879414450" parentZoneId="1879413346" longitude="52.768124" latitude="-14.81918"/>
<marker id="529175047" label="Bomb" category="73" did="1879414450" parentZoneId="1879413346" longitude="53.0291" latitude="-15.153613"/>
<marker id="529175048" label="Bomb" category="73" did="1879414450" parentZoneId="1879413346" longitude="53.070877" latitude="-15.146884"/>
<marker id="529175049" label="Bomb" category="73" did="1879414450" parentZoneId="1879413346" longitude="53.05234" latitude="-15.0148535"/>
<marker id="529175050" label="Bomb" category="73" did="1879414450" parentZoneId="1879413346" longitude="53.042168" latitude="-15.004824"/>
<marker id="529175051" label="Bomb" category="73" did="1879414450" parentZoneId="1879413346" longitude="52.97324" latitude="-14.96501"/>
<marker id="529175052" label="Bomb" category="73" did="1879414450" parentZoneId="1879413346" longitude="53.000313" latitude="-14.963935"/>
<marker id="529175053" label="Bomb" category="73" did="1879414450" parentZoneId="1879413346" longitude="52.84402" latitude="-15.067558"/>
<marker id="529175054" label="Bomb" category="73" did="1879414450" parentZoneId="1879413346" longitude="52.87666" latitude="-15.0619335"/>
<marker id="529175055" label="Bomb" category="73" did="1879414450" parentZoneId="1879413346" longitude="52.7498" latitude="-14.777353"/>
<marker id="529175056" label="Powder Crate" category="73" did="1879414443" parentZoneId="1879413346" longitude="52.904667" latitude="-15.019677"/>
<marker id="529175057" label="Powder Crate" category="73" did="1879414443" parentZoneId="1879413346" longitude="52.897675" latitude="-15.032275"/>
<marker id="529175058" label="Powder Crate" category="73" did="1879414443" parentZoneId="1879413346" longitude="52.832264" latitude="-14.940458"/>
<marker id="529175059" label="Powder Crate" category="73" did="1879414443" parentZoneId="1879413346" longitude="52.79943" latitude="-14.816181"/>
<marker id="529175060" label="Powder Crate" category="73" did="1879414443" parentZoneId="1879413346" longitude="52.723183" latitude="-14.781591"/>
<marker id="529175061" label="Powder Crate" category="73" did="1879414443" parentZoneId="1879413346" longitude="53.038788" latitude="-15.064629"/>
<marker id="529175062" label="Powder Crate" category="73" did="1879414443" parentZoneId="1879413346" longitude="52.95873" latitude="-15.03579"/>
<marker id="529175063" label="Powder Crate" category="73" did="1879414443" parentZoneId="1879413346" longitude="52.861774" latitude="-14.8454"/>
<marker id="529175064" label="Powder Crate" category="73" did="1879414443" parentZoneId="1879413346" longitude="52.83008" latitude="-14.839648"/>
<marker id="529175065" label="Powder Crate" category="73" did="1879414443" parentZoneId="1879413346" longitude="52.703514" latitude="-14.79542"/>
<marker id="529175066" label="Powder Crate" category="73" did="1879414443" parentZoneId="1879413346" longitude="52.831387" latitude="-14.718447"/>
<marker id="529175067" label="Powder Crate" category="73" did="1879414443" parentZoneId="1879413346" longitude="52.86498" latitude="-14.677002"/>
<marker id="529175068" label="Powder Crate" category="73" did="1879414443" parentZoneId="1879413346" longitude="52.958847" latitude="-14.773544"/>
<marker id="529175069" label="Powder Crate" category="73" did="1879414443" parentZoneId="1879413346" longitude="52.89535" latitude="-14.984716"/>
<marker id="529175070" label="Powder Crate" category="73" did="1879414443" parentZoneId="1879413346" longitude="53.01041" latitude="-15.087304"/>
<marker id="529175071" label="Powder Crate" category="73" did="1879414443" parentZoneId="1879413346" longitude="53.030117" latitude="-14.995537"/>
<marker id="529175072" label="Powder Crate" category="73" did="1879414443" parentZoneId="1879413346" longitude="52.980408" latitude="-14.995742"/>
<marker id="529175073" label="Powder Crate" category="73" did="1879414443" parentZoneId="1879413346" longitude="52.96" latitude="-14.815469"/>
<marker id="529175074" label="Powder Crate" category="73" did="1879414443" parentZoneId="1879413346" longitude="52.863552" latitude="-14.550107"/>
<marker id="529175075" label="Powder Crate" category="73" did="1879414443" parentZoneId="1879413346" longitude="52.83209" latitude="-14.538017"/>
<marker id="529175081" label="Summoning Horn" category="73" did="1879414445" parentZoneId="1879413346" longitude="53.13242" latitude="-15.088096"/>
<marker id="529175082" label="Summoning Horn" category="73" did="1879414445" parentZoneId="1879413346" longitude="53.34857" latitude="-14.473661"/>
<marker id="529175083" label="Summoning Horn" category="73" did="1879414445" parentZoneId="1879413346" longitude="52.84078" latitude="-14.465547"/>
<marker id="529175088" label="Writhenset Brood-mother" category="71" did="1879414417" parentZoneId="1879413347" longitude="53.20664" latitude="-15.346318"/>
<marker id="529175089" label="Writhenset Brood-mother" category="71" did="1879414417" parentZoneId="1879413347" longitude="53.301384" latitude="-14.241347"/>
<marker id="529175090" label="Spider Nest" category="73" did="1879414449" parentZoneId="1879413347" longitude="53.02074" latitude="-15.091484"/>
<marker id="529175091" label="Spider Nest" category="73" did="1879414449" parentZoneId="1879413347" longitude="53.20545" latitude="-15.096581"/>
<marker id="529175092" label="Spider Nest" category="73" did="1879414449" parentZoneId="1879413347" longitude="53.25959" latitude="-15.169169"/>
<marker id="529175093" label="Spider Nest" category="73" did="1879414449" parentZoneId="1879413347" longitude="53.364277" latitude="-14.693007"/>
<marker id="529175094" label="Spider Nest" category="73" did="1879414449" parentZoneId="1879413347" longitude="53.14418" latitude="-14.686406"/>
<marker id="529175095" label="Spider Nest" category="73" did="1879414449" parentZoneId="1879413347" longitude="53.18082" latitude="-15.232256"/>
<marker id="529175096" label="Spider Nest" category="73" did="1879414449" parentZoneId="1879413347" longitude="53.214745" latitude="-15.276064"/>
<marker id="529175097" label="Spider Nest" category="73" did="1879414449" parentZoneId="1879413347" longitude="53.24277" latitude="-14.589257"/>
<marker id="529175098" label="Spider Nest" category="73" did="1879414449" parentZoneId="1879413347" longitude="53.280056" latitude="-14.3136425"/>
<marker id="529175099" label="Spider Nest" category="73" did="1879414449" parentZoneId="1879413347" longitude="53.04883" latitude="-15.179248"/>
<marker id="529175100" label="Spider Nest" category="73" did="1879414449" parentZoneId="1879413347" longitude="53.061092" latitude="-15.136826"/>
<marker id="529175101" label="Spider Nest" category="73" did="1879414449" parentZoneId="1879413347" longitude="53.04951" latitude="-15.226377"/>
<marker id="529175102" label="Spider Nest" category="73" did="1879414449" parentZoneId="1879413347" longitude="53.28584" latitude="-14.381992"/>
<marker id="529175103" label="Spider Nest" category="73" did="1879414449" parentZoneId="1879413347" longitude="53.123455" latitude="-15.363037"/>
<marker id="529175104" label="Spider Nest" category="73" did="1879414449" parentZoneId="1879413347" longitude="52.989296" latitude="-14.78956"/>
<marker id="529175105" label="Spider Nest" category="73" did="1879414449" parentZoneId="1879413347" longitude="53.46293" latitude="-14.769082"/>
<marker id="529175106" label="Spider Nest" category="73" did="1879414449" parentZoneId="1879413347" longitude="53.44113" latitude="-14.844287"/>
<marker id="529175107" label="Spider Nest" category="73" did="1879414449" parentZoneId="1879413347" longitude="53.06035" latitude="-14.750878"/>
<marker id="529175108" label="Spider Nest" category="73" did="1879414449" parentZoneId="1879413347" longitude="53.037617" latitude="-14.833369"/>
<marker id="529175109" label="Spider Nest" category="73" did="1879414449" parentZoneId="1879413347" longitude="53.51078" latitude="-14.811669"/>
<marker id="529175110" label="Spider Nest" category="73" did="1879414449" parentZoneId="1879413347" longitude="53.224686" latitude="-14.846758"/>
<marker id="529175111" label="Spider Nest" category="73" did="1879414449" parentZoneId="1879413347" longitude="53.35494" latitude="-14.6110735"/>
<marker id="529175112" label="Spider Nest" category="73" did="1879414449" parentZoneId="1879413347" longitude="53.29781" latitude="-15.017822"/>
<marker id="529175113" label="Spider Nest" category="73" did="1879414449" parentZoneId="1879413347" longitude="53.27617" latitude="-14.847041"/>
<marker id="529175120" label="Writhenset" category="74" did="1879413343" parentZoneId="1879413347" longitude="53.22285" latitude="-14.586924"/>
<marker id="529175125" label="Broghosh" category="71" did="1879399172" parentZoneId="1879413347" longitude="53.305565" latitude="-14.251533"/>
<marker id="529175126" label="Broghosh" category="71" did="1879399172" parentZoneId="1879413347" longitude="53.144978" latitude="-15.314815"/>
<marker id="529175128" label="Writhenset" category="74" did="1879413343" parentZoneId="1879413347" longitude="53.23035" latitude="-15.085761"/>
<marker id="529175129" label="Writhenset" category="74" did="1879413343" parentZoneId="1879413346" longitude="52.74334" latitude="-14.791689"/>
<marker id="529175130" label="Writhenset" category="74" did="1879413343" parentZoneId="1879413346" longitude="53.231796" latitude="-14.795244"/>
<marker id="529175131" label="Writhenset" category="74" did="1879413343" parentZoneId="1879413346" longitude="53.024822" latitude="-14.814092"/>
<marker id="529175132" label="Supply Crate" category="73" did="1879414565" parentZoneId="1879413346" longitude="52.877304" latitude="-15.070449"/>
<marker id="529175133" label="Supply Crate" category="73" did="1879414565" parentZoneId="1879413346" longitude="52.861465" latitude="-14.852558"/>
<marker id="529175134" label="Supply Crate" category="73" did="1879414565" parentZoneId="1879413346" longitude="52.9574" latitude="-14.807646"/>
<marker id="529175135" label="Supply Crate" category="73" did="1879414565" parentZoneId="1879413346" longitude="52.834843" latitude="-14.720996"/>
<marker id="529175136" label="Supply Crate" category="73" did="1879414565" parentZoneId="1879413346" longitude="53.330235" latitude="-14.539413"/>
<marker id="529175137" label="Supply Crate" category="73" did="1879414565" parentZoneId="1879413346" longitude="52.828144" latitude="-14.520253"/>
