<?xml version="1.0" encoding="UTF-8"?><markers>
<marker id="717553664" label="Scrublands Wolf" category="71" did="1879369228" parentZoneId="1879368364" longitude="-14.377295" latitude="29.52704"/>
<marker id="717553665" label="Iron Hill-lizard" category="71" did="1879369229" parentZoneId="1879368364" longitude="-14.377295" latitude="29.52704"/>
<marker id="717553666" label="Aurochs Herd-cow" category="71" did="1879369225" parentZoneId="1879368364" longitude="-14.377295" latitude="29.52704"/>
<marker id="717553667" label="Ironfold Ram" category="71" did="1879369237" parentZoneId="1879368364" longitude="-14.377295" latitude="29.52704"/>
<marker id="717553668" label="Moor-shrew" category="78" did="1879369238" parentZoneId="1879368364" longitude="-14.377441" latitude="29.515879"/>
<marker id="717553669" label="Iron Hill-fox" category="78" did="1879369239" parentZoneId="1879368364" longitude="-14.377441" latitude="29.515879"/>
<marker id="717553670" label="Hill Grouse" category="78" did="1879369240" parentZoneId="1879368364" longitude="-14.377441" latitude="29.515879"/>
<marker id="717553671" label="Northern Viper" category="78" did="1879369242" parentZoneId="1879368364" longitude="-14.377441" latitude="29.515879"/>
<marker id="717553672" label="Moor-rat" category="78" did="1879369243" parentZoneId="1879368364" longitude="-14.377441" latitude="29.515879"/>
<marker id="717553673" label="Northern Hare" category="78" did="1879363821" parentZoneId="1879368364" longitude="-14.377441" latitude="29.515879"/>
<marker id="717553674" label="Moor-shrew" category="78" did="1879369238" parentZoneId="1879368364" longitude="-14.650537" latitude="29.322313"/>
<marker id="717553675" label="Iron Hill-fox" category="78" did="1879369239" parentZoneId="1879368364" longitude="-14.650537" latitude="29.322313"/>
<marker id="717553676" label="Northern Hare" category="78" did="1879363821" parentZoneId="1879368364" longitude="-14.650537" latitude="29.322313"/>
<marker id="717553677" label="Hill Grouse" category="78" did="1879369240" parentZoneId="1879368364" longitude="-14.650537" latitude="29.322313"/>
<marker id="717553678" label="Northern Viper" category="78" did="1879369242" parentZoneId="1879368364" longitude="-14.650537" latitude="29.322313"/>
<marker id="717553679" label="Moor-rat" category="78" did="1879369243" parentZoneId="1879368364" longitude="-14.650537" latitude="29.322313"/>
<marker id="717553680" label="Moor-shrew" category="78" did="1879369238" parentZoneId="1879368364" longitude="-14.379531" latitude="29.351719"/>
<marker id="717553681" label="Iron Hill-fox" category="78" did="1879369239" parentZoneId="1879368364" longitude="-14.379531" latitude="29.351719"/>
<marker id="717553682" label="Northern Hare" category="78" did="1879363821" parentZoneId="1879368364" longitude="-14.379531" latitude="29.351719"/>
<marker id="717553683" label="Hill Grouse" category="78" did="1879369240" parentZoneId="1879368364" longitude="-14.379531" latitude="29.351719"/>
<marker id="717553684" label="Northern Viper" category="78" did="1879369242" parentZoneId="1879368364" longitude="-14.379531" latitude="29.351719"/>
<marker id="717553685" label="Moor-rat" category="78" did="1879369243" parentZoneId="1879368364" longitude="-14.379531" latitude="29.351719"/>
<marker id="717553686" label="Moor-shrew" category="78" did="1879369238" parentZoneId="1879368364" longitude="-14.376152" latitude="29.628613"/>
<marker id="717553687" label="Iron Hill-fox" category="78" did="1879369239" parentZoneId="1879368364" longitude="-14.376152" latitude="29.628613"/>
<marker id="717553688" label="Northern Hare" category="78" did="1879363821" parentZoneId="1879368364" longitude="-14.376152" latitude="29.628613"/>
<marker id="717553689" label="Hill Grouse" category="78" did="1879369240" parentZoneId="1879368364" longitude="-14.376152" latitude="29.628613"/>
<marker id="717553690" label="Northern Viper" category="78" did="1879369242" parentZoneId="1879368364" longitude="-14.376152" latitude="29.628613"/>
<marker id="717553691" label="Moor-rat" category="78" did="1879369243" parentZoneId="1879368364" longitude="-14.376152" latitude="29.628613"/>
<marker id="717553692" label="Moor-shrew" category="78" did="1879369238" parentZoneId="1879368364" longitude="-14.188505" latitude="29.7479"/>
<marker id="717553693" label="Iron Hill-fox" category="78" did="1879369239" parentZoneId="1879368364" longitude="-14.188505" latitude="29.7479"/>
<marker id="717553694" label="Northern Hare" category="78" did="1879363821" parentZoneId="1879368364" longitude="-14.188505" latitude="29.7479"/>
<marker id="717553695" label="Hill Grouse" category="78" did="1879369240" parentZoneId="1879368364" longitude="-14.188505" latitude="29.7479"/>
<marker id="717553696" label="Northern Viper" category="78" did="1879369242" parentZoneId="1879368364" longitude="-14.188505" latitude="29.7479"/>
<marker id="717553697" label="Moor-rat" category="78" did="1879369243" parentZoneId="1879368364" longitude="-14.188505" latitude="29.7479"/>
<marker id="717553698" label="Moor-shrew" category="78" did="1879369238" parentZoneId="1879368364" longitude="-14.120654" latitude="29.534697"/>
<marker id="717553699" label="Iron Hill-fox" category="78" did="1879369239" parentZoneId="1879368364" longitude="-14.120654" latitude="29.534697"/>
<marker id="717553700" label="Northern Hare" category="78" did="1879363821" parentZoneId="1879368364" longitude="-14.120654" latitude="29.534697"/>
<marker id="717553701" label="Hill Grouse" category="78" did="1879369240" parentZoneId="1879368364" longitude="-14.120654" latitude="29.534697"/>
<marker id="717553702" label="Northern Viper" category="78" did="1879369242" parentZoneId="1879368364" longitude="-14.120654" latitude="29.534697"/>
<marker id="717553703" label="Moor-rat" category="78" did="1879369243" parentZoneId="1879368364" longitude="-14.120654" latitude="29.534697"/>
<marker id="717553704" label="Ironfold Ram" category="71" did="1879369237" parentZoneId="1879368364" longitude="-14.689921" latitude="29.312078"/>
<marker id="717553705" label="Hill-beast Heaver" category="71" did="1879369232" parentZoneId="1879368364" longitude="-14.689921" latitude="29.312078"/>
<marker id="717553706" label="Scrublands Lynx" category="71" did="1879369234" parentZoneId="1879368364" longitude="-14.689921" latitude="29.312078"/>
<marker id="717553707" label="Scrublands Wolf" category="71" did="1879369228" parentZoneId="1879368364" longitude="-14.689921" latitude="29.312078"/>
<marker id="717553708" label="Iron Hill-lizard" category="71" did="1879369229" parentZoneId="1879368364" longitude="-14.689921" latitude="29.312078"/>
<marker id="717553709" label="Ironfold Worker" category="71" did="1879369231" parentZoneId="1879368364" longitude="-14.689921" latitude="29.312078"/>
<marker id="717553710" label="Ironfold Stone-biter" category="71" did="1879369224" parentZoneId="1879368364" longitude="-14.689921" latitude="29.312078"/>
<marker id="717553711" label="Aurochs Herd-cow" category="71" did="1879369225" parentZoneId="1879368364" longitude="-14.689921" latitude="29.312078"/>
<marker id="717553712" label="Rusty Hill-beast" category="71" did="1879369226" parentZoneId="1879368364" longitude="-14.689921" latitude="29.312078"/>
<marker id="717553713" label="Ironfold Burrower" category="71" did="1879369227" parentZoneId="1879368364" longitude="-14.689921" latitude="29.312078"/>
<marker id="717553714" label="Ironfold Ram" category="71" did="1879369237" parentZoneId="1879368364" longitude="-14.466777" latitude="29.313486"/>
<marker id="717553715" label="Hill-beast Heaver" category="71" did="1879369232" parentZoneId="1879368364" longitude="-14.466777" latitude="29.313486"/>
<marker id="717553716" label="Scrublands Lynx" category="71" did="1879369234" parentZoneId="1879368364" longitude="-14.466777" latitude="29.313486"/>
<marker id="717553717" label="Scrublands Wolf" category="71" did="1879369228" parentZoneId="1879368364" longitude="-14.466777" latitude="29.313486"/>
<marker id="717553718" label="Iron Hill-lizard" category="71" did="1879369229" parentZoneId="1879368364" longitude="-14.466777" latitude="29.313486"/>
<marker id="717553719" label="Ironfold Worker" category="71" did="1879369231" parentZoneId="1879368364" longitude="-14.466777" latitude="29.313486"/>
<marker id="717553720" label="Ironfold Stone-biter" category="71" did="1879369224" parentZoneId="1879368364" longitude="-14.466777" latitude="29.313486"/>
<marker id="717553721" label="Aurochs Herd-cow" category="71" did="1879369225" parentZoneId="1879368364" longitude="-14.466777" latitude="29.313486"/>
<marker id="717553722" label="Rusty Hill-beast" category="71" did="1879369226" parentZoneId="1879368364" longitude="-14.466777" latitude="29.313486"/>
<marker id="717553723" label="Ironfold Burrower" category="71" did="1879369227" parentZoneId="1879368364" longitude="-14.466777" latitude="29.313486"/>
<marker id="717553724" label="Ironfold Ram" category="71" did="1879369237" parentZoneId="1879368364" longitude="-14.253681" latitude="29.402275"/>
<marker id="717553725" label="Hill-beast Heaver" category="71" did="1879369232" parentZoneId="1879368364" longitude="-14.253681" latitude="29.402275"/>
<marker id="717553726" label="Scrublands Lynx" category="71" did="1879369234" parentZoneId="1879368364" longitude="-14.253681" latitude="29.402275"/>
<marker id="717553727" label="Scrublands Wolf" category="71" did="1879369228" parentZoneId="1879368364" longitude="-14.253681" latitude="29.402275"/>
<marker id="717553728" label="Iron Hill-lizard" category="71" did="1879369229" parentZoneId="1879368364" longitude="-14.253681" latitude="29.402275"/>
<marker id="717553729" label="Ironfold Worker" category="71" did="1879369231" parentZoneId="1879368364" longitude="-14.253681" latitude="29.402275"/>
<marker id="717553730" label="Ironfold Stone-biter" category="71" did="1879369224" parentZoneId="1879368364" longitude="-14.253681" latitude="29.402275"/>
<marker id="717553731" label="Aurochs Herd-cow" category="71" did="1879369225" parentZoneId="1879368364" longitude="-14.253681" latitude="29.402275"/>
<marker id="717553732" label="Rusty Hill-beast" category="71" did="1879369226" parentZoneId="1879368364" longitude="-14.253681" latitude="29.402275"/>
<marker id="717553733" label="Ironfold Burrower" category="71" did="1879369227" parentZoneId="1879368364" longitude="-14.253681" latitude="29.402275"/>
<marker id="717553734" label="Ironfold Ram" category="71" did="1879369237" parentZoneId="1879368364" longitude="-14.096747" latitude="29.548563"/>
<marker id="717553735" label="Hill-beast Heaver" category="71" did="1879369232" parentZoneId="1879368364" longitude="-14.096747" latitude="29.548563"/>
<marker id="717553736" label="Scrublands Lynx" category="71" did="1879369234" parentZoneId="1879368364" longitude="-14.096747" latitude="29.548563"/>
<marker id="717553737" label="Scrublands Wolf" category="71" did="1879369228" parentZoneId="1879368364" longitude="-14.096747" latitude="29.548563"/>
<marker id="717553738" label="Iron Hill-lizard" category="71" did="1879369229" parentZoneId="1879368364" longitude="-14.096747" latitude="29.548563"/>
<marker id="717553739" label="Ironfold Worker" category="71" did="1879369231" parentZoneId="1879368364" longitude="-14.096747" latitude="29.548563"/>
<marker id="717553740" label="Ironfold Stone-biter" category="71" did="1879369224" parentZoneId="1879368364" longitude="-14.096747" latitude="29.548563"/>
<marker id="717553741" label="Aurochs Herd-cow" category="71" did="1879369225" parentZoneId="1879368364" longitude="-14.096747" latitude="29.548563"/>
<marker id="717553742" label="Rusty Hill-beast" category="71" did="1879369226" parentZoneId="1879368364" longitude="-14.096747" latitude="29.548563"/>
<marker id="717553743" label="Ironfold Burrower" category="71" did="1879369227" parentZoneId="1879368364" longitude="-14.096747" latitude="29.548563"/>
<marker id="717553744" label="Ironfold Ram" category="71" did="1879369237" parentZoneId="1879368364" longitude="-14.125117" latitude="29.7233"/>
<marker id="717553745" label="Hill-beast Heaver" category="71" did="1879369232" parentZoneId="1879368364" longitude="-14.125117" latitude="29.7233"/>
<marker id="717553746" label="Scrublands Lynx" category="71" did="1879369234" parentZoneId="1879368364" longitude="-14.125117" latitude="29.7233"/>
<marker id="717553747" label="Scrublands Wolf" category="71" did="1879369228" parentZoneId="1879368364" longitude="-14.125117" latitude="29.7233"/>
<marker id="717553748" label="Iron Hill-lizard" category="71" did="1879369229" parentZoneId="1879368364" longitude="-14.125117" latitude="29.7233"/>
<marker id="717553749" label="Ironfold Worker" category="71" did="1879369231" parentZoneId="1879368364" longitude="-14.125117" latitude="29.7233"/>
<marker id="717553750" label="Ironfold Stone-biter" category="71" did="1879369224" parentZoneId="1879368364" longitude="-14.125117" latitude="29.7233"/>
<marker id="717553751" label="Aurochs Herd-cow" category="71" did="1879369225" parentZoneId="1879368364" longitude="-14.125117" latitude="29.7233"/>
<marker id="717553752" label="Rusty Hill-beast" category="71" did="1879369226" parentZoneId="1879368364" longitude="-14.125117" latitude="29.7233"/>
<marker id="717553753" label="Ironfold Burrower" category="71" did="1879369227" parentZoneId="1879368364" longitude="-14.125117" latitude="29.7233"/>
<marker id="717553754" label="Ironfold Ram" category="71" did="1879369237" parentZoneId="1879368364" longitude="-14.315205" latitude="29.788046"/>
<marker id="717553755" label="Hill-beast Heaver" category="71" did="1879369232" parentZoneId="1879368364" longitude="-14.315205" latitude="29.788046"/>
<marker id="717553756" label="Scrublands Lynx" category="71" did="1879369234" parentZoneId="1879368364" longitude="-14.315205" latitude="29.788046"/>
<marker id="717553757" label="Scrublands Wolf" category="71" did="1879369228" parentZoneId="1879368364" longitude="-14.315205" latitude="29.788046"/>
<marker id="717553758" label="Iron Hill-lizard" category="71" did="1879369229" parentZoneId="1879368364" longitude="-14.315205" latitude="29.788046"/>
<marker id="717553759" label="Ironfold Worker" category="71" did="1879369231" parentZoneId="1879368364" longitude="-14.315205" latitude="29.788046"/>
<marker id="717553760" label="Ironfold Stone-biter" category="71" did="1879369224" parentZoneId="1879368364" longitude="-14.315205" latitude="29.788046"/>
<marker id="717553761" label="Aurochs Herd-cow" category="71" did="1879369225" parentZoneId="1879368364" longitude="-14.315205" latitude="29.788046"/>
<marker id="717553762" label="Rusty Hill-beast" category="71" did="1879369226" parentZoneId="1879368364" longitude="-14.315205" latitude="29.788046"/>
<marker id="717553763" label="Ironfold Burrower" category="71" did="1879369227" parentZoneId="1879368364" longitude="-14.315205" latitude="29.788046"/>
<marker id="717553764" label="Ironfold Ram" category="71" did="1879369237" parentZoneId="1879368364" longitude="-14.454746" latitude="29.667246"/>
<marker id="717553765" label="Hill-beast Heaver" category="71" did="1879369232" parentZoneId="1879368364" longitude="-14.454746" latitude="29.667246"/>
<marker id="717553766" label="Scrublands Lynx" category="71" did="1879369234" parentZoneId="1879368364" longitude="-14.454746" latitude="29.667246"/>
<marker id="717553767" label="Scrublands Wolf" category="71" did="1879369228" parentZoneId="1879368364" longitude="-14.454746" latitude="29.667246"/>
<marker id="717553768" label="Iron Hill-lizard" category="71" did="1879369229" parentZoneId="1879368364" longitude="-14.454746" latitude="29.667246"/>
<marker id="717553769" label="Ironfold Worker" category="71" did="1879369231" parentZoneId="1879368364" longitude="-14.454746" latitude="29.667246"/>
<marker id="717553770" label="Ironfold Stone-biter" category="71" did="1879369224" parentZoneId="1879368364" longitude="-14.454746" latitude="29.667246"/>
<marker id="717553771" label="Aurochs Herd-cow" category="71" did="1879369225" parentZoneId="1879368364" longitude="-14.454746" latitude="29.667246"/>
<marker id="717553772" label="Rusty Hill-beast" category="71" did="1879369226" parentZoneId="1879368364" longitude="-14.454746" latitude="29.667246"/>
<marker id="717553773" label="Ironfold Burrower" category="71" did="1879369227" parentZoneId="1879368364" longitude="-14.454746" latitude="29.667246"/>
<marker id="717553774" label="Ironfold Ram" category="71" did="1879369237" parentZoneId="1879368364" longitude="-14.409902" latitude="29.534687"/>
<marker id="717553775" label="Hill-beast Heaver" category="71" did="1879369232" parentZoneId="1879368364" longitude="-14.409902" latitude="29.534687"/>
<marker id="717553776" label="Scrublands Lynx" category="71" did="1879369234" parentZoneId="1879368364" longitude="-14.409902" latitude="29.534687"/>
<marker id="717553777" label="Scrublands Wolf" category="71" did="1879369228" parentZoneId="1879368364" longitude="-14.409902" latitude="29.534687"/>
<marker id="717553778" label="Iron Hill-lizard" category="71" did="1879369229" parentZoneId="1879368364" longitude="-14.409902" latitude="29.534687"/>
<marker id="717553779" label="Ironfold Worker" category="71" did="1879369231" parentZoneId="1879368364" longitude="-14.409902" latitude="29.534687"/>
<marker id="717553780" label="Ironfold Stone-biter" category="71" did="1879369224" parentZoneId="1879368364" longitude="-14.409902" latitude="29.534687"/>
<marker id="717553781" label="Aurochs Herd-cow" category="71" did="1879369225" parentZoneId="1879368364" longitude="-14.409902" latitude="29.534687"/>
<marker id="717553782" label="Rusty Hill-beast" category="71" did="1879369226" parentZoneId="1879368364" longitude="-14.409902" latitude="29.534687"/>
<marker id="717553783" label="Ironfold Burrower" category="71" did="1879369227" parentZoneId="1879368364" longitude="-14.409902" latitude="29.534687"/>
<marker id="717553784" label="Ironfold Ram" category="71" did="1879369237" parentZoneId="1879368364" longitude="-14.550204" latitude="29.473944"/>
<marker id="717553785" label="Hill-beast Heaver" category="71" did="1879369232" parentZoneId="1879368364" longitude="-14.550204" latitude="29.473944"/>
<marker id="717553786" label="Scrublands Lynx" category="71" did="1879369234" parentZoneId="1879368364" longitude="-14.550204" latitude="29.473944"/>
<marker id="717553787" label="Scrublands Wolf" category="71" did="1879369228" parentZoneId="1879368364" longitude="-14.550204" latitude="29.473944"/>
<marker id="717553788" label="Iron Hill-lizard" category="71" did="1879369229" parentZoneId="1879368364" longitude="-14.550204" latitude="29.473944"/>
<marker id="717553789" label="Ironfold Worker" category="71" did="1879369231" parentZoneId="1879368364" longitude="-14.550204" latitude="29.473944"/>
<marker id="717553790" label="Ironfold Stone-biter" category="71" did="1879369224" parentZoneId="1879368364" longitude="-14.550204" latitude="29.473944"/>
<marker id="717553791" label="Aurochs Herd-cow" category="71" did="1879369225" parentZoneId="1879368364" longitude="-14.550204" latitude="29.473944"/>
<marker id="717553792" label="Rusty Hill-beast" category="71" did="1879369226" parentZoneId="1879368364" longitude="-14.550204" latitude="29.473944"/>
<marker id="717553793" label="Ironfold Burrower" category="71" did="1879369227" parentZoneId="1879368364" longitude="-14.550204" latitude="29.473944"/>
<marker id="717619200" label="Jangovar Cat-keeper" category="71" did="1879368968" parentZoneId="1879368364" longitude="-13.376943" latitude="29.53828"/>
<marker id="717619201" label="Scrublands Wolf" category="71" did="1879369228" parentZoneId="1879368364" longitude="-13.62373" latitude="29.504814"/>
<marker id="717619202" label="Iron Hill-lizard" category="71" did="1879369229" parentZoneId="1879368364" longitude="-13.62373" latitude="29.504814"/>
<marker id="717619203" label="Aurochs Herd-cow" category="71" did="1879369225" parentZoneId="1879368364" longitude="-13.62373" latitude="29.504814"/>
<marker id="717619204" label="Ironfold Ram" category="71" did="1879369237" parentZoneId="1879368364" longitude="-13.62373" latitude="29.504814"/>
<marker id="717619205" label="Moor-shrew" category="78" did="1879369238" parentZoneId="1879368364" longitude="-13.623877" latitude="29.493652"/>
<marker id="717619206" label="Iron Hill-fox" category="78" did="1879369239" parentZoneId="1879368364" longitude="-13.623877" latitude="29.493652"/>
<marker id="717619207" label="Hill Grouse" category="78" did="1879369240" parentZoneId="1879368364" longitude="-13.623877" latitude="29.493652"/>
<marker id="717619208" label="Northern Viper" category="78" did="1879369242" parentZoneId="1879368364" longitude="-13.623877" latitude="29.493652"/>
<marker id="717619209" label="Moor-rat" category="78" did="1879369243" parentZoneId="1879368364" longitude="-13.623877" latitude="29.493652"/>
<marker id="717619210" label="Rich Ironfold Skarn Deposit" category="50" did="1879370484" parentZoneId="1879368364" longitude="-13.619648" latitude="29.51744"/>
<marker id="717619211" label="Thornholt Branches" category="50" did="1879370486" parentZoneId="1879368364" longitude="-13.619648" latitude="29.51744"/>
<marker id="717619212" label="Ironfold Skarn Deposit" category="50" did="1879370483" parentZoneId="1879368364" longitude="-13.619648" latitude="29.51744"/>
<marker id="717619213" label="Heavy Thornholt Branches" category="50" did="1879370488" parentZoneId="1879368364" longitude="-13.619648" latitude="29.51744"/>
<marker id="717619214" label="Northern Hare" category="78" did="1879363821" parentZoneId="1879368364" longitude="-13.623877" latitude="29.493652"/>
<marker id="717619215" label="Rich Ironfold Skarn Deposit" category="50" did="1879370484" parentZoneId="1879368364" longitude="-13.69332" latitude="29.214931"/>
<marker id="717619216" label="Thornholt Branches" category="50" did="1879370486" parentZoneId="1879368364" longitude="-13.69332" latitude="29.214931"/>
<marker id="717619217" label="Ironfold Skarn Deposit" category="50" did="1879370483" parentZoneId="1879368364" longitude="-13.69332" latitude="29.214931"/>
<marker id="717619218" label="Heavy Thornholt Branches" category="50" did="1879370488" parentZoneId="1879368364" longitude="-13.69332" latitude="29.214931"/>
<marker id="717619219" label="Rich Ironfold Skarn Deposit" category="50" did="1879370484" parentZoneId="1879368364" longitude="-13.3833685" latitude="29.35501"/>
<marker id="717619220" label="Thornholt Branches" category="50" did="1879370486" parentZoneId="1879368364" longitude="-13.3833685" latitude="29.35501"/>
<marker id="717619221" label="Ironfold Skarn Deposit" category="50" did="1879370483" parentZoneId="1879368364" longitude="-13.3833685" latitude="29.35501"/>
<marker id="717619222" label="Heavy Thornholt Branches" category="50" did="1879370488" parentZoneId="1879368364" longitude="-13.3833685" latitude="29.35501"/>
<marker id="717619223" label="Rich Ironfold Skarn Deposit" category="50" did="1879370484" parentZoneId="1879368364" longitude="-13.270888" latitude="29.64952"/>
<marker id="717619224" label="Thornholt Branches" category="50" did="1879370486" parentZoneId="1879368364" longitude="-13.270888" latitude="29.64952"/>
<marker id="717619225" label="Ironfold Skarn Deposit" category="50" did="1879370483" parentZoneId="1879368364" longitude="-13.270888" latitude="29.64952"/>
<marker id="717619226" label="Heavy Thornholt Branches" category="50" did="1879370488" parentZoneId="1879368364" longitude="-13.270888" latitude="29.64952"/>
<marker id="717619227" label="Rich Ironfold Skarn Deposit" category="50" did="1879370484" parentZoneId="1879368364" longitude="-13.662412" latitude="29.941357"/>
<marker id="717619228" label="Thornholt Branches" category="50" did="1879370486" parentZoneId="1879368364" longitude="-13.662412" latitude="29.941357"/>
<marker id="717619229" label="Ironfold Skarn Deposit" category="50" did="1879370483" parentZoneId="1879368364" longitude="-13.662412" latitude="29.941357"/>
<marker id="717619230" label="Heavy Thornholt Branches" category="50" did="1879370488" parentZoneId="1879368364" longitude="-13.662412" latitude="29.941357"/>
<marker id="717619231" label="Rich Ironfold Skarn Deposit" category="50" did="1879370484" parentZoneId="1879368364" longitude="-13.888232" latitude="29.777557"/>
<marker id="717619232" label="Thornholt Branches" category="50" did="1879370486" parentZoneId="1879368364" longitude="-13.888232" latitude="29.777557"/>
<marker id="717619233" label="Ironfold Skarn Deposit" category="50" did="1879370483" parentZoneId="1879368364" longitude="-13.888232" latitude="29.777557"/>
<marker id="717619234" label="Heavy Thornholt Branches" category="50" did="1879370488" parentZoneId="1879368364" longitude="-13.888232" latitude="29.777557"/>
<marker id="717619235" label="Rich Ironfold Skarn Deposit" category="50" did="1879370484" parentZoneId="1879368364" longitude="-13.798096" latitude="29.35791"/>
<marker id="717619236" label="Thornholt Branches" category="50" did="1879370486" parentZoneId="1879368364" longitude="-13.798096" latitude="29.35791"/>
<marker id="717619237" label="Ironfold Skarn Deposit" category="50" did="1879370483" parentZoneId="1879368364" longitude="-13.798096" latitude="29.35791"/>
<marker id="717619238" label="Heavy Thornholt Branches" category="50" did="1879370488" parentZoneId="1879368364" longitude="-13.798096" latitude="29.35791"/>
<marker id="717619239" label="Rich Ironfold Skarn Deposit" category="50" did="1879370484" parentZoneId="1879368364" longitude="-13.637529" latitude="29.291601"/>
<marker id="717619240" label="Thornholt Branches" category="50" did="1879370486" parentZoneId="1879368364" longitude="-13.637529" latitude="29.291601"/>
<marker id="717619241" label="Ironfold Skarn Deposit" category="50" did="1879370483" parentZoneId="1879368364" longitude="-13.637529" latitude="29.291601"/>
<marker id="717619242" label="Heavy Thornholt Branches" category="50" did="1879370488" parentZoneId="1879368364" longitude="-13.637529" latitude="29.291601"/>
<marker id="717619243" label="Rich Ironfold Skarn Deposit" category="50" did="1879370484" parentZoneId="1879368364" longitude="-13.585244" latitude="29.521952"/>
<marker id="717619244" label="Thornholt Branches" category="50" did="1879370486" parentZoneId="1879368364" longitude="-13.585244" latitude="29.521952"/>
<marker id="717619245" label="Ironfold Skarn Deposit" category="50" did="1879370483" parentZoneId="1879368364" longitude="-13.585244" latitude="29.521952"/>
<marker id="717619246" label="Heavy Thornholt Branches" category="50" did="1879370488" parentZoneId="1879368364" longitude="-13.585244" latitude="29.521952"/>
<marker id="717619247" label="Rich Ironfold Skarn Deposit" category="50" did="1879370484" parentZoneId="1879368364" longitude="-13.8687105" latitude="29.633749"/>
<marker id="717619248" label="Thornholt Branches" category="50" did="1879370486" parentZoneId="1879368364" longitude="-13.8687105" latitude="29.633749"/>
<marker id="717619249" label="Ironfold Skarn Deposit" category="50" did="1879370483" parentZoneId="1879368364" longitude="-13.8687105" latitude="29.633749"/>
<marker id="717619250" label="Heavy Thornholt Branches" category="50" did="1879370488" parentZoneId="1879368364" longitude="-13.8687105" latitude="29.633749"/>
<marker id="717619251" label="Rich Ironfold Skarn Deposit" category="50" did="1879370484" parentZoneId="1879368364" longitude="-13.6211815" latitude="29.855692"/>
<marker id="717619252" label="Thornholt Branches" category="50" did="1879370486" parentZoneId="1879368364" longitude="-13.6211815" latitude="29.855692"/>
<marker id="717619253" label="Ironfold Skarn Deposit" category="50" did="1879370483" parentZoneId="1879368364" longitude="-13.6211815" latitude="29.855692"/>
<marker id="717619254" label="Heavy Thornholt Branches" category="50" did="1879370488" parentZoneId="1879368364" longitude="-13.6211815" latitude="29.855692"/>
<marker id="717619255" label="Moor-shrew" category="78" did="1879369238" parentZoneId="1879368364" longitude="-13.763672" latitude="29.302841"/>
<marker id="717619256" label="Iron Hill-fox" category="78" did="1879369239" parentZoneId="1879368364" longitude="-13.763672" latitude="29.302841"/>
<marker id="717619257" label="Northern Hare" category="78" did="1879363821" parentZoneId="1879368364" longitude="-13.763672" latitude="29.302841"/>
<marker id="717619258" label="Hill Grouse" category="78" did="1879369240" parentZoneId="1879368364" longitude="-13.763672" latitude="29.302841"/>
<marker id="717619259" label="Northern Viper" category="78" did="1879369242" parentZoneId="1879368364" longitude="-13.763672" latitude="29.302841"/>
<marker id="717619260" label="Moor-rat" category="78" did="1879369243" parentZoneId="1879368364" longitude="-13.763672" latitude="29.302841"/>
<marker id="717619261" label="Moor-shrew" category="78" did="1879369238" parentZoneId="1879368364" longitude="-13.539922" latitude="29.467909"/>
<marker id="717619262" label="Iron Hill-fox" category="78" did="1879369239" parentZoneId="1879368364" longitude="-13.539922" latitude="29.467909"/>
<marker id="717619263" label="Northern Hare" category="78" did="1879363821" parentZoneId="1879368364" longitude="-13.539922" latitude="29.467909"/>
<marker id="717619264" label="Hill Grouse" category="78" did="1879369240" parentZoneId="1879368364" longitude="-13.539922" latitude="29.467909"/>
<marker id="717619265" label="Northern Viper" category="78" did="1879369242" parentZoneId="1879368364" longitude="-13.539922" latitude="29.467909"/>
<marker id="717619266" label="Moor-rat" category="78" did="1879369243" parentZoneId="1879368364" longitude="-13.539922" latitude="29.467909"/>
<marker id="717619267" label="Moor-shrew" category="78" did="1879369238" parentZoneId="1879368364" longitude="-13.881738" latitude="29.662167"/>
<marker id="717619268" label="Iron Hill-fox" category="78" did="1879369239" parentZoneId="1879368364" longitude="-13.881738" latitude="29.662167"/>
<marker id="717619269" label="Northern Hare" category="78" did="1879363821" parentZoneId="1879368364" longitude="-13.881738" latitude="29.662167"/>
<marker id="717619270" label="Hill Grouse" category="78" did="1879369240" parentZoneId="1879368364" longitude="-13.881738" latitude="29.662167"/>
<marker id="717619271" label="Northern Viper" category="78" did="1879369242" parentZoneId="1879368364" longitude="-13.881738" latitude="29.662167"/>
<marker id="717619272" label="Moor-rat" category="78" did="1879369243" parentZoneId="1879368364" longitude="-13.881738" latitude="29.662167"/>
<marker id="717619273" label="Moor-shrew" category="78" did="1879369238" parentZoneId="1879368364" longitude="-13.74792" latitude="29.8812"/>
<marker id="717619274" label="Iron Hill-fox" category="78" did="1879369239" parentZoneId="1879368364" longitude="-13.74792" latitude="29.8812"/>
<marker id="717619275" label="Northern Hare" category="78" did="1879363821" parentZoneId="1879368364" longitude="-13.74792" latitude="29.8812"/>
<marker id="717619276" label="Hill Grouse" category="78" did="1879369240" parentZoneId="1879368364" longitude="-13.74792" latitude="29.8812"/>
<marker id="717619277" label="Northern Viper" category="78" did="1879369242" parentZoneId="1879368364" longitude="-13.74792" latitude="29.8812"/>
<marker id="717619278" label="Moor-rat" category="78" did="1879369243" parentZoneId="1879368364" longitude="-13.74792" latitude="29.8812"/>
<marker id="717619279" label="Moor-shrew" category="78" did="1879369238" parentZoneId="1879368364" longitude="-13.483466" latitude="29.883427"/>
<marker id="717619280" label="Iron Hill-fox" category="78" did="1879369239" parentZoneId="1879368364" longitude="-13.483466" latitude="29.883427"/>
<marker id="717619281" label="Northern Hare" category="78" did="1879363821" parentZoneId="1879368364" longitude="-13.483466" latitude="29.883427"/>
<marker id="717619282" label="Hill Grouse" category="78" did="1879369240" parentZoneId="1879368364" longitude="-13.483466" latitude="29.883427"/>
<marker id="717619283" label="Northern Viper" category="78" did="1879369242" parentZoneId="1879368364" longitude="-13.483466" latitude="29.883427"/>
<marker id="717619284" label="Moor-rat" category="78" did="1879369243" parentZoneId="1879368364" longitude="-13.483466" latitude="29.883427"/>
<marker id="717619285" label="Ironfold Ram" category="71" did="1879369237" parentZoneId="1879368364" longitude="-13.960381" latitude="29.590733"/>
<marker id="717619286" label="Hill-beast Heaver" category="71" did="1879369232" parentZoneId="1879368364" longitude="-13.960381" latitude="29.590733"/>
<marker id="717619287" label="Scrublands Lynx" category="71" did="1879369234" parentZoneId="1879368364" longitude="-13.960381" latitude="29.590733"/>
<marker id="717619288" label="Scrublands Wolf" category="71" did="1879369228" parentZoneId="1879368364" longitude="-13.960381" latitude="29.590733"/>
<marker id="717619289" label="Iron Hill-lizard" category="71" did="1879369229" parentZoneId="1879368364" longitude="-13.960381" latitude="29.590733"/>
<marker id="717619290" label="Ironfold Worker" category="71" did="1879369231" parentZoneId="1879368364" longitude="-13.960381" latitude="29.590733"/>
<marker id="717619291" label="Ironfold Stone-biter" category="71" did="1879369224" parentZoneId="1879368364" longitude="-13.960381" latitude="29.590733"/>
<marker id="717619292" label="Aurochs Herd-cow" category="71" did="1879369225" parentZoneId="1879368364" longitude="-13.960381" latitude="29.590733"/>
<marker id="717619293" label="Rusty Hill-beast" category="71" did="1879369226" parentZoneId="1879368364" longitude="-13.960381" latitude="29.590733"/>
<marker id="717619294" label="Ironfold Burrower" category="71" did="1879369227" parentZoneId="1879368364" longitude="-13.960381" latitude="29.590733"/>
<marker id="717619295" label="Ironfold Ram" category="71" did="1879369237" parentZoneId="1879368364" longitude="-13.896992" latitude="29.811533"/>
<marker id="717619296" label="Hill-beast Heaver" category="71" did="1879369232" parentZoneId="1879368364" longitude="-13.896992" latitude="29.811533"/>
<marker id="717619297" label="Scrublands Lynx" category="71" did="1879369234" parentZoneId="1879368364" longitude="-13.896992" latitude="29.811533"/>
<marker id="717619298" label="Scrublands Wolf" category="71" did="1879369228" parentZoneId="1879368364" longitude="-13.896992" latitude="29.811533"/>
<marker id="717619299" label="Iron Hill-lizard" category="71" did="1879369229" parentZoneId="1879368364" longitude="-13.896992" latitude="29.811533"/>
<marker id="717619300" label="Ironfold Worker" category="71" did="1879369231" parentZoneId="1879368364" longitude="-13.896992" latitude="29.811533"/>
<marker id="717619301" label="Ironfold Stone-biter" category="71" did="1879369224" parentZoneId="1879368364" longitude="-13.896992" latitude="29.811533"/>
<marker id="717619302" label="Aurochs Herd-cow" category="71" did="1879369225" parentZoneId="1879368364" longitude="-13.896992" latitude="29.811533"/>
<marker id="717619303" label="Rusty Hill-beast" category="71" did="1879369226" parentZoneId="1879368364" longitude="-13.896992" latitude="29.811533"/>
<marker id="717619304" label="Ironfold Burrower" category="71" did="1879369227" parentZoneId="1879368364" longitude="-13.896992" latitude="29.811533"/>
<marker id="717619305" label="Ironfold Ram" category="71" did="1879369237" parentZoneId="1879368364" longitude="-13.694209" latitude="29.911806"/>
<marker id="717619306" label="Hill-beast Heaver" category="71" did="1879369232" parentZoneId="1879368364" longitude="-13.694209" latitude="29.911806"/>
<marker id="717619307" label="Scrublands Lynx" category="71" did="1879369234" parentZoneId="1879368364" longitude="-13.694209" latitude="29.911806"/>
<marker id="717619308" label="Scrublands Wolf" category="71" did="1879369228" parentZoneId="1879368364" longitude="-13.694209" latitude="29.911806"/>
<marker id="717619309" label="Iron Hill-lizard" category="71" did="1879369229" parentZoneId="1879368364" longitude="-13.694209" latitude="29.911806"/>
<marker id="717619310" label="Ironfold Worker" category="71" did="1879369231" parentZoneId="1879368364" longitude="-13.694209" latitude="29.911806"/>
<marker id="717619311" label="Ironfold Stone-biter" category="71" did="1879369224" parentZoneId="1879368364" longitude="-13.694209" latitude="29.911806"/>
<marker id="717619312" label="Aurochs Herd-cow" category="71" did="1879369225" parentZoneId="1879368364" longitude="-13.694209" latitude="29.911806"/>
<marker id="717619313" label="Rusty Hill-beast" category="71" did="1879369226" parentZoneId="1879368364" longitude="-13.694209" latitude="29.911806"/>
<marker id="717619314" label="Ironfold Burrower" category="71" did="1879369227" parentZoneId="1879368364" longitude="-13.694209" latitude="29.911806"/>
<marker id="717619315" label="Ironfold Ram" category="71" did="1879369237" parentZoneId="1879368364" longitude="-13.3766985" latitude="29.94124"/>
<marker id="717619316" label="Hill-beast Heaver" category="71" did="1879369232" parentZoneId="1879368364" longitude="-13.3766985" latitude="29.94124"/>
<marker id="717619317" label="Scrublands Lynx" category="71" did="1879369234" parentZoneId="1879368364" longitude="-13.3766985" latitude="29.94124"/>
<marker id="717619318" label="Scrublands Wolf" category="71" did="1879369228" parentZoneId="1879368364" longitude="-13.3766985" latitude="29.94124"/>
<marker id="717619319" label="Iron Hill-lizard" category="71" did="1879369229" parentZoneId="1879368364" longitude="-13.3766985" latitude="29.94124"/>
<marker id="717619320" label="Ironfold Worker" category="71" did="1879369231" parentZoneId="1879368364" longitude="-13.3766985" latitude="29.94124"/>
<marker id="717619321" label="Ironfold Stone-biter" category="71" did="1879369224" parentZoneId="1879368364" longitude="-13.3766985" latitude="29.94124"/>
<marker id="717619322" label="Aurochs Herd-cow" category="71" did="1879369225" parentZoneId="1879368364" longitude="-13.3766985" latitude="29.94124"/>
<marker id="717619323" label="Rusty Hill-beast" category="71" did="1879369226" parentZoneId="1879368364" longitude="-13.3766985" latitude="29.94124"/>
<marker id="717619324" label="Ironfold Burrower" category="71" did="1879369227" parentZoneId="1879368364" longitude="-13.3766985" latitude="29.94124"/>
<marker id="717619325" label="Ironfold Ram" category="71" did="1879369237" parentZoneId="1879368364" longitude="-13.471865" latitude="29.342724"/>
<marker id="717619326" label="Hill-beast Heaver" category="71" did="1879369232" parentZoneId="1879368364" longitude="-13.471865" latitude="29.342724"/>
<marker id="717619327" label="Scrublands Lynx" category="71" did="1879369234" parentZoneId="1879368364" longitude="-13.471865" latitude="29.342724"/>
<marker id="717619328" label="Scrublands Wolf" category="71" did="1879369228" parentZoneId="1879368364" longitude="-13.471865" latitude="29.342724"/>
<marker id="717619329" label="Iron Hill-lizard" category="71" did="1879369229" parentZoneId="1879368364" longitude="-13.471865" latitude="29.342724"/>
<marker id="717619330" label="Ironfold Worker" category="71" did="1879369231" parentZoneId="1879368364" longitude="-13.471865" latitude="29.342724"/>
<marker id="717619331" label="Ironfold Stone-biter" category="71" did="1879369224" parentZoneId="1879368364" longitude="-13.471865" latitude="29.342724"/>
<marker id="717619332" label="Aurochs Herd-cow" category="71" did="1879369225" parentZoneId="1879368364" longitude="-13.471865" latitude="29.342724"/>
<marker id="717619333" label="Rusty Hill-beast" category="71" did="1879369226" parentZoneId="1879368364" longitude="-13.471865" latitude="29.342724"/>
<marker id="717619334" label="Ironfold Burrower" category="71" did="1879369227" parentZoneId="1879368364" longitude="-13.471865" latitude="29.342724"/>
<marker id="717619335" label="Ironfold Ram" category="71" did="1879369237" parentZoneId="1879368364" longitude="-13.637578" latitude="29.397684"/>
<marker id="717619336" label="Hill-beast Heaver" category="71" did="1879369232" parentZoneId="1879368364" longitude="-13.637578" latitude="29.397684"/>
<marker id="717619337" label="Scrublands Lynx" category="71" did="1879369234" parentZoneId="1879368364" longitude="-13.637578" latitude="29.397684"/>
<marker id="717619338" label="Scrublands Wolf" category="71" did="1879369228" parentZoneId="1879368364" longitude="-13.637578" latitude="29.397684"/>
<marker id="717619339" label="Iron Hill-lizard" category="71" did="1879369229" parentZoneId="1879368364" longitude="-13.637578" latitude="29.397684"/>
<marker id="717619340" label="Ironfold Worker" category="71" did="1879369231" parentZoneId="1879368364" longitude="-13.637578" latitude="29.397684"/>
<marker id="717619341" label="Ironfold Stone-biter" category="71" did="1879369224" parentZoneId="1879368364" longitude="-13.637578" latitude="29.397684"/>
<marker id="717619342" label="Aurochs Herd-cow" category="71" did="1879369225" parentZoneId="1879368364" longitude="-13.637578" latitude="29.397684"/>
<marker id="717619343" label="Rusty Hill-beast" category="71" did="1879369226" parentZoneId="1879368364" longitude="-13.637578" latitude="29.397684"/>
<marker id="717619344" label="Ironfold Burrower" category="71" did="1879369227" parentZoneId="1879368364" longitude="-13.637578" latitude="29.397684"/>
<marker id="717684736" label="Iltish" category="71" did="1879368956" parentZoneId="1879368364" longitude="-12.499277" latitude="29.248798"/>
<marker id="717684737" label="Jangovar Attacker" category="71" did="1879368957" parentZoneId="1879368364" longitude="-13.162011" latitude="29.775644"/>
<marker id="717684738" label="Boskhín Wolfseye" category="71" did="1879368954" parentZoneId="1879368364" longitude="-12.954121" latitude="29.409315"/>
<marker id="717684739" label="Jangovar Attacker" category="71" did="1879368967" parentZoneId="1879368364" longitude="-12.731787" latitude="29.652147"/>
<marker id="717684740" label="Jangovar Sorcerer" category="71" did="1879368960" parentZoneId="1879368364" longitude="-13.148564" latitude="29.84376"/>
<marker id="717684741" label="Vulkhós" category="71" did="1879368962" parentZoneId="1879368364" longitude="-13.179628" latitude="29.774336"/>
<marker id="717684742" label="Jangovar Cat-keeper" category="71" did="1879368968" parentZoneId="1879368364" longitude="-12.445752" latitude="29.704931"/>
<marker id="717684743" label="Stolen Weapons" category="73" did="1879369058" parentZoneId="1879368364" longitude="-13.187705" latitude="29.963036"/>
<marker id="717684747" label="Stolen Weapons" category="73" did="1879369058" parentZoneId="1879368364" longitude="-12.408418" latitude="29.228027"/>
<marker id="717684748" label="Stolen Weapons" category="73" did="1879369058" parentZoneId="1879368364" longitude="-12.505781" latitude="29.258076"/>
<marker id="717684749" label="Stolen Weapons" category="73" did="1879369058" parentZoneId="1879368364" longitude="-12.985879" latitude="29.38004"/>
<marker id="717684750" label="Stolen Weapons" category="73" did="1879369058" parentZoneId="1879368364" longitude="-13.171093" latitude="29.765488"/>
<marker id="717684752" label="Stolen Weapons" category="73" did="1879369058" parentZoneId="1879368364" longitude="-13.015459" latitude="29.443106"/>
<marker id="717684753" label="Stolen Weapons" category="73" did="1879369058" parentZoneId="1879368364" longitude="-12.713359" latitude="29.589453"/>
<marker id="717684754" label="Stolen Weapons" category="73" did="1879369058" parentZoneId="1879368364" longitude="-12.574033" latitude="29.413603"/>
<marker id="717684755" label="Stolen Weapons" category="73" did="1879369058" parentZoneId="1879368364" longitude="-12.636767" latitude="29.407578"/>
<marker id="717684756" label="Stolen Weapons" category="73" did="1879369058" parentZoneId="1879368364" longitude="-13.009052" latitude="29.265654"/>
<marker id="717688833" label="Injured Guard" category="70" did="1879368898" parentZoneId="1879368364" longitude="-12.88749" latitude="30.67792"/>
<marker id="717688835" label="Jangovar Attacker" category="71" did="1879368967" parentZoneId="1879368364" longitude="-13.086445" latitude="30.1183"/>
<marker id="717688836" label="Ironfold Guard" category="71" did="1879368971" parentZoneId="1879368364" longitude="-12.614609" latitude="30.67575"/>
<marker id="717688837" label="Hammerstead" category="74" did="1879368486" parentZoneId="1879368364" longitude="-12.823095" latitude="30.373964"/>
<marker id="717688839" label="Lóssi" category="70" did="1879368912" parentZoneId="1879368364" longitude="-12.546171" latitude="30.69666"/>
<marker id="717688842" label="Injured Guard" category="70" did="1879368898" parentZoneId="1879368364" longitude="-12.8176365" latitude="30.741014"/>
<marker id="717688843" label="Injured Guard" category="70" did="1879368898" parentZoneId="1879368364" longitude="-12.523145" latitude="30.649649"/>
<marker id="717688844" label="Injured Guard" category="70" did="1879368898" parentZoneId="1879368364" longitude="-12.469082" latitude="30.789373"/>
<marker id="717688845" label="Injured Guard" category="70" did="1879368898" parentZoneId="1879368364" longitude="-12.452588" latitude="30.547508"/>
<marker id="717688846" label="Injured Guard" category="70" did="1879368898" parentZoneId="1879368364" longitude="-12.4453125" latitude="30.36455"/>
<marker id="717688847" label="Injured Guard" category="70" did="1879368898" parentZoneId="1879368364" longitude="-12.440781" latitude="30.248886"/>
<marker id="717688848" label="Injured Guard" category="70" did="1879368898" parentZoneId="1879368364" longitude="-12.858857" latitude="30.5796"/>
<marker id="717688849" label="Injured Guard" category="70" did="1879368898" parentZoneId="1879368364" longitude="-12.69206" latitude="30.350721"/>
<marker id="717688850" label="Injured Guard" category="70" did="1879368898" parentZoneId="1879368364" longitude="-12.966426" latitude="30.432499"/>
<marker id="717688851" label="Injured Guard" category="70" did="1879368898" parentZoneId="1879368364" longitude="-12.93625" latitude="30.528866"/>
<marker id="717688852" label="Injured Guard" category="70" did="1879368898" parentZoneId="1879368364" longitude="-12.7191305" latitude="30.29291"/>
<marker id="717692928" label="Mine Cart" category="70" did="1879370531" parentZoneId="1879368364" longitude="-13.057304" latitude="31.022099"/>
<marker id="717692930" label="Metal door" category="73" did="1879380803" parentZoneId="1879368364" longitude="-13.079374" latitude="31.054832"/>
<marker id="717750272" label="Hammerstead" category="74" did="1879368486" parentZoneId="1879368364" longitude="-12.05293" latitude="29.64292"/>
<marker id="717750274" label="Jangovar Attacker" category="71" did="1879368957" parentZoneId="1879368364" longitude="-12.388447" latitude="29.40908"/>
<marker id="717750275" label="Jangovar Attacker" category="71" did="1879368967" parentZoneId="1879368364" longitude="-12.18543" latitude="29.58078"/>
<marker id="717750276" label="Jangovar Sorcerer" category="71" did="1879368960" parentZoneId="1879368364" longitude="-12.391015" latitude="29.224178"/>
<marker id="717750277" label="Ironfold Guard" category="71" did="1879368971" parentZoneId="1879368364" longitude="-11.879551" latitude="29.97209"/>
<marker id="717750280" label="Injured Guard" category="70" did="1879368898" parentZoneId="1879368364" longitude="-12.068945" latitude="29.795555"/>
<marker id="717750281" label="Injured Guard" category="70" did="1879368898" parentZoneId="1879368364" longitude="-12.050683" latitude="29.818682"/>
<marker id="717750282" label="Injured Guard" category="70" did="1879368898" parentZoneId="1879368364" longitude="-11.970693" latitude="29.670937"/>
<marker id="717750283" label="Injured Guard" category="70" did="1879368898" parentZoneId="1879368364" longitude="-12.244609" latitude="29.901894"/>
<marker id="717750284" label="Injured Guard" category="70" did="1879368898" parentZoneId="1879368364" longitude="-11.856973" latitude="29.6874"/>
<marker id="717750285" label="Injured Guard" category="70" did="1879368898" parentZoneId="1879368364" longitude="-12.182569" latitude="29.975868"/>
<marker id="717750286" label="Rusted Page" category="73" did="1879376450" parentZoneId="1879368364" longitude="-11.974248" latitude="29.892147"/>
<marker id="717754368" label="Hammerstead" category="74" did="1879368486" parentZoneId="1879368364" longitude="-12.074286" latitude="30.35624"/>
<marker id="717754369" label="Ironfold Guard" category="71" did="1879368971" parentZoneId="1879368364" longitude="-12.19999" latitude="30.707392"/>
<marker id="717754370" label="Townsperson" category="70" did="1879076799" parentZoneId="1879368364" longitude="-12.234306" latitude="30.528114"/>
<marker id="717754371" label="Leering Zhélruka" category="70" did="1879368841" parentZoneId="1879368364" longitude="-12.2458105" latitude="30.456387"/>
<marker id="717754373" label="Authi Gem-cutter" category="70" did="1879369018" parentZoneId="1879368364" longitude="-11.835205" latitude="30.784512"/>
<marker id="717754376" label="Méthur" category="70" did="1879369021" parentZoneId="1879368364" longitude="-11.826494" latitude="30.782724"/>
<marker id="717754377" label="Rusted Page" category="73" did="1879376440" parentZoneId="1879368364" longitude="-12.288242" latitude="30.662354"/>
<marker id="717758465" label="Tasks Bulletin Board" category="27" did="1879378422" parentZoneId="1879368364" longitude="-12.216982" latitude="30.935663"/>
<marker id="717758466" label="Milestone" category="55" did="1879063371" parentZoneId="1879368364" longitude="-12.214287" latitude="30.898573"/>
<marker id="717758467" label="Mailbox" category="34" did="1879063370" parentZoneId="1879368364" longitude="-12.257256" latitude="30.91122"/>
<marker id="717758469" label="Provisioner" category="38" did="1879362360" parentZoneId="1879368364" longitude="-12.206201" latitude="30.86038"/>
<marker id="717758470" label="Supplier" category="38" did="1879362361" parentZoneId="1879368364" longitude="-12.225087" latitude="30.862333"/>
<marker id="717758472" label="Healer" category="38" did="1879362353" parentZoneId="1879368364" longitude="-12.216592" latitude="30.858564"/>
<marker id="717758473" label="Stable-master" category="51" did="1879378808" parentZoneId="1879368364" longitude="-12.130302" latitude="30.901806"/>
<marker id="717758475" label="Townsperson" category="70" did="1879076799" parentZoneId="1879368364" longitude="-11.884746" latitude="30.82373"/>
<marker id="717758477" label="Forge-master" category="29" did="1879362364" parentZoneId="1879368364" longitude="-12.184463" latitude="30.861141"/>
<marker id="717758478" label="Bard" category="54" did="1879377564" parentZoneId="1879368364" longitude="-12.17832" latitude="30.926132"/>
<marker id="717758482" label="Leering Zhélruka" category="70" did="1879368841" parentZoneId="1879368364" longitude="-12.168838" latitude="30.912275"/>
<marker id="717758483" label="Leering Zhélruka" category="70" did="1879368841" parentZoneId="1879368364" longitude="-11.923154" latitude="31.075096"/>
<marker id="717758484" label="Mine Cart" category="70" did="1879370531" parentZoneId="1879368364" longitude="-11.899043" latitude="31.033604"/>
<marker id="717758600" label="Task Collection Box" category="70" did="1879366262" parentZoneId="1879368364" longitude="-12.207626" latitude="30.93206"/>
<marker id="717758603" label="Hammerstead" category="43" did="1879368486" parentZoneId="1879368364" longitude="-11.658671" latitude="30.964579"/>
<marker id="717758604" label="Hammerstead" category="74" did="1879368486" parentZoneId="1879368364" longitude="-12.299473" latitude="30.818993"/>
<marker id="717758610" label="Metal door" category="73" did="1879380810" parentZoneId="1879368364" longitude="-11.894121" latitude="31.365"/>
<marker id="717758611" label="Aflur Smokebeard" category="70" did="1879380809" parentZoneId="1879368364" longitude="-11.664287" latitude="30.96663"/>
<marker id="717815808" label="Howling Dark-maw" category="71" did="1879380815" parentZoneId="1879368364" longitude="-11.435264" latitude="29.621367"/>
<marker id="717815809" label="Metal door" category="73" did="1879380820" parentZoneId="1879368364" longitude="-11.431816" latitude="29.623144"/>
<marker id="717819904" label="Leering Zhélruka" category="70" did="1879368841" parentZoneId="1879368364" longitude="-11.564649" latitude="30.716444"/>
<marker id="717819905" label="Mine Cart" category="70" did="1879370531" parentZoneId="1879368364" longitude="-11.371923" latitude="30.628935"/>
<marker id="717819912" label="Howling Dark-maw" category="71" did="1879380819" parentZoneId="1879368364" longitude="-11.363798" latitude="30.623281"/>
<marker id="717819913" label="Howling Dark-maw" category="71" did="1879380806" parentZoneId="1879368364" longitude="-11.528691" latitude="30.291971"/>
<marker id="717819914" label="Metal door" category="73" did="1879380813" parentZoneId="1879368364" longitude="-11.359795" latitude="30.626709"/>
<marker id="717819915" label="Metal door" category="73" did="1879380814" parentZoneId="1879368364" longitude="-11.527012" latitude="30.295135"/>
<marker id="717824000" label="Mailbox" category="34" did="1879063370" parentZoneId="1879368364" longitude="-11.298476" latitude="31.166992"/>
<marker id="717824001" label="Door" category="100" did="1879139140" parentZoneId="1879368364" longitude="-11.303144" latitude="31.18493"/>
<marker id="717824002" label="Ironfold Guard" category="71" did="1879368971" parentZoneId="1879368364" longitude="-11.304951" latitude="31.162802"/>
</markers>
