<?xml version="1.0" encoding="UTF-8"?><markers>
<marker id="309145600" label="Human Roadsign" category="73" did="1879077026" parentZoneId="1879063918" longitude="-110.04068" latitude="-44.458237"/>
<marker id="309145601" label="Deer" category="78" did="1879077400" parentZoneId="1879063918" longitude="-110.00453" latitude="-44.579247"/>
<marker id="309145602" label="Tin Deposit" category="50" did="1879077401" parentZoneId="1879063918" longitude="-110.00412" latitude="-44.59951"/>
<marker id="309145603" label="Copper Deposit" category="50" did="1879077402" parentZoneId="1879063918" longitude="-110.00391" latitude="-44.59288"/>
<marker id="309145604" label="White Hand Conscript" category="71" did="1879077403" parentZoneId="1879063918" longitude="-110.51257" latitude="-44.413826"/>
<marker id="309145605" label="Supply Crate" category="72" did="1879077404" parentZoneId="1879063918" longitude="-110.0046" latitude="-44.565666"/>
<marker id="309145606" label="Escort Rat" category="71" did="1879076363" parentZoneId="1879063918" longitude="-110.00328" latitude="-44.40646"/>
<marker id="309145607" label="jwb" category="70" did="1879159388" parentZoneId="1879063918" longitude="-110.75204" latitude="-44.6452"/>
<marker id="309145608" label="Taskmaster Glothrok" category="71" did="1879092091" parentZoneId="1879063918" longitude="-110.64551" latitude="-44.836815"/>
<marker id="309145609" label="Skirmish Prototype" category="48" did="1879152157" parentZoneId="1879063918" longitude="-110.76492" latitude="-44.67743"/>
<marker id="309145613" label="Eregion Troll Session Bestower" category="71" did="1879154362" parentZoneId="1879063918" longitude="-110.64193" latitude="-44.807224"/>
<marker id="309145614" label="Forochel Troll Session Bestower" category="71" did="1879154363" parentZoneId="1879063918" longitude="-110.64193" latitude="-44.7856"/>
<marker id="309145615" label="Angmar Troll Session Bestower" category="71" did="1879154361" parentZoneId="1879063918" longitude="-110.64193" latitude="-44.762886"/>
<marker id="309149696" label="Human Roadsign" category="73" did="1879077026" parentZoneId="1879063918" longitude="-110.04051" latitude="-44.357075"/>
<marker id="309149697" label="Jimmy the Minstrel" category="70" did="1879077410" parentZoneId="1879063918" longitude="-110.16965" latitude="-44.39672"/>
<marker id="309149698" label="Woman of Bree" category="70" did="1879077411" parentZoneId="1879063918" longitude="-110.008965" latitude="-43.8993"/>
<marker id="309149699" label="DELETE ME!" category="70" did="1879063125" parentZoneId="1879063918" longitude="-110.0707" latitude="-44.35924"/>
<marker id="309211138" label="Townsperson" category="70" did="1879077014" parentZoneId="1879063917" longitude="-109.99764" latitude="-44.430367"/>
<marker id="309211139" label="Human Roadsign" category="73" did="1879077026" parentZoneId="1879063917" longitude="-109.93988" latitude="-44.458836"/>
<marker id="309211140" label="Twisted Bog-fly" category="71" did="1879077442" parentZoneId="1879063917" longitude="-109.45171" latitude="-44.91604"/>
<marker id="309211141" label="Test Chest" category="72" did="1879077443" parentZoneId="1879063917" longitude="-109.8592" latitude="-44.404613"/>
<marker id="309211142" label="Test Chest" category="72" did="1879077444" parentZoneId="1879063917" longitude="-109.85028" latitude="-44.404663"/>
<marker id="309211143" label="Test Chest" category="72" did="1879077445" parentZoneId="1879063917" longitude="-109.84268" latitude="-44.404858"/>
<marker id="309211144" label="Townsperson" category="70" did="1879076796" parentZoneId="1879063917" longitude="-109.995766" latitude="-44.53281"/>
<marker id="309211145" label="Owen Oaks&#10;Bard of Bree" category="54" did="1879063236" parentZoneId="1879063917" longitude="-109.9966" latitude="-44.723705"/>
<marker id="309211146" label="Door" category="48" did="1879063319" parentZoneId="1879063917" longitude="-109.98795" latitude="-44.838127"/>
<marker id="309211147" label="Horse" category="48" did="1879063325" parentZoneId="1879063917" longitude="-109.99711" latitude="-44.634808"/>
<marker id="309211148" label="Door" category="100" did="1879063326" parentZoneId="1879063917" longitude="-109.99645" latitude="-44.93595"/>
<marker id="309211149" label="Seamia Test Landblock" category="43" did="1879063327" parentZoneId="1879063917" longitude="-109.99018" latitude="-44.40786"/>
<marker id="309215234" label="Human Roadsign" category="73" did="1879077026" parentZoneId="1879063917" longitude="-109.939835" latitude="-44.35734"/>
<marker id="309215235" label="Woman of Bree" category="70" did="1879077411" parentZoneId="1879063917" longitude="-109.85045" latitude="-43.86735"/>
<marker id="309215236" label="Fierce Black-bear" category="71" did="1879077454" parentZoneId="1879063917" longitude="-109.30194" latitude="-44.3857"/>
<marker id="309215237" label="Armourer Vocation Trainer" category="70" did="1879063074" parentZoneId="1879063917" longitude="-109.92465" latitude="-44.397324"/>
<marker id="309215238" label="Bert Goldenleaf&#10;Stable-master" category="51" did="1879063328" parentZoneId="1879063917" longitude="-109.867226" latitude="-44.396835"/>
<marker id="309215239" label="Bill Rosewood&#10;Stable-master" category="51" did="1879063330" parentZoneId="1879063917" longitude="-109.87791" latitude="-44.396976"/>
<marker id="309215240" label="Door" category="48" did="1879076778" parentZoneId="1879063917" longitude="-109.97241" latitude="-44.392796"/>
<marker id="309215241" label="Door" category="48" did="1879063329" parentZoneId="1879063917" longitude="-109.92944" latitude="-44.383442"/>
<marker id="309223424" label="Gramsfoot Waylayer" category="71" did="1879077418" parentZoneId="1879063919" longitude="-109.7977" latitude="-42.20785"/>
<marker id="309223425" label="Gramsfoot Hurler" category="71" did="1879077420" parentZoneId="1879063919" longitude="-109.7977" latitude="-42.20785"/>
<marker id="309223426" label="Stout Gramsfoot" category="71" did="1879077421" parentZoneId="1879063919" longitude="-109.7977" latitude="-42.20785"/>
<marker id="309223427" label="Gramsfoot Waylayer" category="71" did="1879077418" parentZoneId="1879063919" longitude="-109.829994" latitude="-42.163624"/>
<marker id="309223428" label="Gramsfoot Scout" category="71" did="1879077419" parentZoneId="1879063919" longitude="-109.829994" latitude="-42.163624"/>
<marker id="309223429" label="Gramsfoot Hurler" category="71" did="1879077420" parentZoneId="1879063919" longitude="-109.829994" latitude="-42.163624"/>
<marker id="309223430" label="Stout Gramsfoot" category="71" did="1879077421" parentZoneId="1879063919" longitude="-109.829994" latitude="-42.163624"/>
<marker id="309223431" label="Gramsfoot Waylayer" category="71" did="1879077418" parentZoneId="1879063919" longitude="-109.7514" latitude="-42.17629"/>
<marker id="309223432" label="Gramsfoot Scout" category="71" did="1879077419" parentZoneId="1879063919" longitude="-109.7514" latitude="-42.17629"/>
<marker id="309223433" label="Gramsfoot Hurler" category="71" did="1879077420" parentZoneId="1879063919" longitude="-109.7514" latitude="-42.17629"/>
<marker id="309223434" label="Stout Gramsfoot" category="71" did="1879077421" parentZoneId="1879063919" longitude="-109.7514" latitude="-42.17629"/>
<marker id="309223435" label="Gramsfoot Waylayer" category="71" did="1879077418" parentZoneId="1879063919" longitude="-109.83662" latitude="-42.24741"/>
<marker id="309223436" label="Gramsfoot Scout" category="71" did="1879077419" parentZoneId="1879063919" longitude="-109.83662" latitude="-42.24741"/>
<marker id="309223437" label="Gramsfoot Hurler" category="71" did="1879077420" parentZoneId="1879063919" longitude="-109.83662" latitude="-42.24741"/>
<marker id="309223438" label="Stout Gramsfoot" category="71" did="1879077421" parentZoneId="1879063919" longitude="-109.83662" latitude="-42.24741"/>
<marker id="309223439" label="Gramsfoot Waylayer" category="71" did="1879077418" parentZoneId="1879063919" longitude="-109.75814" latitude="-42.24285"/>
<marker id="309223440" label="Gramsfoot Scout" category="71" did="1879077419" parentZoneId="1879063919" longitude="-109.75814" latitude="-42.24285"/>
<marker id="309223441" label="Gramsfoot Hurler" category="71" did="1879077420" parentZoneId="1879063919" longitude="-109.75814" latitude="-42.24285"/>
<marker id="309223442" label="Stout Gramsfoot" category="71" did="1879077421" parentZoneId="1879063919" longitude="-109.75814" latitude="-42.24285"/>
<marker id="309223443" label="Gramsfoot Waylayer" category="71" did="1879077418" parentZoneId="1879063919" longitude="-109.39904" latitude="-42.222343"/>
<marker id="309223444" label="Gramsfoot Scout" category="71" did="1879077419" parentZoneId="1879063919" longitude="-109.39904" latitude="-42.222343"/>
<marker id="309223445" label="Gramsfoot Hurler" category="71" did="1879077420" parentZoneId="1879063919" longitude="-109.39904" latitude="-42.222343"/>
<marker id="309223446" label="Stout Gramsfoot" category="71" did="1879077421" parentZoneId="1879063919" longitude="-109.39904" latitude="-42.222343"/>
<marker id="309223447" label="Gramsfoot Waylayer" category="71" did="1879077418" parentZoneId="1879063919" longitude="-109.47807" latitude="-42.220028"/>
<marker id="309223448" label="Gramsfoot Scout" category="71" did="1879077419" parentZoneId="1879063919" longitude="-109.47807" latitude="-42.220028"/>
<marker id="309223449" label="Gramsfoot Hurler" category="71" did="1879077420" parentZoneId="1879063919" longitude="-109.47807" latitude="-42.220028"/>
<marker id="309223450" label="Stout Gramsfoot" category="71" did="1879077421" parentZoneId="1879063919" longitude="-109.47807" latitude="-42.220028"/>
<marker id="309223451" label="Gramsfoot Waylayer" category="71" did="1879077418" parentZoneId="1879063919" longitude="-109.39376" latitude="-42.14718"/>
<marker id="309223452" label="Gramsfoot Scout" category="71" did="1879077419" parentZoneId="1879063919" longitude="-109.39376" latitude="-42.14718"/>
<marker id="309223453" label="Gramsfoot Hurler" category="71" did="1879077420" parentZoneId="1879063919" longitude="-109.39376" latitude="-42.14718"/>
<marker id="309223454" label="Stout Gramsfoot" category="71" did="1879077421" parentZoneId="1879063919" longitude="-109.39376" latitude="-42.14718"/>
<marker id="309223455" label="Gramsfoot Waylayer" category="71" did="1879077418" parentZoneId="1879063919" longitude="-109.48345" latitude="-42.15168"/>
<marker id="309223456" label="Gramsfoot Scout" category="71" did="1879077419" parentZoneId="1879063919" longitude="-109.48345" latitude="-42.15168"/>
<marker id="309223457" label="Gramsfoot Hurler" category="71" did="1879077420" parentZoneId="1879063919" longitude="-109.48345" latitude="-42.15168"/>
<marker id="309223458" label="Stout Gramsfoot" category="71" did="1879077421" parentZoneId="1879063919" longitude="-109.48345" latitude="-42.15168"/>
<marker id="309223459" label="Gramsfoot Waylayer" category="71" did="1879077418" parentZoneId="1879063919" longitude="-109.395805" latitude="-42.555614"/>
<marker id="309223460" label="Gramsfoot Scout" category="71" did="1879077419" parentZoneId="1879063919" longitude="-109.395805" latitude="-42.555614"/>
<marker id="309223461" label="Gramsfoot Hurler" category="71" did="1879077420" parentZoneId="1879063919" longitude="-109.395805" latitude="-42.555614"/>
<marker id="309223462" label="Stout Gramsfoot" category="71" did="1879077421" parentZoneId="1879063919" longitude="-109.395805" latitude="-42.555614"/>
<marker id="309223463" label="Gramsfoot Waylayer" category="71" did="1879077418" parentZoneId="1879063919" longitude="-109.47702" latitude="-42.552696"/>
<marker id="309223464" label="Gramsfoot Scout" category="71" did="1879077419" parentZoneId="1879063919" longitude="-109.47702" latitude="-42.552696"/>
<marker id="309223465" label="Gramsfoot Hurler" category="71" did="1879077420" parentZoneId="1879063919" longitude="-109.47702" latitude="-42.552696"/>
<marker id="309223466" label="Stout Gramsfoot" category="71" did="1879077421" parentZoneId="1879063919" longitude="-109.47702" latitude="-42.552696"/>
<marker id="309223467" label="Gramsfoot Waylayer" category="71" did="1879077418" parentZoneId="1879063919" longitude="-109.393745" latitude="-42.498188"/>
<marker id="309223468" label="Gramsfoot Scout" category="71" did="1879077419" parentZoneId="1879063919" longitude="-109.393745" latitude="-42.498188"/>
<marker id="309223469" label="Gramsfoot Hurler" category="71" did="1879077420" parentZoneId="1879063919" longitude="-109.393745" latitude="-42.498188"/>
<marker id="309223470" label="Stout Gramsfoot" category="71" did="1879077421" parentZoneId="1879063919" longitude="-109.393745" latitude="-42.498188"/>
<marker id="309223471" label="Gramsfoot Waylayer" category="71" did="1879077418" parentZoneId="1879063919" longitude="-109.47308" latitude="-42.48952"/>
<marker id="309223472" label="Gramsfoot Scout" category="71" did="1879077419" parentZoneId="1879063919" longitude="-109.47308" latitude="-42.48952"/>
<marker id="309223473" label="Gramsfoot Hurler" category="71" did="1879077420" parentZoneId="1879063919" longitude="-109.47308" latitude="-42.48952"/>
<marker id="309223474" label="Stout Gramsfoot" category="71" did="1879077421" parentZoneId="1879063919" longitude="-109.47308" latitude="-42.48952"/>
<marker id="309223475" label="Gramsfoot Waylayer" category="71" did="1879077418" parentZoneId="1879063919" longitude="-109.74596" latitude="-42.60946"/>
<marker id="309223476" label="Gramsfoot Scout" category="71" did="1879077419" parentZoneId="1879063919" longitude="-109.74596" latitude="-42.60946"/>
<marker id="309223477" label="Gramsfoot Hurler" category="71" did="1879077420" parentZoneId="1879063919" longitude="-109.74596" latitude="-42.60946"/>
<marker id="309223478" label="Stout Gramsfoot" category="71" did="1879077421" parentZoneId="1879063919" longitude="-109.74596" latitude="-42.60946"/>
<marker id="309223479" label="Gramsfoot Waylayer" category="71" did="1879077418" parentZoneId="1879063919" longitude="-109.820915" latitude="-42.605762"/>
<marker id="309223480" label="Gramsfoot Scout" category="71" did="1879077419" parentZoneId="1879063919" longitude="-109.820915" latitude="-42.605762"/>
<marker id="309223481" label="Gramsfoot Hurler" category="71" did="1879077420" parentZoneId="1879063919" longitude="-109.820915" latitude="-42.605762"/>
<marker id="309223482" label="Stout Gramsfoot" category="71" did="1879077421" parentZoneId="1879063919" longitude="-109.820915" latitude="-42.605762"/>
<marker id="309223483" label="Gramsfoot Waylayer" category="71" did="1879077418" parentZoneId="1879063919" longitude="-109.75085" latitude="-42.539413"/>
<marker id="309223484" label="Gramsfoot Scout" category="71" did="1879077419" parentZoneId="1879063919" longitude="-109.75085" latitude="-42.539413"/>
<marker id="309223485" label="Gramsfoot Hurler" category="71" did="1879077420" parentZoneId="1879063919" longitude="-109.75085" latitude="-42.539413"/>
<marker id="309223486" label="Stout Gramsfoot" category="71" did="1879077421" parentZoneId="1879063919" longitude="-109.75085" latitude="-42.539413"/>
<marker id="309223487" label="Gramsfoot Waylayer" category="71" did="1879077418" parentZoneId="1879063919" longitude="-109.81905" latitude="-42.533226"/>
<marker id="309223488" label="Gramsfoot Scout" category="71" did="1879077419" parentZoneId="1879063919" longitude="-109.81905" latitude="-42.533226"/>
<marker id="309223489" label="Gramsfoot Hurler" category="71" did="1879077420" parentZoneId="1879063919" longitude="-109.81905" latitude="-42.533226"/>
<marker id="309223490" label="Stout Gramsfoot" category="71" did="1879077421" parentZoneId="1879063919" longitude="-109.81905" latitude="-42.533226"/>
</markers>
