<?xml version="1.0" encoding="UTF-8"?><markers>
<marker id="1298137088" label="Fires of Orodruin" category="75" did="1879352998" parentZoneId="1879338150" longitude="20.339375" latitude="-47.404087"/>
<marker id="1298137089" label="Gorgoroth Wood" category="50" did="1879353888" parentZoneId="1879338150" longitude="20.022636" latitude="-47.11463"/>
<marker id="1298137090" label="Heavy Gorgoroth Wood" category="50" did="1879353889" parentZoneId="1879338150" longitude="20.022636" latitude="-47.11463"/>
<marker id="1298137091" label="Plateau Mole-rat" category="78" did="1879354686" parentZoneId="1879338150" longitude="20.04871" latitude="-47.118423"/>
<marker id="1298137092" label="Gorgoroth Crawler" category="78" did="1879354675" parentZoneId="1879338150" longitude="20.04871" latitude="-47.118423"/>
<marker id="1298137093" label="Ebon Serpent" category="78" did="1879354674" parentZoneId="1879338150" longitude="20.04871" latitude="-47.118423"/>
<marker id="1298137094" label="Gorgoroth Wormling" category="78" did="1879354678" parentZoneId="1879338150" longitude="20.04871" latitude="-47.118423"/>
<marker id="1298137095" label="Rock-worm" category="71" did="1879351441" parentZoneId="1879338150" longitude="20.036093" latitude="-47.1141"/>
<marker id="1298137096" label="Burrowing Rift-crawler" category="71" did="1879351442" parentZoneId="1879338150" longitude="20.036093" latitude="-47.1141"/>
<marker id="1298137097" label="Fire Grim" category="71" did="1879351444" parentZoneId="1879338150" longitude="20.036093" latitude="-47.1141"/>
<marker id="1298137098" label="Young Fire-drake" category="71" did="1879351445" parentZoneId="1879338150" longitude="20.036093" latitude="-47.1141"/>
<marker id="1298137099" label="Mordor Salamander" category="71" did="1879351446" parentZoneId="1879338150" longitude="20.036093" latitude="-47.1141"/>
<marker id="1298137100" label="Gorgoroth Artifact Chest" category="50" did="1879351072" parentZoneId="1879338150" longitude="20.022636" latitude="-47.11463"/>
<marker id="1298137101" label="Rich Gorgoroth Skarn Deposit" category="50" did="1879351068" parentZoneId="1879338150" longitude="20.022636" latitude="-47.11463"/>
<marker id="1298137102" label="Gorgoroth Skarn Deposit" category="50" did="1879351067" parentZoneId="1879338150" longitude="20.022636" latitude="-47.11463"/>
<marker id="1298137114" label="Obsidian Deposit" category="73" did="1879348491" parentZoneId="1879338150" longitude="20.378222" latitude="-47.42847"/>
<marker id="1298137115" label="Obsidian Deposit" category="73" did="1879348491" parentZoneId="1879338150" longitude="20.132246" latitude="-47.160435"/>
<marker id="1298137116" label="Obsidian Deposit" category="73" did="1879348491" parentZoneId="1879338150" longitude="19.732948" latitude="-47.40557"/>
<marker id="1298137117" label="Obsidian Deposit" category="73" did="1879348491" parentZoneId="1879338150" longitude="20.11131" latitude="-46.907303"/>
<marker id="1298137118" label="Obsidian Deposit" category="73" did="1879348491" parentZoneId="1879338150" longitude="20.332088" latitude="-46.95166"/>
<marker id="1298137119" label="Obsidian Deposit" category="73" did="1879348491" parentZoneId="1879338150" longitude="19.950684" latitude="-47.458576"/>
<marker id="1298137121" label="Rich Gorgoroth Skarn Deposit" category="50" did="1879351068" parentZoneId="1879338150" longitude="19.733965" latitude="-47.31409"/>
<marker id="1298137122" label="Gorgoroth Wood" category="50" did="1879353888" parentZoneId="1879338150" longitude="19.733965" latitude="-47.31409"/>
<marker id="1298137123" label="Heavy Gorgoroth Wood" category="50" did="1879353889" parentZoneId="1879338150" longitude="19.733965" latitude="-47.31409"/>
<marker id="1298137124" label="Gorgoroth Skarn Deposit" category="50" did="1879351067" parentZoneId="1879338150" longitude="19.733965" latitude="-47.31409"/>
<marker id="1298137125" label="Gorgoroth Artifact Chest" category="50" did="1879351072" parentZoneId="1879338150" longitude="19.733965" latitude="-47.31409"/>
<marker id="1298137126" label="Rich Gorgoroth Skarn Deposit" category="50" did="1879351068" parentZoneId="1879338150" longitude="19.78535" latitude="-46.954998"/>
<marker id="1298137127" label="Gorgoroth Wood" category="50" did="1879353888" parentZoneId="1879338150" longitude="19.78535" latitude="-46.954998"/>
<marker id="1298137128" label="Heavy Gorgoroth Wood" category="50" did="1879353889" parentZoneId="1879338150" longitude="19.78535" latitude="-46.954998"/>
<marker id="1298137129" label="Gorgoroth Skarn Deposit" category="50" did="1879351067" parentZoneId="1879338150" longitude="19.78535" latitude="-46.954998"/>
<marker id="1298137130" label="Gorgoroth Artifact Chest" category="50" did="1879351072" parentZoneId="1879338150" longitude="19.78535" latitude="-46.954998"/>
<marker id="1298137131" label="Rich Gorgoroth Skarn Deposit" category="50" did="1879351068" parentZoneId="1879338150" longitude="20.363651" latitude="-46.862713"/>
<marker id="1298137132" label="Gorgoroth Wood" category="50" did="1879353888" parentZoneId="1879338150" longitude="20.363651" latitude="-46.862713"/>
<marker id="1298137133" label="Heavy Gorgoroth Wood" category="50" did="1879353889" parentZoneId="1879338150" longitude="20.363651" latitude="-46.862713"/>
<marker id="1298137134" label="Gorgoroth Skarn Deposit" category="50" did="1879351067" parentZoneId="1879338150" longitude="20.363651" latitude="-46.862713"/>
<marker id="1298137135" label="Gorgoroth Artifact Chest" category="50" did="1879351072" parentZoneId="1879338150" longitude="20.363651" latitude="-46.862713"/>
<marker id="1298137136" label="Rich Gorgoroth Skarn Deposit" category="50" did="1879351068" parentZoneId="1879338150" longitude="19.801739" latitude="-47.16557"/>
<marker id="1298137137" label="Gorgoroth Wood" category="50" did="1879353888" parentZoneId="1879338150" longitude="19.801739" latitude="-47.16557"/>
<marker id="1298137138" label="Heavy Gorgoroth Wood" category="50" did="1879353889" parentZoneId="1879338150" longitude="19.801739" latitude="-47.16557"/>
<marker id="1298137139" label="Gorgoroth Skarn Deposit" category="50" did="1879351067" parentZoneId="1879338150" longitude="19.801739" latitude="-47.16557"/>
<marker id="1298137140" label="Gorgoroth Artifact Chest" category="50" did="1879351072" parentZoneId="1879338150" longitude="19.801739" latitude="-47.16557"/>
<marker id="1298137141" label="Rich Gorgoroth Skarn Deposit" category="50" did="1879351068" parentZoneId="1879338150" longitude="19.98713" latitude="-46.891155"/>
<marker id="1298137142" label="Gorgoroth Wood" category="50" did="1879353888" parentZoneId="1879338150" longitude="19.98713" latitude="-46.891155"/>
<marker id="1298137143" label="Heavy Gorgoroth Wood" category="50" did="1879353889" parentZoneId="1879338150" longitude="19.98713" latitude="-46.891155"/>
<marker id="1298137144" label="Gorgoroth Skarn Deposit" category="50" did="1879351067" parentZoneId="1879338150" longitude="19.98713" latitude="-46.891155"/>
<marker id="1298137145" label="Gorgoroth Artifact Chest" category="50" did="1879351072" parentZoneId="1879338150" longitude="19.98713" latitude="-46.891155"/>
<marker id="1298137146" label="Rich Gorgoroth Skarn Deposit" category="50" did="1879351068" parentZoneId="1879338150" longitude="20.298203" latitude="-46.830063"/>
<marker id="1298137147" label="Gorgoroth Wood" category="50" did="1879353888" parentZoneId="1879338150" longitude="20.298203" latitude="-46.830063"/>
<marker id="1298137148" label="Heavy Gorgoroth Wood" category="50" did="1879353889" parentZoneId="1879338150" longitude="20.298203" latitude="-46.830063"/>
<marker id="1298137149" label="Gorgoroth Skarn Deposit" category="50" did="1879351067" parentZoneId="1879338150" longitude="20.298203" latitude="-46.830063"/>
<marker id="1298137150" label="Gorgoroth Artifact Chest" category="50" did="1879351072" parentZoneId="1879338150" longitude="20.298203" latitude="-46.830063"/>
<marker id="1298137151" label="Plateau Mole-rat" category="78" did="1879354686" parentZoneId="1879338150" longitude="19.912441" latitude="-46.894413"/>
<marker id="1298137152" label="Gorgoroth Crawler" category="78" did="1879354675" parentZoneId="1879338150" longitude="19.912441" latitude="-46.894413"/>
<marker id="1298137153" label="Ebon Serpent" category="78" did="1879354674" parentZoneId="1879338150" longitude="19.912441" latitude="-46.894413"/>
<marker id="1298137154" label="Gorgoroth Wormling" category="78" did="1879354678" parentZoneId="1879338150" longitude="19.912441" latitude="-46.894413"/>
<marker id="1298137155" label="Plateau Mole-rat" category="78" did="1879354686" parentZoneId="1879338150" longitude="20.041582" latitude="-47.113358"/>
<marker id="1298137156" label="Gorgoroth Crawler" category="78" did="1879354675" parentZoneId="1879338150" longitude="20.041582" latitude="-47.113358"/>
<marker id="1298137157" label="Ebon Serpent" category="78" did="1879354674" parentZoneId="1879338150" longitude="20.041582" latitude="-47.113358"/>
<marker id="1298137158" label="Gorgoroth Wormling" category="78" did="1879354678" parentZoneId="1879338150" longitude="20.041582" latitude="-47.113358"/>
<marker id="1298137159" label="Plateau Mole-rat" category="78" did="1879354686" parentZoneId="1879338150" longitude="19.847168" latitude="-47.233906"/>
<marker id="1298137160" label="Gorgoroth Crawler" category="78" did="1879354675" parentZoneId="1879338150" longitude="19.847168" latitude="-47.233906"/>
<marker id="1298137161" label="Ebon Serpent" category="78" did="1879354674" parentZoneId="1879338150" longitude="19.847168" latitude="-47.233906"/>
<marker id="1298137162" label="Gorgoroth Wormling" category="78" did="1879354678" parentZoneId="1879338150" longitude="19.847168" latitude="-47.233906"/>
<marker id="1298137163" label="Plateau Mole-rat" category="78" did="1879354686" parentZoneId="1879338150" longitude="20.021503" latitude="-47.508327"/>
<marker id="1298137164" label="Gorgoroth Crawler" category="78" did="1879354675" parentZoneId="1879338150" longitude="20.021503" latitude="-47.508327"/>
<marker id="1298137165" label="Ebon Serpent" category="78" did="1879354674" parentZoneId="1879338150" longitude="20.021503" latitude="-47.508327"/>
<marker id="1298137166" label="Gorgoroth Wormling" category="78" did="1879354678" parentZoneId="1879338150" longitude="20.021503" latitude="-47.508327"/>
<marker id="1298137167" label="Rabid Ruins-bat" category="71" did="1879346456" parentZoneId="1879338150" longitude="20.058027" latitude="-47.51127"/>
<marker id="1298137168" label="Dire-horn" category="71" did="1879346458" parentZoneId="1879338150" longitude="20.058027" latitude="-47.51127"/>
<marker id="1298137169" label="Grangáth" category="71" did="1879346536" parentZoneId="1879338150" longitude="20.058027" latitude="-47.51127"/>
<marker id="1298137170" label="Rock-worm" category="71" did="1879351441" parentZoneId="1879338150" longitude="20.058027" latitude="-47.51127"/>
<marker id="1298137171" label="Blighted Marsh-lurker" category="71" did="1879342409" parentZoneId="1879338150" longitude="20.058027" latitude="-47.51127"/>
<marker id="1298137172" label="Burrowing Rift-crawler" category="71" did="1879351442" parentZoneId="1879338150" longitude="20.058027" latitude="-47.51127"/>
<marker id="1298137173" label="Great-bat" category="71" did="1879346450" parentZoneId="1879338150" longitude="20.058027" latitude="-47.51127"/>
<marker id="1298137174" label="Sûlok" category="71" did="1879346465" parentZoneId="1879338150" longitude="20.058027" latitude="-47.51127"/>
<marker id="1298137175" label="Fire Grim" category="71" did="1879351444" parentZoneId="1879338150" longitude="20.058027" latitude="-47.51127"/>
<marker id="1298137176" label="Young Fire-drake" category="71" did="1879351445" parentZoneId="1879338150" longitude="20.058027" latitude="-47.51127"/>
<marker id="1298137177" label="Ulurgroth" category="71" did="1879346545" parentZoneId="1879338150" longitude="20.058027" latitude="-47.51127"/>
<marker id="1298137178" label="Mordor Salamander" category="71" did="1879351446" parentZoneId="1879338150" longitude="20.058027" latitude="-47.51127"/>
<marker id="1298137179" label="Rabid Ruins-bat" category="71" did="1879346456" parentZoneId="1879338150" longitude="20.055859" latitude="-46.967392"/>
<marker id="1298137180" label="Dire-horn" category="71" did="1879346458" parentZoneId="1879338150" longitude="20.055859" latitude="-46.967392"/>
<marker id="1298137181" label="Grangáth" category="71" did="1879346536" parentZoneId="1879338150" longitude="20.055859" latitude="-46.967392"/>
<marker id="1298137182" label="Rock-worm" category="71" did="1879351441" parentZoneId="1879338150" longitude="20.055859" latitude="-46.967392"/>
<marker id="1298137183" label="Blighted Marsh-lurker" category="71" did="1879342409" parentZoneId="1879338150" longitude="20.055859" latitude="-46.967392"/>
<marker id="1298137184" label="Burrowing Rift-crawler" category="71" did="1879351442" parentZoneId="1879338150" longitude="20.055859" latitude="-46.967392"/>
<marker id="1298137185" label="Great-bat" category="71" did="1879346450" parentZoneId="1879338150" longitude="20.055859" latitude="-46.967392"/>
<marker id="1298137186" label="Sûlok" category="71" did="1879346465" parentZoneId="1879338150" longitude="20.055859" latitude="-46.967392"/>
<marker id="1298137187" label="Fire Grim" category="71" did="1879351444" parentZoneId="1879338150" longitude="20.055859" latitude="-46.967392"/>
<marker id="1298137188" label="Young Fire-drake" category="71" did="1879351445" parentZoneId="1879338150" longitude="20.055859" latitude="-46.967392"/>
<marker id="1298137189" label="Ulurgroth" category="71" did="1879346545" parentZoneId="1879338150" longitude="20.055859" latitude="-46.967392"/>
<marker id="1298137190" label="Mordor Salamander" category="71" did="1879351446" parentZoneId="1879338150" longitude="20.055859" latitude="-46.967392"/>
<marker id="1298137191" label="Rabid Ruins-bat" category="71" did="1879346456" parentZoneId="1879338150" longitude="19.842695" latitude="-46.889336"/>
<marker id="1298137192" label="Dire-horn" category="71" did="1879346458" parentZoneId="1879338150" longitude="19.842695" latitude="-46.889336"/>
<marker id="1298137193" label="Grangáth" category="71" did="1879346536" parentZoneId="1879338150" longitude="19.842695" latitude="-46.889336"/>
<marker id="1298137194" label="Rock-worm" category="71" did="1879351441" parentZoneId="1879338150" longitude="19.842695" latitude="-46.889336"/>
<marker id="1298137195" label="Blighted Marsh-lurker" category="71" did="1879342409" parentZoneId="1879338150" longitude="19.842695" latitude="-46.889336"/>
<marker id="1298137196" label="Burrowing Rift-crawler" category="71" did="1879351442" parentZoneId="1879338150" longitude="19.842695" latitude="-46.889336"/>
<marker id="1298137197" label="Great-bat" category="71" did="1879346450" parentZoneId="1879338150" longitude="19.842695" latitude="-46.889336"/>
<marker id="1298137198" label="Sûlok" category="71" did="1879346465" parentZoneId="1879338150" longitude="19.842695" latitude="-46.889336"/>
<marker id="1298137199" label="Fire Grim" category="71" did="1879351444" parentZoneId="1879338150" longitude="19.842695" latitude="-46.889336"/>
<marker id="1298137200" label="Young Fire-drake" category="71" did="1879351445" parentZoneId="1879338150" longitude="19.842695" latitude="-46.889336"/>
<marker id="1298137201" label="Ulurgroth" category="71" did="1879346545" parentZoneId="1879338150" longitude="19.842695" latitude="-46.889336"/>
<marker id="1298137202" label="Mordor Salamander" category="71" did="1879351446" parentZoneId="1879338150" longitude="19.842695" latitude="-46.889336"/>
<marker id="1298137203" label="Rabid Ruins-bat" category="71" did="1879346456" parentZoneId="1879338150" longitude="19.884413" latitude="-47.085213"/>
<marker id="1298137204" label="Dire-horn" category="71" did="1879346458" parentZoneId="1879338150" longitude="19.884413" latitude="-47.085213"/>
<marker id="1298137205" label="Grangáth" category="71" did="1879346536" parentZoneId="1879338150" longitude="19.884413" latitude="-47.085213"/>
<marker id="1298137206" label="Rock-worm" category="71" did="1879351441" parentZoneId="1879338150" longitude="19.884413" latitude="-47.085213"/>
<marker id="1298137207" label="Blighted Marsh-lurker" category="71" did="1879342409" parentZoneId="1879338150" longitude="19.884413" latitude="-47.085213"/>
<marker id="1298137208" label="Burrowing Rift-crawler" category="71" did="1879351442" parentZoneId="1879338150" longitude="19.884413" latitude="-47.085213"/>
<marker id="1298137209" label="Great-bat" category="71" did="1879346450" parentZoneId="1879338150" longitude="19.884413" latitude="-47.085213"/>
<marker id="1298137210" label="Sûlok" category="71" did="1879346465" parentZoneId="1879338150" longitude="19.884413" latitude="-47.085213"/>
<marker id="1298137211" label="Fire Grim" category="71" did="1879351444" parentZoneId="1879338150" longitude="19.884413" latitude="-47.085213"/>
<marker id="1298137212" label="Young Fire-drake" category="71" did="1879351445" parentZoneId="1879338150" longitude="19.884413" latitude="-47.085213"/>
<marker id="1298137213" label="Ulurgroth" category="71" did="1879346545" parentZoneId="1879338150" longitude="19.884413" latitude="-47.085213"/>
<marker id="1298137214" label="Mordor Salamander" category="71" did="1879351446" parentZoneId="1879338150" longitude="19.884413" latitude="-47.085213"/>
<marker id="1298137215" label="Rabid Ruins-bat" category="71" did="1879346456" parentZoneId="1879338150" longitude="19.698027" latitude="-47.23833"/>
<marker id="1298137216" label="Dire-horn" category="71" did="1879346458" parentZoneId="1879338150" longitude="19.698027" latitude="-47.23833"/>
<marker id="1298137217" label="Grangáth" category="71" did="1879346536" parentZoneId="1879338150" longitude="19.698027" latitude="-47.23833"/>
<marker id="1298137218" label="Rock-worm" category="71" did="1879351441" parentZoneId="1879338150" longitude="19.698027" latitude="-47.23833"/>
<marker id="1298137219" label="Blighted Marsh-lurker" category="71" did="1879342409" parentZoneId="1879338150" longitude="19.698027" latitude="-47.23833"/>
<marker id="1298137220" label="Burrowing Rift-crawler" category="71" did="1879351442" parentZoneId="1879338150" longitude="19.698027" latitude="-47.23833"/>
<marker id="1298137221" label="Great-bat" category="71" did="1879346450" parentZoneId="1879338150" longitude="19.698027" latitude="-47.23833"/>
<marker id="1298137222" label="Sûlok" category="71" did="1879346465" parentZoneId="1879338150" longitude="19.698027" latitude="-47.23833"/>
<marker id="1298137223" label="Fire Grim" category="71" did="1879351444" parentZoneId="1879338150" longitude="19.698027" latitude="-47.23833"/>
<marker id="1298137224" label="Young Fire-drake" category="71" did="1879351445" parentZoneId="1879338150" longitude="19.698027" latitude="-47.23833"/>
<marker id="1298137225" label="Ulurgroth" category="71" did="1879346545" parentZoneId="1879338150" longitude="19.698027" latitude="-47.23833"/>
<marker id="1298137226" label="Mordor Salamander" category="71" did="1879351446" parentZoneId="1879338150" longitude="19.698027" latitude="-47.23833"/>
<marker id="1298141184" label="Plateau Mole-rat" category="78" did="1879354686" parentZoneId="1879338150" longitude="20.172987" latitude="-46.184994"/>
<marker id="1298141185" label="Gorgoroth Crawler" category="78" did="1879354675" parentZoneId="1879338150" longitude="20.172987" latitude="-46.184994"/>
<marker id="1298141186" label="Ebon Serpent" category="78" did="1879354674" parentZoneId="1879338150" longitude="20.172987" latitude="-46.184994"/>
<marker id="1298141187" label="Gorgoroth Wormling" category="78" did="1879354678" parentZoneId="1879338150" longitude="20.172987" latitude="-46.184994"/>
<marker id="1298141188" label="Rock-worm" category="71" did="1879351441" parentZoneId="1879338150" longitude="20.16039" latitude="-46.18068"/>
<marker id="1298141189" label="Burrowing Rift-crawler" category="71" did="1879351442" parentZoneId="1879338150" longitude="20.16039" latitude="-46.18068"/>
<marker id="1298141190" label="Fire Grim" category="71" did="1879351444" parentZoneId="1879338150" longitude="20.16039" latitude="-46.18068"/>
<marker id="1298141191" label="Young Fire-drake" category="71" did="1879351445" parentZoneId="1879338150" longitude="20.16039" latitude="-46.18068"/>
<marker id="1298141192" label="Mordor Salamander" category="71" did="1879351446" parentZoneId="1879338150" longitude="20.16039" latitude="-46.18068"/>
<marker id="1298141193" label="Sûlok" category="71" did="1879346465" parentZoneId="1879338150" longitude="20.16039" latitude="-46.18068"/>
<marker id="1298141194" label="Rabid Ruins-bat" category="71" did="1879346456" parentZoneId="1879338150" longitude="20.16039" latitude="-46.18068"/>
<marker id="1298141195" label="Dire-horn" category="71" did="1879346458" parentZoneId="1879338150" longitude="20.16039" latitude="-46.18068"/>
<marker id="1298141196" label="Great-bat" category="71" did="1879346450" parentZoneId="1879338150" longitude="20.16039" latitude="-46.18068"/>
<marker id="1298141200" label="Tent" category="73" did="1879346826" parentZoneId="1879338150" longitude="20.147793" latitude="-46.000244"/>
<marker id="1298141201" label="Rubble" category="73" did="1879346818" parentZoneId="1879338150" longitude="20.110664" latitude="-46.016365"/>
<marker id="1298141202" label="Plateau Mole-rat" category="78" did="1879354686" parentZoneId="1879338150" longitude="20.14164" latitude="-46.175312"/>
<marker id="1298141203" label="Gorgoroth Crawler" category="78" did="1879354675" parentZoneId="1879338150" longitude="20.14164" latitude="-46.175312"/>
<marker id="1298141204" label="Ebon Serpent" category="78" did="1879354674" parentZoneId="1879338150" longitude="20.14164" latitude="-46.175312"/>
<marker id="1298141205" label="Gorgoroth Wormling" category="78" did="1879354678" parentZoneId="1879338150" longitude="20.14164" latitude="-46.175312"/>
<marker id="1298141206" label="Plateau Mole-rat" category="78" did="1879354686" parentZoneId="1879338150" longitude="20.329062" latitude="-46.686317"/>
<marker id="1298141207" label="Gorgoroth Crawler" category="78" did="1879354675" parentZoneId="1879338150" longitude="20.329062" latitude="-46.686317"/>
<marker id="1298141208" label="Ebon Serpent" category="78" did="1879354674" parentZoneId="1879338150" longitude="20.329062" latitude="-46.686317"/>
<marker id="1298141209" label="Gorgoroth Wormling" category="78" did="1879354678" parentZoneId="1879338150" longitude="20.329062" latitude="-46.686317"/>
<marker id="1298141210" label="Plateau Mole-rat" category="78" did="1879354686" parentZoneId="1879338150" longitude="19.876972" latitude="-46.676727"/>
<marker id="1298141211" label="Gorgoroth Crawler" category="78" did="1879354675" parentZoneId="1879338150" longitude="19.876972" latitude="-46.676727"/>
<marker id="1298141212" label="Ebon Serpent" category="78" did="1879354674" parentZoneId="1879338150" longitude="19.876972" latitude="-46.676727"/>
<marker id="1298141213" label="Gorgoroth Wormling" category="78" did="1879354678" parentZoneId="1879338150" longitude="19.876972" latitude="-46.676727"/>
<marker id="1298141214" label="Plateau Mole-rat" category="78" did="1879354686" parentZoneId="1879338150" longitude="19.82289" latitude="-46.30734"/>
<marker id="1298141215" label="Gorgoroth Crawler" category="78" did="1879354675" parentZoneId="1879338150" longitude="19.82289" latitude="-46.30734"/>
<marker id="1298141216" label="Ebon Serpent" category="78" did="1879354674" parentZoneId="1879338150" longitude="19.82289" latitude="-46.30734"/>
<marker id="1298141217" label="Gorgoroth Wormling" category="78" did="1879354678" parentZoneId="1879338150" longitude="19.82289" latitude="-46.30734"/>
<marker id="1298141218" label="Rabid Ruins-bat" category="71" did="1879346456" parentZoneId="1879338150" longitude="20.178574" latitude="-46.151096"/>
<marker id="1298141219" label="Dire-horn" category="71" did="1879346458" parentZoneId="1879338150" longitude="20.178574" latitude="-46.151096"/>
<marker id="1298141220" label="Grangáth" category="71" did="1879346536" parentZoneId="1879338150" longitude="20.178574" latitude="-46.151096"/>
<marker id="1298141221" label="Rock-worm" category="71" did="1879351441" parentZoneId="1879338150" longitude="20.178574" latitude="-46.151096"/>
<marker id="1298141222" label="Blighted Marsh-lurker" category="71" did="1879342409" parentZoneId="1879338150" longitude="20.178574" latitude="-46.151096"/>
<marker id="1298141223" label="Burrowing Rift-crawler" category="71" did="1879351442" parentZoneId="1879338150" longitude="20.178574" latitude="-46.151096"/>
<marker id="1298141224" label="Great-bat" category="71" did="1879346450" parentZoneId="1879338150" longitude="20.178574" latitude="-46.151096"/>
<marker id="1298141225" label="Sûlok" category="71" did="1879346465" parentZoneId="1879338150" longitude="20.178574" latitude="-46.151096"/>
<marker id="1298141226" label="Fire Grim" category="71" did="1879351444" parentZoneId="1879338150" longitude="20.178574" latitude="-46.151096"/>
<marker id="1298141227" label="Young Fire-drake" category="71" did="1879351445" parentZoneId="1879338150" longitude="20.178574" latitude="-46.151096"/>
<marker id="1298141228" label="Ulurgroth" category="71" did="1879346545" parentZoneId="1879338150" longitude="20.178574" latitude="-46.151096"/>
<marker id="1298141229" label="Mordor Salamander" category="71" did="1879351446" parentZoneId="1879338150" longitude="20.178574" latitude="-46.151096"/>
<marker id="1298141230" label="Rabid Ruins-bat" category="71" did="1879346456" parentZoneId="1879338150" longitude="19.731915" latitude="-46.089993"/>
<marker id="1298141231" label="Dire-horn" category="71" did="1879346458" parentZoneId="1879338150" longitude="19.731915" latitude="-46.089993"/>
<marker id="1298141232" label="Grangáth" category="71" did="1879346536" parentZoneId="1879338150" longitude="19.731915" latitude="-46.089993"/>
<marker id="1298141233" label="Rock-worm" category="71" did="1879351441" parentZoneId="1879338150" longitude="19.731915" latitude="-46.089993"/>
<marker id="1298141234" label="Blighted Marsh-lurker" category="71" did="1879342409" parentZoneId="1879338150" longitude="19.731915" latitude="-46.089993"/>
<marker id="1298141235" label="Burrowing Rift-crawler" category="71" did="1879351442" parentZoneId="1879338150" longitude="19.731915" latitude="-46.089993"/>
<marker id="1298141236" label="Great-bat" category="71" did="1879346450" parentZoneId="1879338150" longitude="19.731915" latitude="-46.089993"/>
<marker id="1298141237" label="Sûlok" category="71" did="1879346465" parentZoneId="1879338150" longitude="19.731915" latitude="-46.089993"/>
<marker id="1298141238" label="Fire Grim" category="71" did="1879351444" parentZoneId="1879338150" longitude="19.731915" latitude="-46.089993"/>
<marker id="1298141239" label="Young Fire-drake" category="71" did="1879351445" parentZoneId="1879338150" longitude="19.731915" latitude="-46.089993"/>
<marker id="1298141240" label="Ulurgroth" category="71" did="1879346545" parentZoneId="1879338150" longitude="19.731915" latitude="-46.089993"/>
<marker id="1298141241" label="Mordor Salamander" category="71" did="1879351446" parentZoneId="1879338150" longitude="19.731915" latitude="-46.089993"/>
<marker id="1298141242" label="Rabid Ruins-bat" category="71" did="1879346456" parentZoneId="1879338150" longitude="19.81369" latitude="-46.288555"/>
<marker id="1298141243" label="Dire-horn" category="71" did="1879346458" parentZoneId="1879338150" longitude="19.81369" latitude="-46.288555"/>
<marker id="1298141244" label="Grangáth" category="71" did="1879346536" parentZoneId="1879338150" longitude="19.81369" latitude="-46.288555"/>
<marker id="1298141245" label="Rock-worm" category="71" did="1879351441" parentZoneId="1879338150" longitude="19.81369" latitude="-46.288555"/>
<marker id="1298141246" label="Blighted Marsh-lurker" category="71" did="1879342409" parentZoneId="1879338150" longitude="19.81369" latitude="-46.288555"/>
<marker id="1298141247" label="Burrowing Rift-crawler" category="71" did="1879351442" parentZoneId="1879338150" longitude="19.81369" latitude="-46.288555"/>
<marker id="1298141248" label="Great-bat" category="71" did="1879346450" parentZoneId="1879338150" longitude="19.81369" latitude="-46.288555"/>
<marker id="1298141249" label="Sûlok" category="71" did="1879346465" parentZoneId="1879338150" longitude="19.81369" latitude="-46.288555"/>
<marker id="1298141250" label="Fire Grim" category="71" did="1879351444" parentZoneId="1879338150" longitude="19.81369" latitude="-46.288555"/>
<marker id="1298141251" label="Young Fire-drake" category="71" did="1879351445" parentZoneId="1879338150" longitude="19.81369" latitude="-46.288555"/>
<marker id="1298141252" label="Ulurgroth" category="71" did="1879346545" parentZoneId="1879338150" longitude="19.81369" latitude="-46.288555"/>
<marker id="1298141253" label="Mordor Salamander" category="71" did="1879351446" parentZoneId="1879338150" longitude="19.81369" latitude="-46.288555"/>
<marker id="1298141254" label="Rabid Ruins-bat" category="71" did="1879346456" parentZoneId="1879338150" longitude="19.879452" latitude="-46.522343"/>
<marker id="1298141255" label="Dire-horn" category="71" did="1879346458" parentZoneId="1879338150" longitude="19.879452" latitude="-46.522343"/>
<marker id="1298141256" label="Grangáth" category="71" did="1879346536" parentZoneId="1879338150" longitude="19.879452" latitude="-46.522343"/>
<marker id="1298141257" label="Rock-worm" category="71" did="1879351441" parentZoneId="1879338150" longitude="19.879452" latitude="-46.522343"/>
<marker id="1298141258" label="Blighted Marsh-lurker" category="71" did="1879342409" parentZoneId="1879338150" longitude="19.879452" latitude="-46.522343"/>
<marker id="1298141259" label="Burrowing Rift-crawler" category="71" did="1879351442" parentZoneId="1879338150" longitude="19.879452" latitude="-46.522343"/>
<marker id="1298141260" label="Great-bat" category="71" did="1879346450" parentZoneId="1879338150" longitude="19.879452" latitude="-46.522343"/>
<marker id="1298141261" label="Sûlok" category="71" did="1879346465" parentZoneId="1879338150" longitude="19.879452" latitude="-46.522343"/>
<marker id="1298141262" label="Fire Grim" category="71" did="1879351444" parentZoneId="1879338150" longitude="19.879452" latitude="-46.522343"/>
<marker id="1298141263" label="Young Fire-drake" category="71" did="1879351445" parentZoneId="1879338150" longitude="19.879452" latitude="-46.522343"/>
<marker id="1298141264" label="Ulurgroth" category="71" did="1879346545" parentZoneId="1879338150" longitude="19.879452" latitude="-46.522343"/>
<marker id="1298141265" label="Mordor Salamander" category="71" did="1879351446" parentZoneId="1879338150" longitude="19.879452" latitude="-46.522343"/>
<marker id="1298141266" label="Rabid Ruins-bat" category="71" did="1879346456" parentZoneId="1879338150" longitude="19.86418" latitude="-46.719135"/>
<marker id="1298141267" label="Dire-horn" category="71" did="1879346458" parentZoneId="1879338150" longitude="19.86418" latitude="-46.719135"/>
<marker id="1298141268" label="Grangáth" category="71" did="1879346536" parentZoneId="1879338150" longitude="19.86418" latitude="-46.719135"/>
<marker id="1298141269" label="Rock-worm" category="71" did="1879351441" parentZoneId="1879338150" longitude="19.86418" latitude="-46.719135"/>
<marker id="1298141270" label="Blighted Marsh-lurker" category="71" did="1879342409" parentZoneId="1879338150" longitude="19.86418" latitude="-46.719135"/>
<marker id="1298141271" label="Burrowing Rift-crawler" category="71" did="1879351442" parentZoneId="1879338150" longitude="19.86418" latitude="-46.719135"/>
<marker id="1298141272" label="Great-bat" category="71" did="1879346450" parentZoneId="1879338150" longitude="19.86418" latitude="-46.719135"/>
<marker id="1298141273" label="Sûlok" category="71" did="1879346465" parentZoneId="1879338150" longitude="19.86418" latitude="-46.719135"/>
<marker id="1298141274" label="Fire Grim" category="71" did="1879351444" parentZoneId="1879338150" longitude="19.86418" latitude="-46.719135"/>
<marker id="1298141275" label="Young Fire-drake" category="71" did="1879351445" parentZoneId="1879338150" longitude="19.86418" latitude="-46.719135"/>
<marker id="1298141276" label="Ulurgroth" category="71" did="1879346545" parentZoneId="1879338150" longitude="19.86418" latitude="-46.719135"/>
<marker id="1298141277" label="Mordor Salamander" category="71" did="1879351446" parentZoneId="1879338150" longitude="19.86418" latitude="-46.719135"/>
<marker id="1298141278" label="Rabid Ruins-bat" category="71" did="1879346456" parentZoneId="1879338150" longitude="20.329512" latitude="-46.725365"/>
<marker id="1298141279" label="Dire-horn" category="71" did="1879346458" parentZoneId="1879338150" longitude="20.329512" latitude="-46.725365"/>
<marker id="1298141280" label="Grangáth" category="71" did="1879346536" parentZoneId="1879338150" longitude="20.329512" latitude="-46.725365"/>
<marker id="1298141281" label="Rock-worm" category="71" did="1879351441" parentZoneId="1879338150" longitude="20.329512" latitude="-46.725365"/>
<marker id="1298141282" label="Blighted Marsh-lurker" category="71" did="1879342409" parentZoneId="1879338150" longitude="20.329512" latitude="-46.725365"/>
<marker id="1298141283" label="Burrowing Rift-crawler" category="71" did="1879351442" parentZoneId="1879338150" longitude="20.329512" latitude="-46.725365"/>
<marker id="1298141284" label="Great-bat" category="71" did="1879346450" parentZoneId="1879338150" longitude="20.329512" latitude="-46.725365"/>
<marker id="1298141285" label="Sûlok" category="71" did="1879346465" parentZoneId="1879338150" longitude="20.329512" latitude="-46.725365"/>
<marker id="1298141286" label="Fire Grim" category="71" did="1879351444" parentZoneId="1879338150" longitude="20.329512" latitude="-46.725365"/>
<marker id="1298141287" label="Young Fire-drake" category="71" did="1879351445" parentZoneId="1879338150" longitude="20.329512" latitude="-46.725365"/>
<marker id="1298141288" label="Ulurgroth" category="71" did="1879346545" parentZoneId="1879338150" longitude="20.329512" latitude="-46.725365"/>
<marker id="1298141289" label="Mordor Salamander" category="71" did="1879351446" parentZoneId="1879338150" longitude="20.329512" latitude="-46.725365"/>
<marker id="1298145280" label="Mordor Warrior" category="71" did="1879346598" parentZoneId="1879338150" longitude="20.126093" latitude="-45.947914"/>
<marker id="1298145281" label="Mordor Archer" category="71" did="1879346597" parentZoneId="1879338150" longitude="20.162207" latitude="-45.991966"/>
<marker id="1298145282" label="Mordor Defiler" category="71" did="1879346575" parentZoneId="1879338150" longitude="20.196346" latitude="-45.970486"/>
<marker id="1298145283" label="Gorgoroth Wood" category="50" did="1879353888" parentZoneId="1879338150" longitude="19.892284" latitude="-45.59934"/>
<marker id="1298145284" label="Heavy Gorgoroth Wood" category="50" did="1879353889" parentZoneId="1879338150" longitude="19.892284" latitude="-45.59934"/>
<marker id="1298145285" label="Plateau Mole-rat" category="78" did="1879354686" parentZoneId="1879338150" longitude="19.918339" latitude="-45.60313"/>
<marker id="1298145286" label="Gorgoroth Crawler" category="78" did="1879354675" parentZoneId="1879338150" longitude="19.918339" latitude="-45.60313"/>
<marker id="1298145287" label="Ebon Serpent" category="78" did="1879354674" parentZoneId="1879338150" longitude="19.918339" latitude="-45.60313"/>
<marker id="1298145288" label="Gorgoroth Wormling" category="78" did="1879354678" parentZoneId="1879338150" longitude="19.918339" latitude="-45.60313"/>
<marker id="1298145289" label="Rock-worm" category="71" did="1879351441" parentZoneId="1879338150" longitude="19.905743" latitude="-45.598812"/>
<marker id="1298145290" label="Burrowing Rift-crawler" category="71" did="1879351442" parentZoneId="1879338150" longitude="19.905743" latitude="-45.598812"/>
<marker id="1298145291" label="Young Fire-drake" category="71" did="1879351445" parentZoneId="1879338150" longitude="19.905743" latitude="-45.598812"/>
<marker id="1298145292" label="Mordor Salamander" category="71" did="1879351446" parentZoneId="1879338150" longitude="19.905743" latitude="-45.598812"/>
<marker id="1298145293" label="Gorgoroth Artifact Chest" category="50" did="1879351072" parentZoneId="1879338150" longitude="19.892284" latitude="-45.59934"/>
<marker id="1298145294" label="Rich Gorgoroth Skarn Deposit" category="50" did="1879351068" parentZoneId="1879338150" longitude="19.892284" latitude="-45.59934"/>
<marker id="1298145295" label="Gorgoroth Skarn Deposit" category="50" did="1879351067" parentZoneId="1879338150" longitude="19.892284" latitude="-45.59934"/>
<marker id="1298145296" label="Sûlok" category="71" did="1879346465" parentZoneId="1879338150" longitude="19.905743" latitude="-45.598812"/>
<marker id="1298145297" label="Rabid Ruins-bat" category="71" did="1879346456" parentZoneId="1879338150" longitude="19.905743" latitude="-45.598812"/>
<marker id="1298145298" label="Dire-horn" category="71" did="1879346458" parentZoneId="1879338150" longitude="19.905743" latitude="-45.598812"/>
<marker id="1298145299" label="Great-bat" category="71" did="1879346450" parentZoneId="1879338150" longitude="19.905743" latitude="-45.598812"/>
<marker id="1298145301" label="Tent" category="73" did="1879346826" parentZoneId="1879338150" longitude="20.114687" latitude="-45.96241"/>
<marker id="1298145302" label="Rich Gorgoroth Skarn Deposit" category="50" did="1879351068" parentZoneId="1879338150" longitude="19.762383" latitude="-45.288612"/>
<marker id="1298145303" label="Gorgoroth Wood" category="50" did="1879353888" parentZoneId="1879338150" longitude="19.762383" latitude="-45.288612"/>
<marker id="1298145304" label="Heavy Gorgoroth Wood" category="50" did="1879353889" parentZoneId="1879338150" longitude="19.762383" latitude="-45.288612"/>
<marker id="1298145305" label="Gorgoroth Skarn Deposit" category="50" did="1879351067" parentZoneId="1879338150" longitude="19.762383" latitude="-45.288612"/>
<marker id="1298145306" label="Gorgoroth Artifact Chest" category="50" did="1879351072" parentZoneId="1879338150" longitude="19.762383" latitude="-45.288612"/>
<marker id="1298145307" label="Rich Gorgoroth Skarn Deposit" category="50" did="1879351068" parentZoneId="1879338150" longitude="19.660976" latitude="-45.615986"/>
<marker id="1298145308" label="Gorgoroth Wood" category="50" did="1879353888" parentZoneId="1879338150" longitude="19.660976" latitude="-45.615986"/>
<marker id="1298145309" label="Heavy Gorgoroth Wood" category="50" did="1879353889" parentZoneId="1879338150" longitude="19.660976" latitude="-45.615986"/>
<marker id="1298145310" label="Gorgoroth Skarn Deposit" category="50" did="1879351067" parentZoneId="1879338150" longitude="19.660976" latitude="-45.615986"/>
<marker id="1298145311" label="Gorgoroth Artifact Chest" category="50" did="1879351072" parentZoneId="1879338150" longitude="19.660976" latitude="-45.615986"/>
<marker id="1298145312" label="Rich Gorgoroth Skarn Deposit" category="50" did="1879351068" parentZoneId="1879338150" longitude="20.013885" latitude="-45.621113"/>
<marker id="1298145313" label="Gorgoroth Wood" category="50" did="1879353888" parentZoneId="1879338150" longitude="20.013885" latitude="-45.621113"/>
<marker id="1298145314" label="Heavy Gorgoroth Wood" category="50" did="1879353889" parentZoneId="1879338150" longitude="20.013885" latitude="-45.621113"/>
<marker id="1298145315" label="Gorgoroth Skarn Deposit" category="50" did="1879351067" parentZoneId="1879338150" longitude="20.013885" latitude="-45.621113"/>
<marker id="1298145316" label="Gorgoroth Artifact Chest" category="50" did="1879351072" parentZoneId="1879338150" longitude="20.013885" latitude="-45.621113"/>
<marker id="1298145317" label="Rich Gorgoroth Skarn Deposit" category="50" did="1879351068" parentZoneId="1879338150" longitude="20.070312" latitude="-45.86121"/>
<marker id="1298145318" label="Gorgoroth Wood" category="50" did="1879353888" parentZoneId="1879338150" longitude="20.070312" latitude="-45.86121"/>
<marker id="1298145319" label="Heavy Gorgoroth Wood" category="50" did="1879353889" parentZoneId="1879338150" longitude="20.070312" latitude="-45.86121"/>
<marker id="1298145320" label="Gorgoroth Skarn Deposit" category="50" did="1879351067" parentZoneId="1879338150" longitude="20.070312" latitude="-45.86121"/>
<marker id="1298145321" label="Gorgoroth Artifact Chest" category="50" did="1879351072" parentZoneId="1879338150" longitude="20.070312" latitude="-45.86121"/>
<marker id="1298145322" label="Rich Gorgoroth Skarn Deposit" category="50" did="1879351068" parentZoneId="1879338150" longitude="19.86871" latitude="-45.601513"/>
<marker id="1298145323" label="Gorgoroth Wood" category="50" did="1879353888" parentZoneId="1879338150" longitude="19.86871" latitude="-45.601513"/>
<marker id="1298145324" label="Heavy Gorgoroth Wood" category="50" did="1879353889" parentZoneId="1879338150" longitude="19.86871" latitude="-45.601513"/>
<marker id="1298145325" label="Gorgoroth Skarn Deposit" category="50" did="1879351067" parentZoneId="1879338150" longitude="19.86871" latitude="-45.601513"/>
<marker id="1298145326" label="Gorgoroth Artifact Chest" category="50" did="1879351072" parentZoneId="1879338150" longitude="19.86871" latitude="-45.601513"/>
<marker id="1298145327" label="Rich Gorgoroth Skarn Deposit" category="50" did="1879351068" parentZoneId="1879338150" longitude="19.979414" latitude="-45.85206"/>
<marker id="1298145328" label="Gorgoroth Wood" category="50" did="1879353888" parentZoneId="1879338150" longitude="19.979414" latitude="-45.85206"/>
<marker id="1298145329" label="Heavy Gorgoroth Wood" category="50" did="1879353889" parentZoneId="1879338150" longitude="19.979414" latitude="-45.85206"/>
<marker id="1298145330" label="Gorgoroth Skarn Deposit" category="50" did="1879351067" parentZoneId="1879338150" longitude="19.979414" latitude="-45.85206"/>
<marker id="1298145331" label="Gorgoroth Artifact Chest" category="50" did="1879351072" parentZoneId="1879338150" longitude="19.979414" latitude="-45.85206"/>
<marker id="1298145332" label="Rich Gorgoroth Skarn Deposit" category="50" did="1879351068" parentZoneId="1879338150" longitude="19.72459" latitude="-45.719376"/>
<marker id="1298145333" label="Gorgoroth Wood" category="50" did="1879353888" parentZoneId="1879338150" longitude="19.72459" latitude="-45.719376"/>
<marker id="1298145334" label="Heavy Gorgoroth Wood" category="50" did="1879353889" parentZoneId="1879338150" longitude="19.72459" latitude="-45.719376"/>
<marker id="1298145335" label="Gorgoroth Skarn Deposit" category="50" did="1879351067" parentZoneId="1879338150" longitude="19.72459" latitude="-45.719376"/>
<marker id="1298145336" label="Gorgoroth Artifact Chest" category="50" did="1879351072" parentZoneId="1879338150" longitude="19.72459" latitude="-45.719376"/>
<marker id="1298145337" label="Rich Gorgoroth Skarn Deposit" category="50" did="1879351068" parentZoneId="1879338150" longitude="19.619999" latitude="-45.429382"/>
<marker id="1298145338" label="Gorgoroth Wood" category="50" did="1879353888" parentZoneId="1879338150" longitude="19.619999" latitude="-45.429382"/>
<marker id="1298145339" label="Heavy Gorgoroth Wood" category="50" did="1879353889" parentZoneId="1879338150" longitude="19.619999" latitude="-45.429382"/>
<marker id="1298145340" label="Gorgoroth Skarn Deposit" category="50" did="1879351067" parentZoneId="1879338150" longitude="19.619999" latitude="-45.429382"/>
<marker id="1298145341" label="Gorgoroth Artifact Chest" category="50" did="1879351072" parentZoneId="1879338150" longitude="19.619999" latitude="-45.429382"/>
<marker id="1298145342" label="Rich Gorgoroth Skarn Deposit" category="50" did="1879351068" parentZoneId="1879338150" longitude="19.930977" latitude="-45.52178"/>
<marker id="1298145343" label="Gorgoroth Wood" category="50" did="1879353888" parentZoneId="1879338150" longitude="19.930977" latitude="-45.52178"/>
<marker id="1298145344" label="Heavy Gorgoroth Wood" category="50" did="1879353889" parentZoneId="1879338150" longitude="19.930977" latitude="-45.52178"/>
<marker id="1298145345" label="Gorgoroth Skarn Deposit" category="50" did="1879351067" parentZoneId="1879338150" longitude="19.930977" latitude="-45.52178"/>
<marker id="1298145346" label="Gorgoroth Artifact Chest" category="50" did="1879351072" parentZoneId="1879338150" longitude="19.930977" latitude="-45.52178"/>
<marker id="1298145347" label="Rich Gorgoroth Skarn Deposit" category="50" did="1879351068" parentZoneId="1879338150" longitude="20.111053" latitude="-45.740932"/>
<marker id="1298145348" label="Gorgoroth Wood" category="50" did="1879353888" parentZoneId="1879338150" longitude="20.111053" latitude="-45.740932"/>
<marker id="1298145349" label="Heavy Gorgoroth Wood" category="50" did="1879353889" parentZoneId="1879338150" longitude="20.111053" latitude="-45.740932"/>
<marker id="1298145350" label="Gorgoroth Skarn Deposit" category="50" did="1879351067" parentZoneId="1879338150" longitude="20.111053" latitude="-45.740932"/>
<marker id="1298145351" label="Gorgoroth Artifact Chest" category="50" did="1879351072" parentZoneId="1879338150" longitude="20.111053" latitude="-45.740932"/>
<marker id="1298145352" label="Plateau Mole-rat" category="78" did="1879354686" parentZoneId="1879338150" longitude="19.68545" latitude="-45.295483"/>
<marker id="1298145353" label="Gorgoroth Crawler" category="78" did="1879354675" parentZoneId="1879338150" longitude="19.68545" latitude="-45.295483"/>
<marker id="1298145354" label="Ebon Serpent" category="78" did="1879354674" parentZoneId="1879338150" longitude="19.68545" latitude="-45.295483"/>
<marker id="1298145355" label="Gorgoroth Wormling" category="78" did="1879354678" parentZoneId="1879338150" longitude="19.68545" latitude="-45.295483"/>
<marker id="1298145356" label="Plateau Mole-rat" category="78" did="1879354686" parentZoneId="1879338150" longitude="19.691074" latitude="-45.619194"/>
<marker id="1298145357" label="Gorgoroth Crawler" category="78" did="1879354675" parentZoneId="1879338150" longitude="19.691074" latitude="-45.619194"/>
<marker id="1298145358" label="Ebon Serpent" category="78" did="1879354674" parentZoneId="1879338150" longitude="19.691074" latitude="-45.619194"/>
<marker id="1298145359" label="Gorgoroth Wormling" category="78" did="1879354678" parentZoneId="1879338150" longitude="19.691074" latitude="-45.619194"/>
<marker id="1298145360" label="Plateau Mole-rat" category="78" did="1879354686" parentZoneId="1879338150" longitude="19.917929" latitude="-45.618607"/>
<marker id="1298145361" label="Gorgoroth Crawler" category="78" did="1879354675" parentZoneId="1879338150" longitude="19.917929" latitude="-45.618607"/>
<marker id="1298145362" label="Ebon Serpent" category="78" did="1879354674" parentZoneId="1879338150" longitude="19.917929" latitude="-45.618607"/>
<marker id="1298145363" label="Gorgoroth Wormling" category="78" did="1879354678" parentZoneId="1879338150" longitude="19.917929" latitude="-45.618607"/>
<marker id="1298145364" label="Plateau Mole-rat" category="78" did="1879354686" parentZoneId="1879338150" longitude="20.063515" latitude="-45.829964"/>
<marker id="1298145365" label="Gorgoroth Crawler" category="78" did="1879354675" parentZoneId="1879338150" longitude="20.063515" latitude="-45.829964"/>
<marker id="1298145366" label="Ebon Serpent" category="78" did="1879354674" parentZoneId="1879338150" longitude="20.063515" latitude="-45.829964"/>
<marker id="1298145367" label="Gorgoroth Wormling" category="78" did="1879354678" parentZoneId="1879338150" longitude="20.063515" latitude="-45.829964"/>
<marker id="1298145368" label="Rabid Ruins-bat" category="71" did="1879346456" parentZoneId="1879338150" longitude="20.027948" latitude="-45.73703"/>
<marker id="1298145369" label="Dire-horn" category="71" did="1879346458" parentZoneId="1879338150" longitude="20.027948" latitude="-45.73703"/>
<marker id="1298145370" label="Grangáth" category="71" did="1879346536" parentZoneId="1879338150" longitude="20.027948" latitude="-45.73703"/>
<marker id="1298145371" label="Rock-worm" category="71" did="1879351441" parentZoneId="1879338150" longitude="20.027948" latitude="-45.73703"/>
<marker id="1298145372" label="Blighted Marsh-lurker" category="71" did="1879342409" parentZoneId="1879338150" longitude="20.027948" latitude="-45.73703"/>
<marker id="1298145373" label="Burrowing Rift-crawler" category="71" did="1879351442" parentZoneId="1879338150" longitude="20.027948" latitude="-45.73703"/>
<marker id="1298145374" label="Great-bat" category="71" did="1879346450" parentZoneId="1879338150" longitude="20.027948" latitude="-45.73703"/>
<marker id="1298145375" label="Sûlok" category="71" did="1879346465" parentZoneId="1879338150" longitude="20.027948" latitude="-45.73703"/>
<marker id="1298145376" label="Fire Grim" category="71" did="1879351444" parentZoneId="1879338150" longitude="20.027948" latitude="-45.73703"/>
<marker id="1298145377" label="Young Fire-drake" category="71" did="1879351445" parentZoneId="1879338150" longitude="20.027948" latitude="-45.73703"/>
<marker id="1298145378" label="Ulurgroth" category="71" did="1879346545" parentZoneId="1879338150" longitude="20.027948" latitude="-45.73703"/>
<marker id="1298145379" label="Mordor Salamander" category="71" did="1879351446" parentZoneId="1879338150" longitude="20.027948" latitude="-45.73703"/>
<marker id="1298145380" label="Rabid Ruins-bat" category="71" did="1879346456" parentZoneId="1879338150" longitude="19.799883" latitude="-45.675682"/>
<marker id="1298145381" label="Dire-horn" category="71" did="1879346458" parentZoneId="1879338150" longitude="19.799883" latitude="-45.675682"/>
<marker id="1298145382" label="Grangáth" category="71" did="1879346536" parentZoneId="1879338150" longitude="19.799883" latitude="-45.675682"/>
<marker id="1298145383" label="Rock-worm" category="71" did="1879351441" parentZoneId="1879338150" longitude="19.799883" latitude="-45.675682"/>
<marker id="1298145384" label="Blighted Marsh-lurker" category="71" did="1879342409" parentZoneId="1879338150" longitude="19.799883" latitude="-45.675682"/>
<marker id="1298145385" label="Burrowing Rift-crawler" category="71" did="1879351442" parentZoneId="1879338150" longitude="19.799883" latitude="-45.675682"/>
<marker id="1298145386" label="Great-bat" category="71" did="1879346450" parentZoneId="1879338150" longitude="19.799883" latitude="-45.675682"/>
<marker id="1298145387" label="Sûlok" category="71" did="1879346465" parentZoneId="1879338150" longitude="19.799883" latitude="-45.675682"/>
<marker id="1298145388" label="Fire Grim" category="71" did="1879351444" parentZoneId="1879338150" longitude="19.799883" latitude="-45.675682"/>
<marker id="1298145389" label="Young Fire-drake" category="71" did="1879351445" parentZoneId="1879338150" longitude="19.799883" latitude="-45.675682"/>
<marker id="1298145390" label="Ulurgroth" category="71" did="1879346545" parentZoneId="1879338150" longitude="19.799883" latitude="-45.675682"/>
<marker id="1298145391" label="Mordor Salamander" category="71" did="1879351446" parentZoneId="1879338150" longitude="19.799883" latitude="-45.675682"/>
<marker id="1298145392" label="Rabid Ruins-bat" category="71" did="1879346456" parentZoneId="1879338150" longitude="19.88248" latitude="-45.529236"/>
<marker id="1298145393" label="Dire-horn" category="71" did="1879346458" parentZoneId="1879338150" longitude="19.88248" latitude="-45.529236"/>
<marker id="1298145394" label="Grangáth" category="71" did="1879346536" parentZoneId="1879338150" longitude="19.88248" latitude="-45.529236"/>
<marker id="1298145395" label="Rock-worm" category="71" did="1879351441" parentZoneId="1879338150" longitude="19.88248" latitude="-45.529236"/>
<marker id="1298145396" label="Blighted Marsh-lurker" category="71" did="1879342409" parentZoneId="1879338150" longitude="19.88248" latitude="-45.529236"/>
<marker id="1298145397" label="Burrowing Rift-crawler" category="71" did="1879351442" parentZoneId="1879338150" longitude="19.88248" latitude="-45.529236"/>
<marker id="1298145398" label="Great-bat" category="71" did="1879346450" parentZoneId="1879338150" longitude="19.88248" latitude="-45.529236"/>
<marker id="1298145399" label="Sûlok" category="71" did="1879346465" parentZoneId="1879338150" longitude="19.88248" latitude="-45.529236"/>
<marker id="1298145400" label="Fire Grim" category="71" did="1879351444" parentZoneId="1879338150" longitude="19.88248" latitude="-45.529236"/>
<marker id="1298145401" label="Young Fire-drake" category="71" did="1879351445" parentZoneId="1879338150" longitude="19.88248" latitude="-45.529236"/>
<marker id="1298145402" label="Ulurgroth" category="71" did="1879346545" parentZoneId="1879338150" longitude="19.88248" latitude="-45.529236"/>
<marker id="1298145403" label="Mordor Salamander" category="71" did="1879351446" parentZoneId="1879338150" longitude="19.88248" latitude="-45.529236"/>
<marker id="1298145404" label="Rabid Ruins-bat" category="71" did="1879346456" parentZoneId="1879338150" longitude="19.633652" latitude="-45.533806"/>
<marker id="1298145405" label="Dire-horn" category="71" did="1879346458" parentZoneId="1879338150" longitude="19.633652" latitude="-45.533806"/>
<marker id="1298145406" label="Grangáth" category="71" did="1879346536" parentZoneId="1879338150" longitude="19.633652" latitude="-45.533806"/>
<marker id="1298145407" label="Rock-worm" category="71" did="1879351441" parentZoneId="1879338150" longitude="19.633652" latitude="-45.533806"/>
<marker id="1298145408" label="Blighted Marsh-lurker" category="71" did="1879342409" parentZoneId="1879338150" longitude="19.633652" latitude="-45.533806"/>
<marker id="1298145409" label="Burrowing Rift-crawler" category="71" did="1879351442" parentZoneId="1879338150" longitude="19.633652" latitude="-45.533806"/>
<marker id="1298145410" label="Great-bat" category="71" did="1879346450" parentZoneId="1879338150" longitude="19.633652" latitude="-45.533806"/>
<marker id="1298145411" label="Sûlok" category="71" did="1879346465" parentZoneId="1879338150" longitude="19.633652" latitude="-45.533806"/>
<marker id="1298145412" label="Fire Grim" category="71" did="1879351444" parentZoneId="1879338150" longitude="19.633652" latitude="-45.533806"/>
<marker id="1298145413" label="Young Fire-drake" category="71" did="1879351445" parentZoneId="1879338150" longitude="19.633652" latitude="-45.533806"/>
<marker id="1298145414" label="Ulurgroth" category="71" did="1879346545" parentZoneId="1879338150" longitude="19.633652" latitude="-45.533806"/>
<marker id="1298145415" label="Mordor Salamander" category="71" did="1879351446" parentZoneId="1879338150" longitude="19.633652" latitude="-45.533806"/>
<marker id="1298145416" label="Rabid Ruins-bat" category="71" did="1879346456" parentZoneId="1879338150" longitude="19.72742" latitude="-45.341904"/>
<marker id="1298145417" label="Dire-horn" category="71" did="1879346458" parentZoneId="1879338150" longitude="19.72742" latitude="-45.341904"/>
<marker id="1298145418" label="Grangáth" category="71" did="1879346536" parentZoneId="1879338150" longitude="19.72742" latitude="-45.341904"/>
<marker id="1298145419" label="Rock-worm" category="71" did="1879351441" parentZoneId="1879338150" longitude="19.72742" latitude="-45.341904"/>
<marker id="1298145420" label="Blighted Marsh-lurker" category="71" did="1879342409" parentZoneId="1879338150" longitude="19.72742" latitude="-45.341904"/>
<marker id="1298145421" label="Burrowing Rift-crawler" category="71" did="1879351442" parentZoneId="1879338150" longitude="19.72742" latitude="-45.341904"/>
<marker id="1298145422" label="Great-bat" category="71" did="1879346450" parentZoneId="1879338150" longitude="19.72742" latitude="-45.341904"/>
<marker id="1298145423" label="Sûlok" category="71" did="1879346465" parentZoneId="1879338150" longitude="19.72742" latitude="-45.341904"/>
<marker id="1298145424" label="Fire Grim" category="71" did="1879351444" parentZoneId="1879338150" longitude="19.72742" latitude="-45.341904"/>
<marker id="1298145425" label="Young Fire-drake" category="71" did="1879351445" parentZoneId="1879338150" longitude="19.72742" latitude="-45.341904"/>
<marker id="1298145426" label="Ulurgroth" category="71" did="1879346545" parentZoneId="1879338150" longitude="19.72742" latitude="-45.341904"/>
<marker id="1298145427" label="Mordor Salamander" category="71" did="1879351446" parentZoneId="1879338150" longitude="19.72742" latitude="-45.341904"/>
<marker id="1298149377" label="Devoted Searcher" category="71" did="1879355276" parentZoneId="1879338150" longitude="19.722343" latitude="-44.538906"/>
<marker id="1298149378" label="Devoted Searcher" category="71" did="1879355276" parentZoneId="1879338150" longitude="19.680098" latitude="-44.44877"/>
<marker id="1298149379" label="Devoted Searcher" category="71" did="1879355276" parentZoneId="1879338150" longitude="19.78957" latitude="-44.6643"/>
<marker id="1298149380" label="Devoted Searcher" category="71" did="1879355276" parentZoneId="1879338150" longitude="19.733358" latitude="-44.599724"/>
<marker id="1298149381" label="Devoted Searcher" category="71" did="1879355276" parentZoneId="1879338150" longitude="19.722656" latitude="-44.68119"/>
<marker id="1298149382" label="Plateau Mole-rat" category="78" did="1879354686" parentZoneId="1879338150" longitude="19.842754" latitude="-44.69666"/>
<marker id="1298149383" label="Gorgoroth Crawler" category="78" did="1879354675" parentZoneId="1879338150" longitude="19.842754" latitude="-44.69666"/>
<marker id="1298149384" label="Ebon Serpent" category="78" did="1879354674" parentZoneId="1879338150" longitude="19.842754" latitude="-44.69666"/>
<marker id="1298149385" label="Gorgoroth Wormling" category="78" did="1879354678" parentZoneId="1879338150" longitude="19.842754" latitude="-44.69666"/>
<marker id="1298149386" label="Rock-worm" category="71" did="1879351441" parentZoneId="1879338150" longitude="19.830135" latitude="-44.692337"/>
<marker id="1298149387" label="Burrowing Rift-crawler" category="71" did="1879351442" parentZoneId="1879338150" longitude="19.830135" latitude="-44.692337"/>
<marker id="1298149388" label="Young Fire-drake" category="71" did="1879351445" parentZoneId="1879338150" longitude="19.830135" latitude="-44.692337"/>
<marker id="1298149389" label="Mordor Salamander" category="71" did="1879351446" parentZoneId="1879338150" longitude="19.830135" latitude="-44.692337"/>
<marker id="1298149390" label="Sûlok" category="71" did="1879346465" parentZoneId="1879338150" longitude="19.830135" latitude="-44.692337"/>
<marker id="1298149391" label="Rabid Ruins-bat" category="71" did="1879346456" parentZoneId="1879338150" longitude="19.830135" latitude="-44.692337"/>
<marker id="1298149392" label="Dire-horn" category="71" did="1879346458" parentZoneId="1879338150" longitude="19.830135" latitude="-44.692337"/>
<marker id="1298149393" label="Great-bat" category="71" did="1879346450" parentZoneId="1879338150" longitude="19.830135" latitude="-44.692337"/>
<marker id="1298149396" label="Dor Amarth Expedition-leader" category="71" did="1879354132" parentZoneId="1879338150" longitude="19.773495" latitude="-44.71413"/>
<marker id="1298149397" label="Plateau Mole-rat" category="78" did="1879354686" parentZoneId="1879338150" longitude="19.753222" latitude="-44.596893"/>
<marker id="1298149398" label="Gorgoroth Crawler" category="78" did="1879354675" parentZoneId="1879338150" longitude="19.753222" latitude="-44.596893"/>
<marker id="1298149399" label="Ebon Serpent" category="78" did="1879354674" parentZoneId="1879338150" longitude="19.753222" latitude="-44.596893"/>
<marker id="1298149400" label="Gorgoroth Wormling" category="78" did="1879354678" parentZoneId="1879338150" longitude="19.753222" latitude="-44.596893"/>
<marker id="1298149401" label="Plateau Mole-rat" category="78" did="1879354686" parentZoneId="1879338150" longitude="20.335293" latitude="-44.485535"/>
<marker id="1298149402" label="Gorgoroth Crawler" category="78" did="1879354675" parentZoneId="1879338150" longitude="20.335293" latitude="-44.485535"/>
<marker id="1298149403" label="Ebon Serpent" category="78" did="1879354674" parentZoneId="1879338150" longitude="20.335293" latitude="-44.485535"/>
<marker id="1298149404" label="Gorgoroth Wormling" category="78" did="1879354678" parentZoneId="1879338150" longitude="20.335293" latitude="-44.485535"/>
<marker id="1298149405" label="Plateau Mole-rat" category="78" did="1879354686" parentZoneId="1879338150" longitude="19.738028" latitude="-45.14"/>
<marker id="1298149406" label="Gorgoroth Crawler" category="78" did="1879354675" parentZoneId="1879338150" longitude="19.738028" latitude="-45.14"/>
<marker id="1298149407" label="Ebon Serpent" category="78" did="1879354674" parentZoneId="1879338150" longitude="19.738028" latitude="-45.14"/>
<marker id="1298149408" label="Gorgoroth Wormling" category="78" did="1879354678" parentZoneId="1879338150" longitude="19.738028" latitude="-45.14"/>
<marker id="1298149409" label="Rabid Ruins-bat" category="71" did="1879346456" parentZoneId="1879338150" longitude="19.754063" latitude="-44.664043"/>
<marker id="1298149410" label="Dire-horn" category="71" did="1879346458" parentZoneId="1879338150" longitude="19.754063" latitude="-44.664043"/>
<marker id="1298149411" label="Grangáth" category="71" did="1879346536" parentZoneId="1879338150" longitude="19.754063" latitude="-44.664043"/>
<marker id="1298149412" label="Rock-worm" category="71" did="1879351441" parentZoneId="1879338150" longitude="19.754063" latitude="-44.664043"/>
<marker id="1298149413" label="Blighted Marsh-lurker" category="71" did="1879342409" parentZoneId="1879338150" longitude="19.754063" latitude="-44.664043"/>
<marker id="1298149414" label="Burrowing Rift-crawler" category="71" did="1879351442" parentZoneId="1879338150" longitude="19.754063" latitude="-44.664043"/>
<marker id="1298149415" label="Great-bat" category="71" did="1879346450" parentZoneId="1879338150" longitude="19.754063" latitude="-44.664043"/>
<marker id="1298149416" label="Sûlok" category="71" did="1879346465" parentZoneId="1879338150" longitude="19.754063" latitude="-44.664043"/>
<marker id="1298149417" label="Fire Grim" category="71" did="1879351444" parentZoneId="1879338150" longitude="19.754063" latitude="-44.664043"/>
<marker id="1298149418" label="Young Fire-drake" category="71" did="1879351445" parentZoneId="1879338150" longitude="19.754063" latitude="-44.664043"/>
<marker id="1298149419" label="Ulurgroth" category="71" did="1879346545" parentZoneId="1879338150" longitude="19.754063" latitude="-44.664043"/>
<marker id="1298149420" label="Mordor Salamander" category="71" did="1879351446" parentZoneId="1879338150" longitude="19.754063" latitude="-44.664043"/>
<marker id="1298149421" label="Rabid Ruins-bat" category="71" did="1879346456" parentZoneId="1879338150" longitude="19.707733" latitude="-44.47713"/>
<marker id="1298149422" label="Dire-horn" category="71" did="1879346458" parentZoneId="1879338150" longitude="19.707733" latitude="-44.47713"/>
<marker id="1298149423" label="Grangáth" category="71" did="1879346536" parentZoneId="1879338150" longitude="19.707733" latitude="-44.47713"/>
<marker id="1298149424" label="Rock-worm" category="71" did="1879351441" parentZoneId="1879338150" longitude="19.707733" latitude="-44.47713"/>
<marker id="1298149425" label="Blighted Marsh-lurker" category="71" did="1879342409" parentZoneId="1879338150" longitude="19.707733" latitude="-44.47713"/>
<marker id="1298149426" label="Burrowing Rift-crawler" category="71" did="1879351442" parentZoneId="1879338150" longitude="19.707733" latitude="-44.47713"/>
<marker id="1298149427" label="Great-bat" category="71" did="1879346450" parentZoneId="1879338150" longitude="19.707733" latitude="-44.47713"/>
<marker id="1298149428" label="Sûlok" category="71" did="1879346465" parentZoneId="1879338150" longitude="19.707733" latitude="-44.47713"/>
<marker id="1298149429" label="Fire Grim" category="71" did="1879351444" parentZoneId="1879338150" longitude="19.707733" latitude="-44.47713"/>
<marker id="1298149430" label="Young Fire-drake" category="71" did="1879351445" parentZoneId="1879338150" longitude="19.707733" latitude="-44.47713"/>
<marker id="1298149431" label="Ulurgroth" category="71" did="1879346545" parentZoneId="1879338150" longitude="19.707733" latitude="-44.47713"/>
<marker id="1298149432" label="Mordor Salamander" category="71" did="1879351446" parentZoneId="1879338150" longitude="19.707733" latitude="-44.47713"/>
<marker id="1298149433" label="Rabid Ruins-bat" category="71" did="1879346456" parentZoneId="1879338150" longitude="20.33082" latitude="-44.506138"/>
<marker id="1298149434" label="Dire-horn" category="71" did="1879346458" parentZoneId="1879338150" longitude="20.33082" latitude="-44.506138"/>
<marker id="1298149435" label="Grangáth" category="71" did="1879346536" parentZoneId="1879338150" longitude="20.33082" latitude="-44.506138"/>
<marker id="1298149436" label="Rock-worm" category="71" did="1879351441" parentZoneId="1879338150" longitude="20.33082" latitude="-44.506138"/>
<marker id="1298149437" label="Blighted Marsh-lurker" category="71" did="1879342409" parentZoneId="1879338150" longitude="20.33082" latitude="-44.506138"/>
<marker id="1298149438" label="Burrowing Rift-crawler" category="71" did="1879351442" parentZoneId="1879338150" longitude="20.33082" latitude="-44.506138"/>
<marker id="1298149439" label="Great-bat" category="71" did="1879346450" parentZoneId="1879338150" longitude="20.33082" latitude="-44.506138"/>
<marker id="1298149440" label="Sûlok" category="71" did="1879346465" parentZoneId="1879338150" longitude="20.33082" latitude="-44.506138"/>
<marker id="1298149441" label="Fire Grim" category="71" did="1879351444" parentZoneId="1879338150" longitude="20.33082" latitude="-44.506138"/>
<marker id="1298149442" label="Young Fire-drake" category="71" did="1879351445" parentZoneId="1879338150" longitude="20.33082" latitude="-44.506138"/>
<marker id="1298149443" label="Ulurgroth" category="71" did="1879346545" parentZoneId="1879338150" longitude="20.33082" latitude="-44.506138"/>
<marker id="1298149444" label="Mordor Salamander" category="71" did="1879351446" parentZoneId="1879338150" longitude="20.33082" latitude="-44.506138"/>
<marker id="1298153472" label="Ered Lithui" category="43" did="1879347459" parentZoneId="1879338150" longitude="20.198652" latitude="-43.82018"/>
<marker id="1298153474" label="Fell Spirit" category="71" did="1879346546" parentZoneId="1879338150" longitude="19.983574" latitude="-43.837666"/>
<marker id="1298153475" label="Fell Spirit" category="71" did="1879346527" parentZoneId="1879338150" longitude="20.175274" latitude="-43.80623"/>
<marker id="1298153476" label="Cargûl" category="71" did="1879346520" parentZoneId="1879338150" longitude="20.205273" latitude="-43.683296"/>
<marker id="1298153477" label="Shadow Grim" category="71" did="1879346469" parentZoneId="1879338150" longitude="20.092655" latitude="-43.83981"/>
<marker id="1298153478" label="Gorgoroth Wood" category="50" did="1879353888" parentZoneId="1879338150" longitude="19.96828" latitude="-44.19888"/>
<marker id="1298153479" label="Heavy Gorgoroth Wood" category="50" did="1879353889" parentZoneId="1879338150" longitude="19.96828" latitude="-44.19888"/>
<marker id="1298153480" label="Plateau Mole-rat" category="78" did="1879354686" parentZoneId="1879338150" longitude="19.994354" latitude="-44.20267"/>
<marker id="1298153481" label="Gorgoroth Crawler" category="78" did="1879354675" parentZoneId="1879338150" longitude="19.994354" latitude="-44.20267"/>
<marker id="1298153482" label="Ebon Serpent" category="78" did="1879354674" parentZoneId="1879338150" longitude="19.994354" latitude="-44.20267"/>
<marker id="1298153483" label="Gorgoroth Wormling" category="78" did="1879354678" parentZoneId="1879338150" longitude="19.994354" latitude="-44.20267"/>
<marker id="1298153484" label="Rock-worm" category="71" did="1879351441" parentZoneId="1879338150" longitude="19.981737" latitude="-44.19835"/>
<marker id="1298153485" label="Burrowing Rift-crawler" category="71" did="1879351442" parentZoneId="1879338150" longitude="19.981737" latitude="-44.19835"/>
<marker id="1298153486" label="Young Fire-drake" category="71" did="1879351445" parentZoneId="1879338150" longitude="19.981737" latitude="-44.19835"/>
<marker id="1298153487" label="Mordor Salamander" category="71" did="1879351446" parentZoneId="1879338150" longitude="19.981737" latitude="-44.19835"/>
<marker id="1298153488" label="Gorgoroth Artifact Chest" category="50" did="1879351072" parentZoneId="1879338150" longitude="19.96828" latitude="-44.19888"/>
<marker id="1298153489" label="Rich Gorgoroth Skarn Deposit" category="50" did="1879351068" parentZoneId="1879338150" longitude="19.96828" latitude="-44.19888"/>
<marker id="1298153490" label="Gorgoroth Skarn Deposit" category="50" did="1879351067" parentZoneId="1879338150" longitude="19.96828" latitude="-44.19888"/>
<marker id="1298153491" label="Treacherous Spirit" category="71" did="1879346547" parentZoneId="1879338150" longitude="20.176405" latitude="-43.610588"/>
<marker id="1298153492" label="Sûlok" category="71" did="1879346465" parentZoneId="1879338150" longitude="19.981737" latitude="-44.19835"/>
<marker id="1298153493" label="Rabid Ruins-bat" category="71" did="1879346456" parentZoneId="1879338150" longitude="19.981737" latitude="-44.19835"/>
<marker id="1298153494" label="Dire-horn" category="71" did="1879346458" parentZoneId="1879338150" longitude="19.981737" latitude="-44.19835"/>
<marker id="1298153495" label="Great-bat" category="71" did="1879346450" parentZoneId="1879338150" longitude="19.981737" latitude="-44.19835"/>
<marker id="1298153496" label="Ancient Rune Fragment" category="73" did="1879346823" parentZoneId="1879338150" longitude="19.817774" latitude="-43.800274"/>
<marker id="1298153497" label="Ancient Rune Fragment" category="73" did="1879346823" parentZoneId="1879338150" longitude="20.025566" latitude="-43.768604"/>
<marker id="1298153498" label="Fell Rune" category="73" did="1879346848" parentZoneId="1879338150" longitude="20.256073" latitude="-43.698563"/>
<marker id="1298153499" label="Fell Rune" category="73" did="1879346848" parentZoneId="1879338150" longitude="19.810663" latitude="-43.94409"/>
<marker id="1298153501" label="Rubble" category="73" did="1879346865" parentZoneId="1879338150" longitude="20.117832" latitude="-43.697063"/>
<marker id="1298153517" label="Rich Gorgoroth Skarn Deposit" category="50" did="1879351068" parentZoneId="1879338150" longitude="20.351562" latitude="-44.358807"/>
<marker id="1298153518" label="Gorgoroth Wood" category="50" did="1879353888" parentZoneId="1879338150" longitude="20.351562" latitude="-44.358807"/>
<marker id="1298153519" label="Heavy Gorgoroth Wood" category="50" did="1879353889" parentZoneId="1879338150" longitude="20.351562" latitude="-44.358807"/>
<marker id="1298153520" label="Gorgoroth Skarn Deposit" category="50" did="1879351067" parentZoneId="1879338150" longitude="20.351562" latitude="-44.358807"/>
<marker id="1298153521" label="Gorgoroth Artifact Chest" category="50" did="1879351072" parentZoneId="1879338150" longitude="20.351562" latitude="-44.358807"/>
<marker id="1298153522" label="Rich Gorgoroth Skarn Deposit" category="50" did="1879351068" parentZoneId="1879338150" longitude="20.307558" latitude="-44.157642"/>
<marker id="1298153523" label="Gorgoroth Wood" category="50" did="1879353888" parentZoneId="1879338150" longitude="20.307558" latitude="-44.157642"/>
<marker id="1298153524" label="Heavy Gorgoroth Wood" category="50" did="1879353889" parentZoneId="1879338150" longitude="20.307558" latitude="-44.157642"/>
<marker id="1298153525" label="Gorgoroth Skarn Deposit" category="50" did="1879351067" parentZoneId="1879338150" longitude="20.307558" latitude="-44.157642"/>
<marker id="1298153526" label="Gorgoroth Artifact Chest" category="50" did="1879351072" parentZoneId="1879338150" longitude="20.307558" latitude="-44.157642"/>
<marker id="1298153527" label="Rich Gorgoroth Skarn Deposit" category="50" did="1879351068" parentZoneId="1879338150" longitude="19.810097" latitude="-44.365627"/>
<marker id="1298153528" label="Gorgoroth Wood" category="50" did="1879353888" parentZoneId="1879338150" longitude="19.810097" latitude="-44.365627"/>
<marker id="1298153529" label="Heavy Gorgoroth Wood" category="50" did="1879353889" parentZoneId="1879338150" longitude="19.810097" latitude="-44.365627"/>
<marker id="1298153530" label="Gorgoroth Skarn Deposit" category="50" did="1879351067" parentZoneId="1879338150" longitude="19.810097" latitude="-44.365627"/>
<marker id="1298153531" label="Gorgoroth Artifact Chest" category="50" did="1879351072" parentZoneId="1879338150" longitude="19.810097" latitude="-44.365627"/>
<marker id="1298153532" label="Rich Gorgoroth Skarn Deposit" category="50" did="1879351068" parentZoneId="1879338150" longitude="19.716309" latitude="-43.96783"/>
<marker id="1298153533" label="Gorgoroth Wood" category="50" did="1879353888" parentZoneId="1879338150" longitude="19.716309" latitude="-43.96783"/>
<marker id="1298153534" label="Heavy Gorgoroth Wood" category="50" did="1879353889" parentZoneId="1879338150" longitude="19.716309" latitude="-43.96783"/>
<marker id="1298153535" label="Gorgoroth Skarn Deposit" category="50" did="1879351067" parentZoneId="1879338150" longitude="19.716309" latitude="-43.96783"/>
<marker id="1298153536" label="Gorgoroth Artifact Chest" category="50" did="1879351072" parentZoneId="1879338150" longitude="19.716309" latitude="-43.96783"/>
<marker id="1298153537" label="Rich Gorgoroth Skarn Deposit" category="50" did="1879351068" parentZoneId="1879338150" longitude="20.282324" latitude="-43.796303"/>
<marker id="1298153538" label="Gorgoroth Wood" category="50" did="1879353888" parentZoneId="1879338150" longitude="20.282324" latitude="-43.796303"/>
<marker id="1298153539" label="Heavy Gorgoroth Wood" category="50" did="1879353889" parentZoneId="1879338150" longitude="20.282324" latitude="-43.796303"/>
<marker id="1298153540" label="Gorgoroth Skarn Deposit" category="50" did="1879351067" parentZoneId="1879338150" longitude="20.282324" latitude="-43.796303"/>
<marker id="1298153541" label="Gorgoroth Artifact Chest" category="50" did="1879351072" parentZoneId="1879338150" longitude="20.282324" latitude="-43.796303"/>
<marker id="1298153542" label="Rich Gorgoroth Skarn Deposit" category="50" did="1879351068" parentZoneId="1879338150" longitude="19.885214" latitude="-43.800564"/>
<marker id="1298153543" label="Gorgoroth Wood" category="50" did="1879353888" parentZoneId="1879338150" longitude="19.885214" latitude="-43.800564"/>
<marker id="1298153544" label="Heavy Gorgoroth Wood" category="50" did="1879353889" parentZoneId="1879338150" longitude="19.885214" latitude="-43.800564"/>
<marker id="1298153545" label="Gorgoroth Skarn Deposit" category="50" did="1879351067" parentZoneId="1879338150" longitude="19.885214" latitude="-43.800564"/>
<marker id="1298153546" label="Gorgoroth Artifact Chest" category="50" did="1879351072" parentZoneId="1879338150" longitude="19.885214" latitude="-43.800564"/>
<marker id="1298153547" label="Rich Gorgoroth Skarn Deposit" category="50" did="1879351068" parentZoneId="1879338150" longitude="20.326094" latitude="-43.715233"/>
<marker id="1298153548" label="Gorgoroth Wood" category="50" did="1879353888" parentZoneId="1879338150" longitude="20.326094" latitude="-43.715233"/>
<marker id="1298153549" label="Heavy Gorgoroth Wood" category="50" did="1879353889" parentZoneId="1879338150" longitude="20.326094" latitude="-43.715233"/>
<marker id="1298153550" label="Gorgoroth Skarn Deposit" category="50" did="1879351067" parentZoneId="1879338150" longitude="20.326094" latitude="-43.715233"/>
<marker id="1298153551" label="Gorgoroth Artifact Chest" category="50" did="1879351072" parentZoneId="1879338150" longitude="20.326094" latitude="-43.715233"/>
<marker id="1298153552" label="Rich Gorgoroth Skarn Deposit" category="50" did="1879351068" parentZoneId="1879338150" longitude="20.215586" latitude="-44.33766"/>
<marker id="1298153553" label="Gorgoroth Wood" category="50" did="1879353888" parentZoneId="1879338150" longitude="20.215586" latitude="-44.33766"/>
<marker id="1298153554" label="Heavy Gorgoroth Wood" category="50" did="1879353889" parentZoneId="1879338150" longitude="20.215586" latitude="-44.33766"/>
<marker id="1298153555" label="Gorgoroth Skarn Deposit" category="50" did="1879351067" parentZoneId="1879338150" longitude="20.215586" latitude="-44.33766"/>
<marker id="1298153556" label="Gorgoroth Artifact Chest" category="50" did="1879351072" parentZoneId="1879338150" longitude="20.215586" latitude="-44.33766"/>
<marker id="1298153557" label="Rich Gorgoroth Skarn Deposit" category="50" did="1879351068" parentZoneId="1879338150" longitude="20.090508" latitude="-44.115406"/>
<marker id="1298153558" label="Gorgoroth Wood" category="50" did="1879353888" parentZoneId="1879338150" longitude="20.090508" latitude="-44.115406"/>
<marker id="1298153559" label="Heavy Gorgoroth Wood" category="50" did="1879353889" parentZoneId="1879338150" longitude="20.090508" latitude="-44.115406"/>
<marker id="1298153560" label="Gorgoroth Skarn Deposit" category="50" did="1879351067" parentZoneId="1879338150" longitude="20.090508" latitude="-44.115406"/>
<marker id="1298153561" label="Gorgoroth Artifact Chest" category="50" did="1879351072" parentZoneId="1879338150" longitude="20.090508" latitude="-44.115406"/>
<marker id="1298153562" label="Rich Gorgoroth Skarn Deposit" category="50" did="1879351068" parentZoneId="1879338150" longitude="19.639492" latitude="-44.259373"/>
<marker id="1298153563" label="Gorgoroth Wood" category="50" did="1879353888" parentZoneId="1879338150" longitude="19.639492" latitude="-44.259373"/>
<marker id="1298153564" label="Heavy Gorgoroth Wood" category="50" did="1879353889" parentZoneId="1879338150" longitude="19.639492" latitude="-44.259373"/>
<marker id="1298153565" label="Gorgoroth Skarn Deposit" category="50" did="1879351067" parentZoneId="1879338150" longitude="19.639492" latitude="-44.259373"/>
<marker id="1298153566" label="Gorgoroth Artifact Chest" category="50" did="1879351072" parentZoneId="1879338150" longitude="19.639492" latitude="-44.259373"/>
<marker id="1298153567" label="Plateau Mole-rat" category="78" did="1879354686" parentZoneId="1879338150" longitude="19.737734" latitude="-44.317474"/>
<marker id="1298153568" label="Gorgoroth Crawler" category="78" did="1879354675" parentZoneId="1879338150" longitude="19.737734" latitude="-44.317474"/>
<marker id="1298153569" label="Ebon Serpent" category="78" did="1879354674" parentZoneId="1879338150" longitude="19.737734" latitude="-44.317474"/>
<marker id="1298153570" label="Gorgoroth Wormling" category="78" did="1879354678" parentZoneId="1879338150" longitude="19.737734" latitude="-44.317474"/>
<marker id="1298153571" label="Plateau Mole-rat" category="78" did="1879354686" parentZoneId="1879338150" longitude="19.973536" latitude="-44.18105"/>
<marker id="1298153572" label="Gorgoroth Crawler" category="78" did="1879354675" parentZoneId="1879338150" longitude="19.973536" latitude="-44.18105"/>
<marker id="1298153573" label="Ebon Serpent" category="78" did="1879354674" parentZoneId="1879338150" longitude="19.973536" latitude="-44.18105"/>
<marker id="1298153574" label="Gorgoroth Wormling" category="78" did="1879354678" parentZoneId="1879338150" longitude="19.973536" latitude="-44.18105"/>
<marker id="1298153575" label="Plateau Mole-rat" category="78" did="1879354686" parentZoneId="1879338150" longitude="20.161934" latitude="-44.279583"/>
<marker id="1298153576" label="Gorgoroth Crawler" category="78" did="1879354675" parentZoneId="1879338150" longitude="20.161934" latitude="-44.279583"/>
<marker id="1298153577" label="Ebon Serpent" category="78" did="1879354674" parentZoneId="1879338150" longitude="20.161934" latitude="-44.279583"/>
<marker id="1298153578" label="Gorgoroth Wormling" category="78" did="1879354678" parentZoneId="1879338150" longitude="20.161934" latitude="-44.279583"/>
<marker id="1298153579" label="Plateau Mole-rat" category="78" did="1879354686" parentZoneId="1879338150" longitude="20.363964" latitude="-44.198013"/>
<marker id="1298153580" label="Gorgoroth Crawler" category="78" did="1879354675" parentZoneId="1879338150" longitude="20.363964" latitude="-44.198013"/>
<marker id="1298153581" label="Ebon Serpent" category="78" did="1879354674" parentZoneId="1879338150" longitude="20.363964" latitude="-44.198013"/>
<marker id="1298153582" label="Gorgoroth Wormling" category="78" did="1879354678" parentZoneId="1879338150" longitude="20.363964" latitude="-44.198013"/>
<marker id="1298153583" label="Rabid Ruins-bat" category="71" did="1879346456" parentZoneId="1879338150" longitude="19.695332" latitude="-44.332047"/>
<marker id="1298153584" label="Dire-horn" category="71" did="1879346458" parentZoneId="1879338150" longitude="19.695332" latitude="-44.332047"/>
<marker id="1298153585" label="Grangáth" category="71" did="1879346536" parentZoneId="1879338150" longitude="19.695332" latitude="-44.332047"/>
<marker id="1298153586" label="Rock-worm" category="71" did="1879351441" parentZoneId="1879338150" longitude="19.695332" latitude="-44.332047"/>
<marker id="1298153587" label="Blighted Marsh-lurker" category="71" did="1879342409" parentZoneId="1879338150" longitude="19.695332" latitude="-44.332047"/>
<marker id="1298153588" label="Burrowing Rift-crawler" category="71" did="1879351442" parentZoneId="1879338150" longitude="19.695332" latitude="-44.332047"/>
<marker id="1298153589" label="Great-bat" category="71" did="1879346450" parentZoneId="1879338150" longitude="19.695332" latitude="-44.332047"/>
<marker id="1298153590" label="Sûlok" category="71" did="1879346465" parentZoneId="1879338150" longitude="19.695332" latitude="-44.332047"/>
<marker id="1298153591" label="Fire Grim" category="71" did="1879351444" parentZoneId="1879338150" longitude="19.695332" latitude="-44.332047"/>
<marker id="1298153592" label="Young Fire-drake" category="71" did="1879351445" parentZoneId="1879338150" longitude="19.695332" latitude="-44.332047"/>
<marker id="1298153593" label="Ulurgroth" category="71" did="1879346545" parentZoneId="1879338150" longitude="19.695332" latitude="-44.332047"/>
<marker id="1298153594" label="Mordor Salamander" category="71" did="1879351446" parentZoneId="1879338150" longitude="19.695332" latitude="-44.332047"/>
<marker id="1298153595" label="Rabid Ruins-bat" category="71" did="1879346456" parentZoneId="1879338150" longitude="19.884706" latitude="-44.206196"/>
<marker id="1298153596" label="Dire-horn" category="71" did="1879346458" parentZoneId="1879338150" longitude="19.884706" latitude="-44.206196"/>
<marker id="1298153597" label="Grangáth" category="71" did="1879346536" parentZoneId="1879338150" longitude="19.884706" latitude="-44.206196"/>
<marker id="1298153598" label="Rock-worm" category="71" did="1879351441" parentZoneId="1879338150" longitude="19.884706" latitude="-44.206196"/>
<marker id="1298153599" label="Blighted Marsh-lurker" category="71" did="1879342409" parentZoneId="1879338150" longitude="19.884706" latitude="-44.206196"/>
<marker id="1298153600" label="Burrowing Rift-crawler" category="71" did="1879351442" parentZoneId="1879338150" longitude="19.884706" latitude="-44.206196"/>
<marker id="1298153601" label="Great-bat" category="71" did="1879346450" parentZoneId="1879338150" longitude="19.884706" latitude="-44.206196"/>
<marker id="1298153602" label="Sûlok" category="71" did="1879346465" parentZoneId="1879338150" longitude="19.884706" latitude="-44.206196"/>
<marker id="1298153603" label="Fire Grim" category="71" did="1879351444" parentZoneId="1879338150" longitude="19.884706" latitude="-44.206196"/>
<marker id="1298153604" label="Young Fire-drake" category="71" did="1879351445" parentZoneId="1879338150" longitude="19.884706" latitude="-44.206196"/>
<marker id="1298153605" label="Ulurgroth" category="71" did="1879346545" parentZoneId="1879338150" longitude="19.884706" latitude="-44.206196"/>
<marker id="1298153606" label="Mordor Salamander" category="71" did="1879351446" parentZoneId="1879338150" longitude="19.884706" latitude="-44.206196"/>
<marker id="1298153607" label="Rabid Ruins-bat" category="71" did="1879346456" parentZoneId="1879338150" longitude="19.945858" latitude="-44.3496"/>
<marker id="1298153608" label="Dire-horn" category="71" did="1879346458" parentZoneId="1879338150" longitude="19.945858" latitude="-44.3496"/>
<marker id="1298153609" label="Grangáth" category="71" did="1879346536" parentZoneId="1879338150" longitude="19.945858" latitude="-44.3496"/>
<marker id="1298153610" label="Rock-worm" category="71" did="1879351441" parentZoneId="1879338150" longitude="19.945858" latitude="-44.3496"/>
<marker id="1298153611" label="Blighted Marsh-lurker" category="71" did="1879342409" parentZoneId="1879338150" longitude="19.945858" latitude="-44.3496"/>
<marker id="1298153612" label="Burrowing Rift-crawler" category="71" did="1879351442" parentZoneId="1879338150" longitude="19.945858" latitude="-44.3496"/>
<marker id="1298153613" label="Great-bat" category="71" did="1879346450" parentZoneId="1879338150" longitude="19.945858" latitude="-44.3496"/>
<marker id="1298153614" label="Sûlok" category="71" did="1879346465" parentZoneId="1879338150" longitude="19.945858" latitude="-44.3496"/>
<marker id="1298153615" label="Fire Grim" category="71" did="1879351444" parentZoneId="1879338150" longitude="19.945858" latitude="-44.3496"/>
<marker id="1298153616" label="Young Fire-drake" category="71" did="1879351445" parentZoneId="1879338150" longitude="19.945858" latitude="-44.3496"/>
<marker id="1298153617" label="Ulurgroth" category="71" did="1879346545" parentZoneId="1879338150" longitude="19.945858" latitude="-44.3496"/>
<marker id="1298153618" label="Mordor Salamander" category="71" did="1879351446" parentZoneId="1879338150" longitude="19.945858" latitude="-44.3496"/>
<marker id="1298153619" label="Rabid Ruins-bat" category="71" did="1879346456" parentZoneId="1879338150" longitude="20.112108" latitude="-44.196236"/>
<marker id="1298153620" label="Dire-horn" category="71" did="1879346458" parentZoneId="1879338150" longitude="20.112108" latitude="-44.196236"/>
<marker id="1298153621" label="Grangáth" category="71" did="1879346536" parentZoneId="1879338150" longitude="20.112108" latitude="-44.196236"/>
<marker id="1298153622" label="Rock-worm" category="71" did="1879351441" parentZoneId="1879338150" longitude="20.112108" latitude="-44.196236"/>
<marker id="1298153623" label="Blighted Marsh-lurker" category="71" did="1879342409" parentZoneId="1879338150" longitude="20.112108" latitude="-44.196236"/>
<marker id="1298153624" label="Burrowing Rift-crawler" category="71" did="1879351442" parentZoneId="1879338150" longitude="20.112108" latitude="-44.196236"/>
<marker id="1298153625" label="Great-bat" category="71" did="1879346450" parentZoneId="1879338150" longitude="20.112108" latitude="-44.196236"/>
<marker id="1298153626" label="Sûlok" category="71" did="1879346465" parentZoneId="1879338150" longitude="20.112108" latitude="-44.196236"/>
<marker id="1298153627" label="Fire Grim" category="71" did="1879351444" parentZoneId="1879338150" longitude="20.112108" latitude="-44.196236"/>
<marker id="1298153628" label="Young Fire-drake" category="71" did="1879351445" parentZoneId="1879338150" longitude="20.112108" latitude="-44.196236"/>
<marker id="1298153629" label="Ulurgroth" category="71" did="1879346545" parentZoneId="1879338150" longitude="20.112108" latitude="-44.196236"/>
<marker id="1298153630" label="Mordor Salamander" category="71" did="1879351446" parentZoneId="1879338150" longitude="20.112108" latitude="-44.196236"/>
<marker id="1298153631" label="Rabid Ruins-bat" category="71" did="1879346456" parentZoneId="1879338150" longitude="20.200975" latitude="-44.331078"/>
<marker id="1298153632" label="Dire-horn" category="71" did="1879346458" parentZoneId="1879338150" longitude="20.200975" latitude="-44.331078"/>
<marker id="1298153633" label="Grangáth" category="71" did="1879346536" parentZoneId="1879338150" longitude="20.200975" latitude="-44.331078"/>
<marker id="1298153634" label="Rock-worm" category="71" did="1879351441" parentZoneId="1879338150" longitude="20.200975" latitude="-44.331078"/>
<marker id="1298153635" label="Blighted Marsh-lurker" category="71" did="1879342409" parentZoneId="1879338150" longitude="20.200975" latitude="-44.331078"/>
<marker id="1298153636" label="Burrowing Rift-crawler" category="71" did="1879351442" parentZoneId="1879338150" longitude="20.200975" latitude="-44.331078"/>
<marker id="1298153637" label="Great-bat" category="71" did="1879346450" parentZoneId="1879338150" longitude="20.200975" latitude="-44.331078"/>
<marker id="1298153638" label="Sûlok" category="71" did="1879346465" parentZoneId="1879338150" longitude="20.200975" latitude="-44.331078"/>
<marker id="1298153639" label="Fire Grim" category="71" did="1879351444" parentZoneId="1879338150" longitude="20.200975" latitude="-44.331078"/>
<marker id="1298153640" label="Young Fire-drake" category="71" did="1879351445" parentZoneId="1879338150" longitude="20.200975" latitude="-44.331078"/>
<marker id="1298153641" label="Ulurgroth" category="71" did="1879346545" parentZoneId="1879338150" longitude="20.200975" latitude="-44.331078"/>
<marker id="1298153642" label="Mordor Salamander" category="71" did="1879351446" parentZoneId="1879338150" longitude="20.200975" latitude="-44.331078"/>
<marker id="1298153643" label="Rabid Ruins-bat" category="71" did="1879346456" parentZoneId="1879338150" longitude="20.323944" latitude="-44.217125"/>
<marker id="1298153644" label="Dire-horn" category="71" did="1879346458" parentZoneId="1879338150" longitude="20.323944" latitude="-44.217125"/>
<marker id="1298153645" label="Grangáth" category="71" did="1879346536" parentZoneId="1879338150" longitude="20.323944" latitude="-44.217125"/>
<marker id="1298153646" label="Rock-worm" category="71" did="1879351441" parentZoneId="1879338150" longitude="20.323944" latitude="-44.217125"/>
<marker id="1298153647" label="Blighted Marsh-lurker" category="71" did="1879342409" parentZoneId="1879338150" longitude="20.323944" latitude="-44.217125"/>
<marker id="1298153648" label="Burrowing Rift-crawler" category="71" did="1879351442" parentZoneId="1879338150" longitude="20.323944" latitude="-44.217125"/>
<marker id="1298153649" label="Great-bat" category="71" did="1879346450" parentZoneId="1879338150" longitude="20.323944" latitude="-44.217125"/>
<marker id="1298153650" label="Sûlok" category="71" did="1879346465" parentZoneId="1879338150" longitude="20.323944" latitude="-44.217125"/>
<marker id="1298153651" label="Fire Grim" category="71" did="1879351444" parentZoneId="1879338150" longitude="20.323944" latitude="-44.217125"/>
<marker id="1298153652" label="Young Fire-drake" category="71" did="1879351445" parentZoneId="1879338150" longitude="20.323944" latitude="-44.217125"/>
<marker id="1298153653" label="Ulurgroth" category="71" did="1879346545" parentZoneId="1879338150" longitude="20.323944" latitude="-44.217125"/>
<marker id="1298153654" label="Mordor Salamander" category="71" did="1879351446" parentZoneId="1879338150" longitude="20.323944" latitude="-44.217125"/>
<marker id="1298157570" label="Watching Stone" category="70" did="1879346921" parentZoneId="1879338150" longitude="20.176348" latitude="-43.576286"/>
<marker id="1298202624" label="Plateau Mole-rat" category="78" did="1879354686" parentZoneId="1879338150" longitude="20.577246" latitude="-47.19891"/>
<marker id="1298202625" label="Gorgoroth Crawler" category="78" did="1879354675" parentZoneId="1879338150" longitude="20.577246" latitude="-47.19891"/>
<marker id="1298202626" label="Ebon Serpent" category="78" did="1879354674" parentZoneId="1879338150" longitude="20.577246" latitude="-47.19891"/>
<marker id="1298202627" label="Gorgoroth Wormling" category="78" did="1879354678" parentZoneId="1879338150" longitude="20.577246" latitude="-47.19891"/>
<marker id="1298202628" label="Rock-worm" category="71" did="1879351441" parentZoneId="1879338150" longitude="20.564648" latitude="-47.194588"/>
<marker id="1298202629" label="Burrowing Rift-crawler" category="71" did="1879351442" parentZoneId="1879338150" longitude="20.564648" latitude="-47.194588"/>
<marker id="1298202630" label="Fire Grim" category="71" did="1879351444" parentZoneId="1879338150" longitude="20.564648" latitude="-47.194588"/>
<marker id="1298202631" label="Young Fire-drake" category="71" did="1879351445" parentZoneId="1879338150" longitude="20.564648" latitude="-47.194588"/>
<marker id="1298202632" label="Mordor Salamander" category="71" did="1879351446" parentZoneId="1879338150" longitude="20.564648" latitude="-47.194588"/>
<marker id="1298202635" label="Plateau Mole-rat" category="78" did="1879354686" parentZoneId="1879338150" longitude="20.637402" latitude="-47.527588"/>
<marker id="1298202636" label="Gorgoroth Crawler" category="78" did="1879354675" parentZoneId="1879338150" longitude="20.637402" latitude="-47.527588"/>
<marker id="1298202637" label="Ebon Serpent" category="78" did="1879354674" parentZoneId="1879338150" longitude="20.637402" latitude="-47.527588"/>
<marker id="1298202638" label="Gorgoroth Wormling" category="78" did="1879354678" parentZoneId="1879338150" longitude="20.637402" latitude="-47.527588"/>
<marker id="1298202639" label="Plateau Mole-rat" category="78" did="1879354686" parentZoneId="1879338150" longitude="20.531366" latitude="-47.26484"/>
<marker id="1298202640" label="Gorgoroth Crawler" category="78" did="1879354675" parentZoneId="1879338150" longitude="20.531366" latitude="-47.26484"/>
<marker id="1298202641" label="Ebon Serpent" category="78" did="1879354674" parentZoneId="1879338150" longitude="20.531366" latitude="-47.26484"/>
<marker id="1298202642" label="Gorgoroth Wormling" category="78" did="1879354678" parentZoneId="1879338150" longitude="20.531366" latitude="-47.26484"/>
<marker id="1298202643" label="Plateau Mole-rat" category="78" did="1879354686" parentZoneId="1879338150" longitude="20.505487" latitude="-46.98034"/>
<marker id="1298202644" label="Gorgoroth Crawler" category="78" did="1879354675" parentZoneId="1879338150" longitude="20.505487" latitude="-46.98034"/>
<marker id="1298202645" label="Ebon Serpent" category="78" did="1879354674" parentZoneId="1879338150" longitude="20.505487" latitude="-46.98034"/>
<marker id="1298202646" label="Gorgoroth Wormling" category="78" did="1879354678" parentZoneId="1879338150" longitude="20.505487" latitude="-46.98034"/>
<marker id="1298202647" label="Rabid Ruins-bat" category="71" did="1879346456" parentZoneId="1879338150" longitude="20.668886" latitude="-47.56451"/>
<marker id="1298202648" label="Dire-horn" category="71" did="1879346458" parentZoneId="1879338150" longitude="20.668886" latitude="-47.56451"/>
<marker id="1298202649" label="Grangáth" category="71" did="1879346536" parentZoneId="1879338150" longitude="20.668886" latitude="-47.56451"/>
<marker id="1298202650" label="Rock-worm" category="71" did="1879351441" parentZoneId="1879338150" longitude="20.668886" latitude="-47.56451"/>
<marker id="1298202651" label="Blighted Marsh-lurker" category="71" did="1879342409" parentZoneId="1879338150" longitude="20.668886" latitude="-47.56451"/>
<marker id="1298202652" label="Burrowing Rift-crawler" category="71" did="1879351442" parentZoneId="1879338150" longitude="20.668886" latitude="-47.56451"/>
<marker id="1298202653" label="Great-bat" category="71" did="1879346450" parentZoneId="1879338150" longitude="20.668886" latitude="-47.56451"/>
<marker id="1298202654" label="Sûlok" category="71" did="1879346465" parentZoneId="1879338150" longitude="20.668886" latitude="-47.56451"/>
<marker id="1298202655" label="Fire Grim" category="71" did="1879351444" parentZoneId="1879338150" longitude="20.668886" latitude="-47.56451"/>
<marker id="1298202656" label="Young Fire-drake" category="71" did="1879351445" parentZoneId="1879338150" longitude="20.668886" latitude="-47.56451"/>
<marker id="1298202657" label="Ulurgroth" category="71" did="1879346545" parentZoneId="1879338150" longitude="20.668886" latitude="-47.56451"/>
<marker id="1298202658" label="Mordor Salamander" category="71" did="1879351446" parentZoneId="1879338150" longitude="20.668886" latitude="-47.56451"/>
<marker id="1298202659" label="Rabid Ruins-bat" category="71" did="1879346456" parentZoneId="1879338150" longitude="20.581074" latitude="-47.34798"/>
<marker id="1298202660" label="Dire-horn" category="71" did="1879346458" parentZoneId="1879338150" longitude="20.581074" latitude="-47.34798"/>
<marker id="1298202661" label="Grangáth" category="71" did="1879346536" parentZoneId="1879338150" longitude="20.581074" latitude="-47.34798"/>
<marker id="1298202662" label="Rock-worm" category="71" did="1879351441" parentZoneId="1879338150" longitude="20.581074" latitude="-47.34798"/>
<marker id="1298202663" label="Blighted Marsh-lurker" category="71" did="1879342409" parentZoneId="1879338150" longitude="20.581074" latitude="-47.34798"/>
<marker id="1298202664" label="Burrowing Rift-crawler" category="71" did="1879351442" parentZoneId="1879338150" longitude="20.581074" latitude="-47.34798"/>
<marker id="1298202665" label="Great-bat" category="71" did="1879346450" parentZoneId="1879338150" longitude="20.581074" latitude="-47.34798"/>
<marker id="1298202666" label="Sûlok" category="71" did="1879346465" parentZoneId="1879338150" longitude="20.581074" latitude="-47.34798"/>
<marker id="1298202667" label="Fire Grim" category="71" did="1879351444" parentZoneId="1879338150" longitude="20.581074" latitude="-47.34798"/>
<marker id="1298202668" label="Young Fire-drake" category="71" did="1879351445" parentZoneId="1879338150" longitude="20.581074" latitude="-47.34798"/>
<marker id="1298202669" label="Ulurgroth" category="71" did="1879346545" parentZoneId="1879338150" longitude="20.581074" latitude="-47.34798"/>
<marker id="1298202670" label="Mordor Salamander" category="71" did="1879351446" parentZoneId="1879338150" longitude="20.581074" latitude="-47.34798"/>
<marker id="1298202671" label="Rabid Ruins-bat" category="71" did="1879346456" parentZoneId="1879338150" longitude="20.523848" latitude="-47.150066"/>
<marker id="1298202672" label="Dire-horn" category="71" did="1879346458" parentZoneId="1879338150" longitude="20.523848" latitude="-47.150066"/>
<marker id="1298202673" label="Grangáth" category="71" did="1879346536" parentZoneId="1879338150" longitude="20.523848" latitude="-47.150066"/>
<marker id="1298202674" label="Rock-worm" category="71" did="1879351441" parentZoneId="1879338150" longitude="20.523848" latitude="-47.150066"/>
<marker id="1298202675" label="Blighted Marsh-lurker" category="71" did="1879342409" parentZoneId="1879338150" longitude="20.523848" latitude="-47.150066"/>
<marker id="1298202676" label="Burrowing Rift-crawler" category="71" did="1879351442" parentZoneId="1879338150" longitude="20.523848" latitude="-47.150066"/>
<marker id="1298202677" label="Great-bat" category="71" did="1879346450" parentZoneId="1879338150" longitude="20.523848" latitude="-47.150066"/>
<marker id="1298202678" label="Sûlok" category="71" did="1879346465" parentZoneId="1879338150" longitude="20.523848" latitude="-47.150066"/>
