<?xml version="1.0" encoding="UTF-8"?><markers>
<marker id="375365632" label="Wandering Moor-wolf" category="71" did="1879448932" parentZoneId="1879445911" longitude="-57.327187" latitude="-51.650005"/>
<marker id="375365633" label="White Hand Orc-scout" category="71" did="1879448917" parentZoneId="1879445911" longitude="-57.327187" latitude="-51.650005"/>
<marker id="375365634" label="Ruddy-mantle Aurochs" category="71" did="1879448898" parentZoneId="1879445911" longitude="-57.327187" latitude="-51.650005"/>
<marker id="375365635" label="Ruddy-mantle Bull" category="71" did="1879448897" parentZoneId="1879445911" longitude="-57.327187" latitude="-51.650005"/>
<marker id="375365636" label="Moor Hendroval" category="71" did="1879448913" parentZoneId="1879445911" longitude="-57.327187" latitude="-51.650005"/>
<marker id="375365637" label="Hill Grouse" category="78" did="1879443697" parentZoneId="1879445911" longitude="-57.327187" latitude="-51.650005"/>
<marker id="375365638" label="Rolling Hills Goat" category="78" did="1879443706" parentZoneId="1879445911" longitude="-57.327187" latitude="-51.650005"/>
<marker id="375365639" label="Southern Thief" category="71" did="1879448907" parentZoneId="1879445911" longitude="-57.327187" latitude="-51.650005"/>
<marker id="375365640" label="Red-coat Fox" category="78" did="1879443707" parentZoneId="1879445911" longitude="-57.327187" latitude="-51.650005"/>
<marker id="375365641" label="Spotted Doe" category="78" did="1879443704" parentZoneId="1879445911" longitude="-57.327187" latitude="-51.650005"/>
<marker id="375365642" label="Wandering Moor-wolf" category="71" did="1879448932" parentZoneId="1879445911" longitude="-57.551884" latitude="-51.674595"/>
<marker id="375365643" label="White Hand Orc-scout" category="71" did="1879448917" parentZoneId="1879445911" longitude="-57.551884" latitude="-51.674595"/>
<marker id="375365644" label="Ruddy-mantle Aurochs" category="71" did="1879448898" parentZoneId="1879445911" longitude="-57.551884" latitude="-51.674595"/>
<marker id="375365645" label="Ruddy-mantle Bull" category="71" did="1879448897" parentZoneId="1879445911" longitude="-57.551884" latitude="-51.674595"/>
<marker id="375365646" label="Moor Hendroval" category="71" did="1879448913" parentZoneId="1879445911" longitude="-57.551884" latitude="-51.674595"/>
<marker id="375365647" label="Hill Grouse" category="78" did="1879443697" parentZoneId="1879445911" longitude="-57.551884" latitude="-51.674595"/>
<marker id="375365648" label="Rolling Hills Goat" category="78" did="1879443706" parentZoneId="1879445911" longitude="-57.551884" latitude="-51.674595"/>
<marker id="375365649" label="Southern Thief" category="71" did="1879448907" parentZoneId="1879445911" longitude="-57.551884" latitude="-51.674595"/>
<marker id="375365650" label="Red-coat Fox" category="78" did="1879443707" parentZoneId="1879445911" longitude="-57.551884" latitude="-51.674595"/>
<marker id="375365651" label="Spotted Doe" category="78" did="1879443704" parentZoneId="1879445911" longitude="-57.551884" latitude="-51.674595"/>
<marker id="375365652" label="Wandering Moor-wolf" category="71" did="1879448932" parentZoneId="1879445911" longitude="-57.602314" latitude="-51.84731"/>
<marker id="375365653" label="White Hand Orc-scout" category="71" did="1879448917" parentZoneId="1879445911" longitude="-57.602314" latitude="-51.84731"/>
<marker id="375365654" label="Ruddy-mantle Aurochs" category="71" did="1879448898" parentZoneId="1879445911" longitude="-57.602314" latitude="-51.84731"/>
<marker id="375365655" label="Ruddy-mantle Bull" category="71" did="1879448897" parentZoneId="1879445911" longitude="-57.602314" latitude="-51.84731"/>
<marker id="375365656" label="Moor Hendroval" category="71" did="1879448913" parentZoneId="1879445911" longitude="-57.602314" latitude="-51.84731"/>
<marker id="375365657" label="Hill Grouse" category="78" did="1879443697" parentZoneId="1879445911" longitude="-57.602314" latitude="-51.84731"/>
<marker id="375365658" label="Rolling Hills Goat" category="78" did="1879443706" parentZoneId="1879445911" longitude="-57.602314" latitude="-51.84731"/>
<marker id="375365659" label="Southern Thief" category="71" did="1879448907" parentZoneId="1879445911" longitude="-57.602314" latitude="-51.84731"/>
<marker id="375365660" label="Red-coat Fox" category="78" did="1879443707" parentZoneId="1879445911" longitude="-57.602314" latitude="-51.84731"/>
<marker id="375365661" label="Spotted Doe" category="78" did="1879443704" parentZoneId="1879445911" longitude="-57.602314" latitude="-51.84731"/>
<marker id="375365662" label="Wandering Moor-wolf" category="71" did="1879448932" parentZoneId="1879445911" longitude="-57.36362" latitude="-51.79521"/>
<marker id="375365663" label="White Hand Orc-scout" category="71" did="1879448917" parentZoneId="1879445911" longitude="-57.36362" latitude="-51.79521"/>
<marker id="375365664" label="Ruddy-mantle Aurochs" category="71" did="1879448898" parentZoneId="1879445911" longitude="-57.36362" latitude="-51.79521"/>
<marker id="375365665" label="Ruddy-mantle Bull" category="71" did="1879448897" parentZoneId="1879445911" longitude="-57.36362" latitude="-51.79521"/>
<marker id="375365666" label="Moor Hendroval" category="71" did="1879448913" parentZoneId="1879445911" longitude="-57.36362" latitude="-51.79521"/>
<marker id="375365667" label="Hill Grouse" category="78" did="1879443697" parentZoneId="1879445911" longitude="-57.36362" latitude="-51.79521"/>
<marker id="375365668" label="Rolling Hills Goat" category="78" did="1879443706" parentZoneId="1879445911" longitude="-57.36362" latitude="-51.79521"/>
<marker id="375365669" label="Southern Thief" category="71" did="1879448907" parentZoneId="1879445911" longitude="-57.36362" latitude="-51.79521"/>
<marker id="375365670" label="Red-coat Fox" category="78" did="1879443707" parentZoneId="1879445911" longitude="-57.36362" latitude="-51.79521"/>
<marker id="375365671" label="Spotted Doe" category="78" did="1879443704" parentZoneId="1879445911" longitude="-57.36362" latitude="-51.79521"/>
<marker id="375365672" label="Wandering Moor-wolf" category="71" did="1879448932" parentZoneId="1879445911" longitude="-57.33705" latitude="-51.965218"/>
<marker id="375365673" label="White Hand Orc-scout" category="71" did="1879448917" parentZoneId="1879445911" longitude="-57.33705" latitude="-51.965218"/>
<marker id="375365674" label="Ruddy-mantle Aurochs" category="71" did="1879448898" parentZoneId="1879445911" longitude="-57.33705" latitude="-51.965218"/>
<marker id="375365675" label="Ruddy-mantle Bull" category="71" did="1879448897" parentZoneId="1879445911" longitude="-57.33705" latitude="-51.965218"/>
<marker id="375365676" label="Moor Hendroval" category="71" did="1879448913" parentZoneId="1879445911" longitude="-57.33705" latitude="-51.965218"/>
<marker id="375365677" label="Hill Grouse" category="78" did="1879443697" parentZoneId="1879445911" longitude="-57.33705" latitude="-51.965218"/>
<marker id="375365678" label="Rolling Hills Goat" category="78" did="1879443706" parentZoneId="1879445911" longitude="-57.33705" latitude="-51.965218"/>
<marker id="375365679" label="Southern Thief" category="71" did="1879448907" parentZoneId="1879445911" longitude="-57.33705" latitude="-51.965218"/>
<marker id="375365680" label="Red-coat Fox" category="78" did="1879443707" parentZoneId="1879445911" longitude="-57.33705" latitude="-51.965218"/>
<marker id="375365681" label="Spotted Doe" category="78" did="1879443704" parentZoneId="1879445911" longitude="-57.33705" latitude="-51.965218"/>
<marker id="375365682" label="Wandering Moor-wolf" category="71" did="1879448932" parentZoneId="1879445911" longitude="-57.427536" latitude="-52.17922"/>
<marker id="375365683" label="White Hand Orc-scout" category="71" did="1879448917" parentZoneId="1879445911" longitude="-57.427536" latitude="-52.17922"/>
<marker id="375365684" label="Ruddy-mantle Aurochs" category="71" did="1879448898" parentZoneId="1879445911" longitude="-57.427536" latitude="-52.17922"/>
<marker id="375365685" label="Ruddy-mantle Bull" category="71" did="1879448897" parentZoneId="1879445911" longitude="-57.427536" latitude="-52.17922"/>
<marker id="375365686" label="Moor Hendroval" category="71" did="1879448913" parentZoneId="1879445911" longitude="-57.427536" latitude="-52.17922"/>
<marker id="375365687" label="Hill Grouse" category="78" did="1879443697" parentZoneId="1879445911" longitude="-57.427536" latitude="-52.17922"/>
<marker id="375365688" label="Rolling Hills Goat" category="78" did="1879443706" parentZoneId="1879445911" longitude="-57.427536" latitude="-52.17922"/>
<marker id="375365689" label="Southern Thief" category="71" did="1879448907" parentZoneId="1879445911" longitude="-57.427536" latitude="-52.17922"/>
<marker id="375365690" label="Red-coat Fox" category="78" did="1879443707" parentZoneId="1879445911" longitude="-57.427536" latitude="-52.17922"/>
<marker id="375365691" label="Spotted Doe" category="78" did="1879443704" parentZoneId="1879445911" longitude="-57.427536" latitude="-52.17922"/>
<marker id="375365692" label="Wandering Moor-wolf" category="71" did="1879448932" parentZoneId="1879445911" longitude="-57.505886" latitude="-52.2425"/>
<marker id="375365693" label="White Hand Orc-scout" category="71" did="1879448917" parentZoneId="1879445911" longitude="-57.505886" latitude="-52.2425"/>
<marker id="375365694" label="Ruddy-mantle Aurochs" category="71" did="1879448898" parentZoneId="1879445911" longitude="-57.505886" latitude="-52.2425"/>
<marker id="375365695" label="Ruddy-mantle Bull" category="71" did="1879448897" parentZoneId="1879445911" longitude="-57.505886" latitude="-52.2425"/>
<marker id="375365696" label="Moor Hendroval" category="71" did="1879448913" parentZoneId="1879445911" longitude="-57.505886" latitude="-52.2425"/>
<marker id="375365697" label="Hill Grouse" category="78" did="1879443697" parentZoneId="1879445911" longitude="-57.505886" latitude="-52.2425"/>
<marker id="375365698" label="Rolling Hills Goat" category="78" did="1879443706" parentZoneId="1879445911" longitude="-57.505886" latitude="-52.2425"/>
<marker id="375365699" label="Southern Thief" category="71" did="1879448907" parentZoneId="1879445911" longitude="-57.505886" latitude="-52.2425"/>
<marker id="375365700" label="Red-coat Fox" category="78" did="1879443707" parentZoneId="1879445911" longitude="-57.505886" latitude="-52.2425"/>
<marker id="375365701" label="Spotted Doe" category="78" did="1879443704" parentZoneId="1879445911" longitude="-57.505886" latitude="-52.2425"/>
<marker id="375365702" label="Wandering Moor-wolf" category="71" did="1879448932" parentZoneId="1879445911" longitude="-57.692978" latitude="-52.045742"/>
<marker id="375365703" label="White Hand Orc-scout" category="71" did="1879448917" parentZoneId="1879445911" longitude="-57.692978" latitude="-52.045742"/>
<marker id="375365704" label="Ruddy-mantle Aurochs" category="71" did="1879448898" parentZoneId="1879445911" longitude="-57.692978" latitude="-52.045742"/>
<marker id="375365705" label="Ruddy-mantle Bull" category="71" did="1879448897" parentZoneId="1879445911" longitude="-57.692978" latitude="-52.045742"/>
<marker id="375365706" label="Moor Hendroval" category="71" did="1879448913" parentZoneId="1879445911" longitude="-57.692978" latitude="-52.045742"/>
<marker id="375365707" label="Hill Grouse" category="78" did="1879443697" parentZoneId="1879445911" longitude="-57.692978" latitude="-52.045742"/>
<marker id="375365708" label="Rolling Hills Goat" category="78" did="1879443706" parentZoneId="1879445911" longitude="-57.692978" latitude="-52.045742"/>
<marker id="375365709" label="Southern Thief" category="71" did="1879448907" parentZoneId="1879445911" longitude="-57.692978" latitude="-52.045742"/>
<marker id="375365710" label="Red-coat Fox" category="78" did="1879443707" parentZoneId="1879445911" longitude="-57.692978" latitude="-52.045742"/>
<marker id="375365711" label="Spotted Doe" category="78" did="1879443704" parentZoneId="1879445911" longitude="-57.692978" latitude="-52.045742"/>
<marker id="375365712" label="Wandering Moor-wolf" category="71" did="1879448932" parentZoneId="1879445911" longitude="-57.686768" latitude="-51.829815"/>
<marker id="375365713" label="White Hand Orc-scout" category="71" did="1879448917" parentZoneId="1879445911" longitude="-57.686768" latitude="-51.829815"/>
<marker id="375365714" label="Ruddy-mantle Aurochs" category="71" did="1879448898" parentZoneId="1879445911" longitude="-57.686768" latitude="-51.829815"/>
<marker id="375365715" label="Ruddy-mantle Bull" category="71" did="1879448897" parentZoneId="1879445911" longitude="-57.686768" latitude="-51.829815"/>
<marker id="375365716" label="Moor Hendroval" category="71" did="1879448913" parentZoneId="1879445911" longitude="-57.686768" latitude="-51.829815"/>
<marker id="375365717" label="Hill Grouse" category="78" did="1879443697" parentZoneId="1879445911" longitude="-57.686768" latitude="-51.829815"/>
<marker id="375365718" label="Rolling Hills Goat" category="78" did="1879443706" parentZoneId="1879445911" longitude="-57.686768" latitude="-51.829815"/>
<marker id="375365719" label="Southern Thief" category="71" did="1879448907" parentZoneId="1879445911" longitude="-57.686768" latitude="-51.829815"/>
<marker id="375365720" label="Red-coat Fox" category="78" did="1879443707" parentZoneId="1879445911" longitude="-57.686768" latitude="-51.829815"/>
<marker id="375365721" label="Spotted Doe" category="78" did="1879443704" parentZoneId="1879445911" longitude="-57.686768" latitude="-51.829815"/>
<marker id="375365722" label="Wandering Moor-wolf" category="71" did="1879448932" parentZoneId="1879445911" longitude="-57.815907" latitude="-51.699165"/>
<marker id="375365723" label="White Hand Orc-scout" category="71" did="1879448917" parentZoneId="1879445911" longitude="-57.815907" latitude="-51.699165"/>
<marker id="375365724" label="Ruddy-mantle Aurochs" category="71" did="1879448898" parentZoneId="1879445911" longitude="-57.815907" latitude="-51.699165"/>
<marker id="375365725" label="Ruddy-mantle Bull" category="71" did="1879448897" parentZoneId="1879445911" longitude="-57.815907" latitude="-51.699165"/>
<marker id="375365726" label="Moor Hendroval" category="71" did="1879448913" parentZoneId="1879445911" longitude="-57.815907" latitude="-51.699165"/>
<marker id="375365727" label="Hill Grouse" category="78" did="1879443697" parentZoneId="1879445911" longitude="-57.815907" latitude="-51.699165"/>
<marker id="375365728" label="Rolling Hills Goat" category="78" did="1879443706" parentZoneId="1879445911" longitude="-57.815907" latitude="-51.699165"/>
<marker id="375365729" label="Southern Thief" category="71" did="1879448907" parentZoneId="1879445911" longitude="-57.815907" latitude="-51.699165"/>
<marker id="375365730" label="Red-coat Fox" category="78" did="1879443707" parentZoneId="1879445911" longitude="-57.815907" latitude="-51.699165"/>
<marker id="375365731" label="Spotted Doe" category="78" did="1879443704" parentZoneId="1879445911" longitude="-57.815907" latitude="-51.699165"/>
<marker id="375365732" label="Wandering Moor-wolf" category="71" did="1879448932" parentZoneId="1879445911" longitude="-57.822823" latitude="-51.972515"/>
<marker id="375365733" label="White Hand Orc-scout" category="71" did="1879448917" parentZoneId="1879445911" longitude="-57.822823" latitude="-51.972515"/>
<marker id="375365734" label="Ruddy-mantle Aurochs" category="71" did="1879448898" parentZoneId="1879445911" longitude="-57.822823" latitude="-51.972515"/>
<marker id="375365735" label="Ruddy-mantle Bull" category="71" did="1879448897" parentZoneId="1879445911" longitude="-57.822823" latitude="-51.972515"/>
<marker id="375365736" label="Moor Hendroval" category="71" did="1879448913" parentZoneId="1879445911" longitude="-57.822823" latitude="-51.972515"/>
<marker id="375365737" label="Hill Grouse" category="78" did="1879443697" parentZoneId="1879445911" longitude="-57.822823" latitude="-51.972515"/>
<marker id="375365738" label="Rolling Hills Goat" category="78" did="1879443706" parentZoneId="1879445911" longitude="-57.822823" latitude="-51.972515"/>
<marker id="375365739" label="Southern Thief" category="71" did="1879448907" parentZoneId="1879445911" longitude="-57.822823" latitude="-51.972515"/>
<marker id="375365740" label="Red-coat Fox" category="78" did="1879443707" parentZoneId="1879445911" longitude="-57.822823" latitude="-51.972515"/>
<marker id="375365741" label="Spotted Doe" category="78" did="1879443704" parentZoneId="1879445911" longitude="-57.822823" latitude="-51.972515"/>
<marker id="375365742" label="Wandering Moor-wolf" category="71" did="1879448932" parentZoneId="1879445911" longitude="-57.368904" latitude="-51.686802"/>
<marker id="375365743" label="White Hand Orc-scout" category="71" did="1879448917" parentZoneId="1879445911" longitude="-57.368904" latitude="-51.686802"/>
<marker id="375365744" label="Ruddy-mantle Aurochs" category="71" did="1879448898" parentZoneId="1879445911" longitude="-57.368904" latitude="-51.686802"/>
<marker id="375365745" label="Ruddy-mantle Bull" category="71" did="1879448897" parentZoneId="1879445911" longitude="-57.368904" latitude="-51.686802"/>
<marker id="375365746" label="Moor Hendroval" category="71" did="1879448913" parentZoneId="1879445911" longitude="-57.368904" latitude="-51.686802"/>
<marker id="375365747" label="Hill Grouse" category="78" did="1879443697" parentZoneId="1879445911" longitude="-57.368904" latitude="-51.686802"/>
<marker id="375365748" label="Rolling Hills Goat" category="78" did="1879443706" parentZoneId="1879445911" longitude="-57.368904" latitude="-51.686802"/>
<marker id="375365749" label="Southern Thief" category="71" did="1879448907" parentZoneId="1879445911" longitude="-57.368904" latitude="-51.686802"/>
<marker id="375365750" label="Red-coat Fox" category="78" did="1879443707" parentZoneId="1879445911" longitude="-57.368904" latitude="-51.686802"/>
<marker id="375365751" label="Spotted Doe" category="78" did="1879443704" parentZoneId="1879445911" longitude="-57.368904" latitude="-51.686802"/>
<marker id="375365752" label="Wandering Moor-wolf" category="71" did="1879448932" parentZoneId="1879445911" longitude="-57.30733" latitude="-51.783905"/>
<marker id="375365753" label="White Hand Orc-scout" category="71" did="1879448917" parentZoneId="1879445911" longitude="-57.30733" latitude="-51.783905"/>
<marker id="375365754" label="Ruddy-mantle Aurochs" category="71" did="1879448898" parentZoneId="1879445911" longitude="-57.30733" latitude="-51.783905"/>
<marker id="375365755" label="Ruddy-mantle Bull" category="71" did="1879448897" parentZoneId="1879445911" longitude="-57.30733" latitude="-51.783905"/>
<marker id="375365756" label="Moor Hendroval" category="71" did="1879448913" parentZoneId="1879445911" longitude="-57.30733" latitude="-51.783905"/>
<marker id="375365757" label="Hill Grouse" category="78" did="1879443697" parentZoneId="1879445911" longitude="-57.30733" latitude="-51.783905"/>
<marker id="375365758" label="Rolling Hills Goat" category="78" did="1879443706" parentZoneId="1879445911" longitude="-57.30733" latitude="-51.783905"/>
<marker id="375365759" label="Southern Thief" category="71" did="1879448907" parentZoneId="1879445911" longitude="-57.30733" latitude="-51.783905"/>
<marker id="375365760" label="Red-coat Fox" category="78" did="1879443707" parentZoneId="1879445911" longitude="-57.30733" latitude="-51.783905"/>
<marker id="375365761" label="Spotted Doe" category="78" did="1879443704" parentZoneId="1879445911" longitude="-57.30733" latitude="-51.783905"/>
<marker id="375365762" label="Wandering Moor-wolf" category="71" did="1879448932" parentZoneId="1879445911" longitude="-57.328632" latitude="-52.06039"/>
<marker id="375365763" label="White Hand Orc-scout" category="71" did="1879448917" parentZoneId="1879445911" longitude="-57.328632" latitude="-52.06039"/>
<marker id="375365764" label="Ruddy-mantle Aurochs" category="71" did="1879448898" parentZoneId="1879445911" longitude="-57.328632" latitude="-52.06039"/>
<marker id="375365765" label="Ruddy-mantle Bull" category="71" did="1879448897" parentZoneId="1879445911" longitude="-57.328632" latitude="-52.06039"/>
<marker id="375365766" label="Moor Hendroval" category="71" did="1879448913" parentZoneId="1879445911" longitude="-57.328632" latitude="-52.06039"/>
<marker id="375365767" label="Hill Grouse" category="78" did="1879443697" parentZoneId="1879445911" longitude="-57.328632" latitude="-52.06039"/>
<marker id="375365768" label="Rolling Hills Goat" category="78" did="1879443706" parentZoneId="1879445911" longitude="-57.328632" latitude="-52.06039"/>
<marker id="375365769" label="Southern Thief" category="71" did="1879448907" parentZoneId="1879445911" longitude="-57.328632" latitude="-52.06039"/>
<marker id="375365770" label="Red-coat Fox" category="78" did="1879443707" parentZoneId="1879445911" longitude="-57.328632" latitude="-52.06039"/>
<marker id="375365771" label="Spotted Doe" category="78" did="1879443704" parentZoneId="1879445911" longitude="-57.328632" latitude="-52.06039"/>
<marker id="375365772" label="Wandering Moor-wolf" category="71" did="1879448932" parentZoneId="1879445911" longitude="-57.394043" latitude="-51.92359"/>
<marker id="375365773" label="White Hand Orc-scout" category="71" did="1879448917" parentZoneId="1879445911" longitude="-57.394043" latitude="-51.92359"/>
<marker id="375365774" label="Ruddy-mantle Aurochs" category="71" did="1879448898" parentZoneId="1879445911" longitude="-57.394043" latitude="-51.92359"/>
<marker id="375365775" label="Ruddy-mantle Bull" category="71" did="1879448897" parentZoneId="1879445911" longitude="-57.394043" latitude="-51.92359"/>
<marker id="375365776" label="Moor Hendroval" category="71" did="1879448913" parentZoneId="1879445911" longitude="-57.394043" latitude="-51.92359"/>
<marker id="375365777" label="Hill Grouse" category="78" did="1879443697" parentZoneId="1879445911" longitude="-57.394043" latitude="-51.92359"/>
<marker id="375365778" label="Rolling Hills Goat" category="78" did="1879443706" parentZoneId="1879445911" longitude="-57.394043" latitude="-51.92359"/>
<marker id="375365779" label="Southern Thief" category="71" did="1879448907" parentZoneId="1879445911" longitude="-57.394043" latitude="-51.92359"/>
<marker id="375365780" label="Red-coat Fox" category="78" did="1879443707" parentZoneId="1879445911" longitude="-57.394043" latitude="-51.92359"/>
<marker id="375365781" label="Spotted Doe" category="78" did="1879443704" parentZoneId="1879445911" longitude="-57.394043" latitude="-51.92359"/>
<marker id="375365782" label="Wandering Moor-wolf" category="71" did="1879448932" parentZoneId="1879445911" longitude="-57.26871" latitude="-51.93752"/>
<marker id="375365783" label="White Hand Orc-scout" category="71" did="1879448917" parentZoneId="1879445911" longitude="-57.26871" latitude="-51.93752"/>
<marker id="375365784" label="Ruddy-mantle Aurochs" category="71" did="1879448898" parentZoneId="1879445911" longitude="-57.26871" latitude="-51.93752"/>
<marker id="375365785" label="Ruddy-mantle Bull" category="71" did="1879448897" parentZoneId="1879445911" longitude="-57.26871" latitude="-51.93752"/>
<marker id="375365786" label="Moor Hendroval" category="71" did="1879448913" parentZoneId="1879445911" longitude="-57.26871" latitude="-51.93752"/>
<marker id="375365787" label="Hill Grouse" category="78" did="1879443697" parentZoneId="1879445911" longitude="-57.26871" latitude="-51.93752"/>
<marker id="375365788" label="Rolling Hills Goat" category="78" did="1879443706" parentZoneId="1879445911" longitude="-57.26871" latitude="-51.93752"/>
<marker id="375365789" label="Southern Thief" category="71" did="1879448907" parentZoneId="1879445911" longitude="-57.26871" latitude="-51.93752"/>
<marker id="375365790" label="Red-coat Fox" category="78" did="1879443707" parentZoneId="1879445911" longitude="-57.26871" latitude="-51.93752"/>
<marker id="375365791" label="Spotted Doe" category="78" did="1879443704" parentZoneId="1879445911" longitude="-57.26871" latitude="-51.93752"/>
<marker id="375365792" label="Wandering Moor-wolf" category="71" did="1879448932" parentZoneId="1879445911" longitude="-57.52286" latitude="-51.813015"/>
<marker id="375365793" label="White Hand Orc-scout" category="71" did="1879448917" parentZoneId="1879445911" longitude="-57.52286" latitude="-51.813015"/>
<marker id="375365794" label="Ruddy-mantle Aurochs" category="71" did="1879448898" parentZoneId="1879445911" longitude="-57.52286" latitude="-51.813015"/>
<marker id="375365795" label="Ruddy-mantle Bull" category="71" did="1879448897" parentZoneId="1879445911" longitude="-57.52286" latitude="-51.813015"/>
<marker id="375365796" label="Moor Hendroval" category="71" did="1879448913" parentZoneId="1879445911" longitude="-57.52286" latitude="-51.813015"/>
<marker id="375365797" label="Hill Grouse" category="78" did="1879443697" parentZoneId="1879445911" longitude="-57.52286" latitude="-51.813015"/>
<marker id="375365798" label="Rolling Hills Goat" category="78" did="1879443706" parentZoneId="1879445911" longitude="-57.52286" latitude="-51.813015"/>
<marker id="375365799" label="Southern Thief" category="71" did="1879448907" parentZoneId="1879445911" longitude="-57.52286" latitude="-51.813015"/>
<marker id="375365800" label="Red-coat Fox" category="78" did="1879443707" parentZoneId="1879445911" longitude="-57.52286" latitude="-51.813015"/>
<marker id="375365801" label="Spotted Doe" category="78" did="1879443704" parentZoneId="1879445911" longitude="-57.52286" latitude="-51.813015"/>
<marker id="375365802" label="Wandering Moor-wolf" category="71" did="1879448932" parentZoneId="1879445911" longitude="-57.59442" latitude="-51.687004"/>
<marker id="375365803" label="White Hand Orc-scout" category="71" did="1879448917" parentZoneId="1879445911" longitude="-57.59442" latitude="-51.687004"/>
<marker id="375365804" label="Ruddy-mantle Aurochs" category="71" did="1879448898" parentZoneId="1879445911" longitude="-57.59442" latitude="-51.687004"/>
<marker id="375365805" label="Ruddy-mantle Bull" category="71" did="1879448897" parentZoneId="1879445911" longitude="-57.59442" latitude="-51.687004"/>
<marker id="375365806" label="Moor Hendroval" category="71" did="1879448913" parentZoneId="1879445911" longitude="-57.59442" latitude="-51.687004"/>
<marker id="375365807" label="Hill Grouse" category="78" did="1879443697" parentZoneId="1879445911" longitude="-57.59442" latitude="-51.687004"/>
<marker id="375365808" label="Rolling Hills Goat" category="78" did="1879443706" parentZoneId="1879445911" longitude="-57.59442" latitude="-51.687004"/>
<marker id="375365809" label="Southern Thief" category="71" did="1879448907" parentZoneId="1879445911" longitude="-57.59442" latitude="-51.687004"/>
<marker id="375365810" label="Red-coat Fox" category="78" did="1879443707" parentZoneId="1879445911" longitude="-57.59442" latitude="-51.687004"/>
<marker id="375365811" label="Spotted Doe" category="78" did="1879443704" parentZoneId="1879445911" longitude="-57.59442" latitude="-51.687004"/>
<marker id="375365812" label="Wandering Moor-wolf" category="71" did="1879448932" parentZoneId="1879445911" longitude="-57.751396" latitude="-51.796074"/>
<marker id="375365813" label="White Hand Orc-scout" category="71" did="1879448917" parentZoneId="1879445911" longitude="-57.751396" latitude="-51.796074"/>
<marker id="375365814" label="Ruddy-mantle Aurochs" category="71" did="1879448898" parentZoneId="1879445911" longitude="-57.751396" latitude="-51.796074"/>
<marker id="375365815" label="Ruddy-mantle Bull" category="71" did="1879448897" parentZoneId="1879445911" longitude="-57.751396" latitude="-51.796074"/>
<marker id="375365816" label="Moor Hendroval" category="71" did="1879448913" parentZoneId="1879445911" longitude="-57.751396" latitude="-51.796074"/>
<marker id="375365817" label="Hill Grouse" category="78" did="1879443697" parentZoneId="1879445911" longitude="-57.751396" latitude="-51.796074"/>
<marker id="375365818" label="Rolling Hills Goat" category="78" did="1879443706" parentZoneId="1879445911" longitude="-57.751396" latitude="-51.796074"/>
<marker id="375365819" label="Southern Thief" category="71" did="1879448907" parentZoneId="1879445911" longitude="-57.751396" latitude="-51.796074"/>
<marker id="375365820" label="Red-coat Fox" category="78" did="1879443707" parentZoneId="1879445911" longitude="-57.751396" latitude="-51.796074"/>
<marker id="375365821" label="Spotted Doe" category="78" did="1879443704" parentZoneId="1879445911" longitude="-57.751396" latitude="-51.796074"/>
<marker id="375365822" label="Wandering Moor-wolf" category="71" did="1879448932" parentZoneId="1879445911" longitude="-57.651962" latitude="-51.99653"/>
<marker id="375365823" label="White Hand Orc-scout" category="71" did="1879448917" parentZoneId="1879445911" longitude="-57.651962" latitude="-51.99653"/>
<marker id="375365824" label="Ruddy-mantle Aurochs" category="71" did="1879448898" parentZoneId="1879445911" longitude="-57.651962" latitude="-51.99653"/>
<marker id="375365825" label="Ruddy-mantle Bull" category="71" did="1879448897" parentZoneId="1879445911" longitude="-57.651962" latitude="-51.99653"/>
<marker id="375365826" label="Moor Hendroval" category="71" did="1879448913" parentZoneId="1879445911" longitude="-57.651962" latitude="-51.99653"/>
<marker id="375365827" label="Hill Grouse" category="78" did="1879443697" parentZoneId="1879445911" longitude="-57.651962" latitude="-51.99653"/>
<marker id="375365828" label="Rolling Hills Goat" category="78" did="1879443706" parentZoneId="1879445911" longitude="-57.651962" latitude="-51.99653"/>
<marker id="375365829" label="Southern Thief" category="71" did="1879448907" parentZoneId="1879445911" longitude="-57.651962" latitude="-51.99653"/>
<marker id="375365830" label="Red-coat Fox" category="78" did="1879443707" parentZoneId="1879445911" longitude="-57.651962" latitude="-51.99653"/>
<marker id="375365831" label="Spotted Doe" category="78" did="1879443704" parentZoneId="1879445911" longitude="-57.651962" latitude="-51.99653"/>
<marker id="375365832" label="Wandering Moor-wolf" category="71" did="1879448932" parentZoneId="1879445911" longitude="-57.464314" latitude="-52.0097"/>
<marker id="375365833" label="White Hand Orc-scout" category="71" did="1879448917" parentZoneId="1879445911" longitude="-57.464314" latitude="-52.0097"/>
<marker id="375365834" label="Ruddy-mantle Aurochs" category="71" did="1879448898" parentZoneId="1879445911" longitude="-57.464314" latitude="-52.0097"/>
<marker id="375365835" label="Ruddy-mantle Bull" category="71" did="1879448897" parentZoneId="1879445911" longitude="-57.464314" latitude="-52.0097"/>
<marker id="375365836" label="Moor Hendroval" category="71" did="1879448913" parentZoneId="1879445911" longitude="-57.464314" latitude="-52.0097"/>
<marker id="375365837" label="Hill Grouse" category="78" did="1879443697" parentZoneId="1879445911" longitude="-57.464314" latitude="-52.0097"/>
<marker id="375365838" label="Rolling Hills Goat" category="78" did="1879443706" parentZoneId="1879445911" longitude="-57.464314" latitude="-52.0097"/>
<marker id="375365839" label="Southern Thief" category="71" did="1879448907" parentZoneId="1879445911" longitude="-57.464314" latitude="-52.0097"/>
<marker id="375365840" label="Red-coat Fox" category="78" did="1879443707" parentZoneId="1879445911" longitude="-57.464314" latitude="-52.0097"/>
<marker id="375365841" label="Spotted Doe" category="78" did="1879443704" parentZoneId="1879445911" longitude="-57.464314" latitude="-52.0097"/>
<marker id="375365842" label="Wandering Moor-wolf" category="71" did="1879448932" parentZoneId="1879445911" longitude="-57.428448" latitude="-52.17572"/>
<marker id="375365843" label="White Hand Orc-scout" category="71" did="1879448917" parentZoneId="1879445911" longitude="-57.428448" latitude="-52.17572"/>
<marker id="375365844" label="Ruddy-mantle Aurochs" category="71" did="1879448898" parentZoneId="1879445911" longitude="-57.428448" latitude="-52.17572"/>
<marker id="375365845" label="Ruddy-mantle Bull" category="71" did="1879448897" parentZoneId="1879445911" longitude="-57.428448" latitude="-52.17572"/>
<marker id="375365846" label="Moor Hendroval" category="71" did="1879448913" parentZoneId="1879445911" longitude="-57.428448" latitude="-52.17572"/>
<marker id="375365847" label="Hill Grouse" category="78" did="1879443697" parentZoneId="1879445911" longitude="-57.428448" latitude="-52.17572"/>
<marker id="375365848" label="Rolling Hills Goat" category="78" did="1879443706" parentZoneId="1879445911" longitude="-57.428448" latitude="-52.17572"/>
<marker id="375365849" label="Southern Thief" category="71" did="1879448907" parentZoneId="1879445911" longitude="-57.428448" latitude="-52.17572"/>
<marker id="375365850" label="Red-coat Fox" category="78" did="1879443707" parentZoneId="1879445911" longitude="-57.428448" latitude="-52.17572"/>
<marker id="375365851" label="Spotted Doe" category="78" did="1879443704" parentZoneId="1879445911" longitude="-57.428448" latitude="-52.17572"/>
<marker id="375365852" label="Wandering Moor-wolf" category="71" did="1879448932" parentZoneId="1879445911" longitude="-57.529522" latitude="-52.202343"/>
<marker id="375365853" label="White Hand Orc-scout" category="71" did="1879448917" parentZoneId="1879445911" longitude="-57.529522" latitude="-52.202343"/>
<marker id="375365854" label="Ruddy-mantle Aurochs" category="71" did="1879448898" parentZoneId="1879445911" longitude="-57.529522" latitude="-52.202343"/>
<marker id="375365855" label="Ruddy-mantle Bull" category="71" did="1879448897" parentZoneId="1879445911" longitude="-57.529522" latitude="-52.202343"/>
<marker id="375365856" label="Moor Hendroval" category="71" did="1879448913" parentZoneId="1879445911" longitude="-57.529522" latitude="-52.202343"/>
<marker id="375365857" label="Hill Grouse" category="78" did="1879443697" parentZoneId="1879445911" longitude="-57.529522" latitude="-52.202343"/>
<marker id="375365858" label="Rolling Hills Goat" category="78" did="1879443706" parentZoneId="1879445911" longitude="-57.529522" latitude="-52.202343"/>
<marker id="375365859" label="Southern Thief" category="71" did="1879448907" parentZoneId="1879445911" longitude="-57.529522" latitude="-52.202343"/>
<marker id="375365860" label="Red-coat Fox" category="78" did="1879443707" parentZoneId="1879445911" longitude="-57.529522" latitude="-52.202343"/>
<marker id="375365861" label="Spotted Doe" category="78" did="1879443704" parentZoneId="1879445911" longitude="-57.529522" latitude="-52.202343"/>
<marker id="375365862" label="Wandering Moor-wolf" category="71" did="1879448932" parentZoneId="1879445911" longitude="-57.645527" latitude="-52.10694"/>
<marker id="375365863" label="White Hand Orc-scout" category="71" did="1879448917" parentZoneId="1879445911" longitude="-57.645527" latitude="-52.10694"/>
<marker id="375365864" label="Ruddy-mantle Aurochs" category="71" did="1879448898" parentZoneId="1879445911" longitude="-57.645527" latitude="-52.10694"/>
<marker id="375365865" label="Ruddy-mantle Bull" category="71" did="1879448897" parentZoneId="1879445911" longitude="-57.645527" latitude="-52.10694"/>
<marker id="375365866" label="Moor Hendroval" category="71" did="1879448913" parentZoneId="1879445911" longitude="-57.645527" latitude="-52.10694"/>
<marker id="375365867" label="Hill Grouse" category="78" did="1879443697" parentZoneId="1879445911" longitude="-57.645527" latitude="-52.10694"/>
<marker id="375365868" label="Rolling Hills Goat" category="78" did="1879443706" parentZoneId="1879445911" longitude="-57.645527" latitude="-52.10694"/>
<marker id="375365869" label="Southern Thief" category="71" did="1879448907" parentZoneId="1879445911" longitude="-57.645527" latitude="-52.10694"/>
<marker id="375365870" label="Red-coat Fox" category="78" did="1879443707" parentZoneId="1879445911" longitude="-57.645527" latitude="-52.10694"/>
<marker id="375365871" label="Spotted Doe" category="78" did="1879443704" parentZoneId="1879445911" longitude="-57.645527" latitude="-52.10694"/>
<marker id="375369740" label="Ash Branches" category="50" did="1879077508" parentZoneId="1879445911" longitude="-57.6" latitude="-51.199997"/>
<marker id="375369741" label="Barrow-iron Deposit" category="50" did="1879077513" parentZoneId="1879445911" longitude="-57.6" latitude="-51.199997"/>
<marker id="375369742" label="Silver Deposit" category="50" did="1879077514" parentZoneId="1879445911" longitude="-57.6" latitude="-51.199997"/>
<marker id="375369743" label="Rich Barrow-iron Deposit" category="50" did="1879087932" parentZoneId="1879445911" longitude="-57.6" latitude="-51.199997"/>
<marker id="375369744" label="Heavy Ash Branches" category="50" did="1879087935" parentZoneId="1879445911" longitude="-57.6" latitude="-51.199997"/>
<marker id="375369745" label="Rich Silver Deposit" category="50" did="1879087938" parentZoneId="1879445911" longitude="-57.6" latitude="-51.199997"/>
<marker id="375369746" label="Rich Silver Deposit" category="50" did="1879087938" parentZoneId="1879445911" longitude="-57.62616" latitude="-50.981762"/>
<marker id="375369747" label="Ash Branches" category="50" did="1879077508" parentZoneId="1879445911" longitude="-57.62616" latitude="-50.981762"/>
<marker id="375369748" label="Barrow-iron Deposit" category="50" did="1879077513" parentZoneId="1879445911" longitude="-57.62616" latitude="-50.981762"/>
<marker id="375369749" label="Silver Deposit" category="50" did="1879077514" parentZoneId="1879445911" longitude="-57.62616" latitude="-50.981762"/>
<marker id="375369750" label="Rich Barrow-iron Deposit" category="50" did="1879087932" parentZoneId="1879445911" longitude="-57.62616" latitude="-50.981762"/>
<marker id="375369751" label="Heavy Ash Branches" category="50" did="1879087935" parentZoneId="1879445911" longitude="-57.62616" latitude="-50.981762"/>
<marker id="375369752" label="Rich Silver Deposit" category="50" did="1879087938" parentZoneId="1879445911" longitude="-57.348427" latitude="-51.47088"/>
<marker id="375369753" label="Ash Branches" category="50" did="1879077508" parentZoneId="1879445911" longitude="-57.348427" latitude="-51.47088"/>
<marker id="375369754" label="Barrow-iron Deposit" category="50" did="1879077513" parentZoneId="1879445911" longitude="-57.348427" latitude="-51.47088"/>
<marker id="375369755" label="Silver Deposit" category="50" did="1879077514" parentZoneId="1879445911" longitude="-57.348427" latitude="-51.47088"/>
<marker id="375369756" label="Rich Barrow-iron Deposit" category="50" did="1879087932" parentZoneId="1879445911" longitude="-57.348427" latitude="-51.47088"/>
<marker id="375369757" label="Heavy Ash Branches" category="50" did="1879087935" parentZoneId="1879445911" longitude="-57.348427" latitude="-51.47088"/>
<marker id="375369758" label="Rich Silver Deposit" category="50" did="1879087938" parentZoneId="1879445911" longitude="-57.842342" latitude="-51.215683"/>
<marker id="375369759" label="Ash Branches" category="50" did="1879077508" parentZoneId="1879445911" longitude="-57.842342" latitude="-51.215683"/>
<marker id="375369760" label="Barrow-iron Deposit" category="50" did="1879077513" parentZoneId="1879445911" longitude="-57.842342" latitude="-51.215683"/>
<marker id="375369761" label="Silver Deposit" category="50" did="1879077514" parentZoneId="1879445911" longitude="-57.842342" latitude="-51.215683"/>
<marker id="375369762" label="Rich Barrow-iron Deposit" category="50" did="1879087932" parentZoneId="1879445911" longitude="-57.842342" latitude="-51.215683"/>
<marker id="375369763" label="Heavy Ash Branches" category="50" did="1879087935" parentZoneId="1879445911" longitude="-57.842342" latitude="-51.215683"/>
<marker id="375369764" label="Rich Silver Deposit" category="50" did="1879087938" parentZoneId="1879445911" longitude="-57.297565" latitude="-51.13683"/>
<marker id="375369765" label="Ash Branches" category="50" did="1879077508" parentZoneId="1879445911" longitude="-57.297565" latitude="-51.13683"/>
<marker id="375369766" label="Barrow-iron Deposit" category="50" did="1879077513" parentZoneId="1879445911" longitude="-57.297565" latitude="-51.13683"/>
<marker id="375369767" label="Silver Deposit" category="50" did="1879077514" parentZoneId="1879445911" longitude="-57.297565" latitude="-51.13683"/>
<marker id="375369768" label="Rich Barrow-iron Deposit" category="50" did="1879087932" parentZoneId="1879445911" longitude="-57.297565" latitude="-51.13683"/>
<marker id="375369769" label="Heavy Ash Branches" category="50" did="1879087935" parentZoneId="1879445911" longitude="-57.297565" latitude="-51.13683"/>
<marker id="375369770" label="Rich Silver Deposit" category="50" did="1879087938" parentZoneId="1879445911" longitude="-57.468777" latitude="-51.30225"/>
<marker id="375369771" label="Ash Branches" category="50" did="1879077508" parentZoneId="1879445911" longitude="-57.468777" latitude="-51.30225"/>
<marker id="375369772" label="Barrow-iron Deposit" category="50" did="1879077513" parentZoneId="1879445911" longitude="-57.468777" latitude="-51.30225"/>
<marker id="375369773" label="Silver Deposit" category="50" did="1879077514" parentZoneId="1879445911" longitude="-57.468777" latitude="-51.30225"/>
<marker id="375369774" label="Rich Barrow-iron Deposit" category="50" did="1879087932" parentZoneId="1879445911" longitude="-57.468777" latitude="-51.30225"/>
<marker id="375369775" label="Heavy Ash Branches" category="50" did="1879087935" parentZoneId="1879445911" longitude="-57.468777" latitude="-51.30225"/>
<marker id="375369776" label="Rich Silver Deposit" category="50" did="1879087938" parentZoneId="1879445911" longitude="-57.91039" latitude="-51.51244"/>
<marker id="375369777" label="Ash Branches" category="50" did="1879077508" parentZoneId="1879445911" longitude="-57.91039" latitude="-51.51244"/>
<marker id="375369778" label="Barrow-iron Deposit" category="50" did="1879077513" parentZoneId="1879445911" longitude="-57.91039" latitude="-51.51244"/>
<marker id="375369779" label="Silver Deposit" category="50" did="1879077514" parentZoneId="1879445911" longitude="-57.91039" latitude="-51.51244"/>
<marker id="375369780" label="Rich Barrow-iron Deposit" category="50" did="1879087932" parentZoneId="1879445911" longitude="-57.91039" latitude="-51.51244"/>
<marker id="375369781" label="Heavy Ash Branches" category="50" did="1879087935" parentZoneId="1879445911" longitude="-57.91039" latitude="-51.51244"/>
<marker id="375369782" label="Rich Silver Deposit" category="50" did="1879087938" parentZoneId="1879445911" longitude="-57.305" latitude="-50.919548"/>
<marker id="375369783" label="Ash Branches" category="50" did="1879077508" parentZoneId="1879445911" longitude="-57.305" latitude="-50.919548"/>
<marker id="375369784" label="Barrow-iron Deposit" category="50" did="1879077513" parentZoneId="1879445911" longitude="-57.305" latitude="-50.919548"/>
<marker id="375369785" label="Silver Deposit" category="50" did="1879077514" parentZoneId="1879445911" longitude="-57.305" latitude="-50.919548"/>
<marker id="375369786" label="Rich Barrow-iron Deposit" category="50" did="1879087932" parentZoneId="1879445911" longitude="-57.305" latitude="-50.919548"/>
<marker id="375369787" label="Heavy Ash Branches" category="50" did="1879087935" parentZoneId="1879445911" longitude="-57.305" latitude="-50.919548"/>
<marker id="375369788" label="Rich Silver Deposit" category="50" did="1879087938" parentZoneId="1879445911" longitude="-57.266064" latitude="-51.4239"/>
<marker id="375369789" label="Ash Branches" category="50" did="1879077508" parentZoneId="1879445911" longitude="-57.266064" latitude="-51.4239"/>
<marker id="375369790" label="Barrow-iron Deposit" category="50" did="1879077513" parentZoneId="1879445911" longitude="-57.266064" latitude="-51.4239"/>
<marker id="375369791" label="Silver Deposit" category="50" did="1879077514" parentZoneId="1879445911" longitude="-57.266064" latitude="-51.4239"/>
<marker id="375369792" label="Rich Barrow-iron Deposit" category="50" did="1879087932" parentZoneId="1879445911" longitude="-57.266064" latitude="-51.4239"/>
<marker id="375369793" label="Heavy Ash Branches" category="50" did="1879087935" parentZoneId="1879445911" longitude="-57.266064" latitude="-51.4239"/>
<marker id="375369794" label="Rich Silver Deposit" category="50" did="1879087938" parentZoneId="1879445911" longitude="-57.579617" latitude="-51.52864"/>
<marker id="375369795" label="Ash Branches" category="50" did="1879077508" parentZoneId="1879445911" longitude="-57.579617" latitude="-51.52864"/>
<marker id="375369796" label="Barrow-iron Deposit" category="50" did="1879077513" parentZoneId="1879445911" longitude="-57.579617" latitude="-51.52864"/>
<marker id="375369797" label="Silver Deposit" category="50" did="1879077514" parentZoneId="1879445911" longitude="-57.579617" latitude="-51.52864"/>
<marker id="375369798" label="Rich Barrow-iron Deposit" category="50" did="1879087932" parentZoneId="1879445911" longitude="-57.579617" latitude="-51.52864"/>
<marker id="375369799" label="Heavy Ash Branches" category="50" did="1879087935" parentZoneId="1879445911" longitude="-57.579617" latitude="-51.52864"/>
<marker id="375369800" label="Rich Silver Deposit" category="50" did="1879087938" parentZoneId="1879445911" longitude="-57.828144" latitude="-50.862923"/>
<marker id="375369801" label="Ash Branches" category="50" did="1879077508" parentZoneId="1879445911" longitude="-57.828144" latitude="-50.862923"/>
<marker id="375369802" label="Barrow-iron Deposit" category="50" did="1879077513" parentZoneId="1879445911" longitude="-57.828144" latitude="-50.862923"/>
<marker id="375369803" label="Silver Deposit" category="50" did="1879077514" parentZoneId="1879445911" longitude="-57.828144" latitude="-50.862923"/>
<marker id="375369804" label="Rich Barrow-iron Deposit" category="50" did="1879087932" parentZoneId="1879445911" longitude="-57.828144" latitude="-50.862923"/>
<marker id="375369805" label="Heavy Ash Branches" category="50" did="1879087935" parentZoneId="1879445911" longitude="-57.828144" latitude="-50.862923"/>
<marker id="375369806" label="Rich Silver Deposit" category="50" did="1879087938" parentZoneId="1879445911" longitude="-57.74367" latitude="-51.42557"/>
<marker id="375369807" label="Ash Branches" category="50" did="1879077508" parentZoneId="1879445911" longitude="-57.74367" latitude="-51.42557"/>
<marker id="375369808" label="Barrow-iron Deposit" category="50" did="1879077513" parentZoneId="1879445911" longitude="-57.74367" latitude="-51.42557"/>
<marker id="375369809" label="Silver Deposit" category="50" did="1879077514" parentZoneId="1879445911" longitude="-57.74367" latitude="-51.42557"/>
<marker id="375369810" label="Rich Barrow-iron Deposit" category="50" did="1879087932" parentZoneId="1879445911" longitude="-57.74367" latitude="-51.42557"/>
<marker id="375369811" label="Heavy Ash Branches" category="50" did="1879087935" parentZoneId="1879445911" longitude="-57.74367" latitude="-51.42557"/>
<marker id="375369812" label="Rich Silver Deposit" category="50" did="1879087938" parentZoneId="1879445911" longitude="-57.29814" latitude="-51.32038"/>
<marker id="375369813" label="Ash Branches" category="50" did="1879077508" parentZoneId="1879445911" longitude="-57.29814" latitude="-51.32038"/>
<marker id="375369814" label="Barrow-iron Deposit" category="50" did="1879077513" parentZoneId="1879445911" longitude="-57.29814" latitude="-51.32038"/>
<marker id="375369815" label="Silver Deposit" category="50" did="1879077514" parentZoneId="1879445911" longitude="-57.29814" latitude="-51.32038"/>
<marker id="375369816" label="Rich Barrow-iron Deposit" category="50" did="1879087932" parentZoneId="1879445911" longitude="-57.29814" latitude="-51.32038"/>
<marker id="375369817" label="Heavy Ash Branches" category="50" did="1879087935" parentZoneId="1879445911" longitude="-57.29814" latitude="-51.32038"/>
<marker id="375369818" label="Rich Silver Deposit" category="50" did="1879087938" parentZoneId="1879445911" longitude="-57.446133" latitude="-51.197636"/>
<marker id="375369819" label="Ash Branches" category="50" did="1879077508" parentZoneId="1879445911" longitude="-57.446133" latitude="-51.197636"/>
<marker id="375369820" label="Barrow-iron Deposit" category="50" did="1879077513" parentZoneId="1879445911" longitude="-57.446133" latitude="-51.197636"/>
<marker id="375369821" label="Silver Deposit" category="50" did="1879077514" parentZoneId="1879445911" longitude="-57.446133" latitude="-51.197636"/>
<marker id="375369822" label="Rich Barrow-iron Deposit" category="50" did="1879087932" parentZoneId="1879445911" longitude="-57.446133" latitude="-51.197636"/>
<marker id="375369823" label="Heavy Ash Branches" category="50" did="1879087935" parentZoneId="1879445911" longitude="-57.446133" latitude="-51.197636"/>
<marker id="375369824" label="Rich Silver Deposit" category="50" did="1879087938" parentZoneId="1879445911" longitude="-57.42783" latitude="-51.553802"/>
<marker id="375369825" label="Ash Branches" category="50" did="1879077508" parentZoneId="1879445911" longitude="-57.42783" latitude="-51.553802"/>
<marker id="375369826" label="Barrow-iron Deposit" category="50" did="1879077513" parentZoneId="1879445911" longitude="-57.42783" latitude="-51.553802"/>
<marker id="375369827" label="Silver Deposit" category="50" did="1879077514" parentZoneId="1879445911" longitude="-57.42783" latitude="-51.553802"/>
<marker id="375369828" label="Rich Barrow-iron Deposit" category="50" did="1879087932" parentZoneId="1879445911" longitude="-57.42783" latitude="-51.553802"/>
<marker id="375369829" label="Heavy Ash Branches" category="50" did="1879087935" parentZoneId="1879445911" longitude="-57.42783" latitude="-51.553802"/>
<marker id="375369830" label="Rich Silver Deposit" category="50" did="1879087938" parentZoneId="1879445911" longitude="-57.82999" latitude="-50.948658"/>
<marker id="375369831" label="Ash Branches" category="50" did="1879077508" parentZoneId="1879445911" longitude="-57.82999" latitude="-50.948658"/>
<marker id="375369832" label="Barrow-iron Deposit" category="50" did="1879077513" parentZoneId="1879445911" longitude="-57.82999" latitude="-50.948658"/>
<marker id="375369833" label="Silver Deposit" category="50" did="1879077514" parentZoneId="1879445911" longitude="-57.82999" latitude="-50.948658"/>
<marker id="375369834" label="Rich Barrow-iron Deposit" category="50" did="1879087932" parentZoneId="1879445911" longitude="-57.82999" latitude="-50.948658"/>
<marker id="375369835" label="Heavy Ash Branches" category="50" did="1879087935" parentZoneId="1879445911" longitude="-57.82999" latitude="-50.948658"/>
<marker id="375369836" label="Rich Silver Deposit" category="50" did="1879087938" parentZoneId="1879445911" longitude="-57.294327" latitude="-51.011982"/>
<marker id="375369837" label="Ash Branches" category="50" did="1879077508" parentZoneId="1879445911" longitude="-57.294327" latitude="-51.011982"/>
<marker id="375369838" label="Barrow-iron Deposit" category="50" did="1879077513" parentZoneId="1879445911" longitude="-57.294327" latitude="-51.011982"/>
<marker id="375369839" label="Silver Deposit" category="50" did="1879077514" parentZoneId="1879445911" longitude="-57.294327" latitude="-51.011982"/>
<marker id="375369840" label="Rich Barrow-iron Deposit" category="50" did="1879087932" parentZoneId="1879445911" longitude="-57.294327" latitude="-51.011982"/>
<marker id="375369841" label="Heavy Ash Branches" category="50" did="1879087935" parentZoneId="1879445911" longitude="-57.294327" latitude="-51.011982"/>
<marker id="375369842" label="Rich Silver Deposit" category="50" did="1879087938" parentZoneId="1879445911" longitude="-57.49694" latitude="-50.87344"/>
<marker id="375369843" label="Ash Branches" category="50" did="1879077508" parentZoneId="1879445911" longitude="-57.49694" latitude="-50.87344"/>
<marker id="375369844" label="Barrow-iron Deposit" category="50" did="1879077513" parentZoneId="1879445911" longitude="-57.49694" latitude="-50.87344"/>
<marker id="375369845" label="Silver Deposit" category="50" did="1879077514" parentZoneId="1879445911" longitude="-57.49694" latitude="-50.87344"/>
<marker id="375369846" label="Rich Barrow-iron Deposit" category="50" did="1879087932" parentZoneId="1879445911" longitude="-57.49694" latitude="-50.87344"/>
<marker id="375369847" label="Heavy Ash Branches" category="50" did="1879087935" parentZoneId="1879445911" longitude="-57.49694" latitude="-50.87344"/>
<marker id="375369848" label="Rich Silver Deposit" category="50" did="1879087938" parentZoneId="1879445911" longitude="-57.58542" latitude="-51.14182"/>
<marker id="375369849" label="Ash Branches" category="50" did="1879077508" parentZoneId="1879445911" longitude="-57.58542" latitude="-51.14182"/>
<marker id="375369850" label="Barrow-iron Deposit" category="50" did="1879077513" parentZoneId="1879445911" longitude="-57.58542" latitude="-51.14182"/>
<marker id="375369851" label="Silver Deposit" category="50" did="1879077514" parentZoneId="1879445911" longitude="-57.58542" latitude="-51.14182"/>
<marker id="375369852" label="Rich Barrow-iron Deposit" category="50" did="1879087932" parentZoneId="1879445911" longitude="-57.58542" latitude="-51.14182"/>
<marker id="375369853" label="Heavy Ash Branches" category="50" did="1879087935" parentZoneId="1879445911" longitude="-57.58542" latitude="-51.14182"/>
<marker id="375369854" label="Rich Silver Deposit" category="50" did="1879087938" parentZoneId="1879445911" longitude="-57.935772" latitude="-51.358017"/>
<marker id="375369855" label="Ash Branches" category="50" did="1879077508" parentZoneId="1879445911" longitude="-57.935772" latitude="-51.358017"/>
<marker id="375369856" label="Barrow-iron Deposit" category="50" did="1879077513" parentZoneId="1879445911" longitude="-57.935772" latitude="-51.358017"/>
<marker id="375369857" label="Silver Deposit" category="50" did="1879077514" parentZoneId="1879445911" longitude="-57.935772" latitude="-51.358017"/>
<marker id="375369858" label="Rich Barrow-iron Deposit" category="50" did="1879087932" parentZoneId="1879445911" longitude="-57.935772" latitude="-51.358017"/>
<marker id="375369859" label="Heavy Ash Branches" category="50" did="1879087935" parentZoneId="1879445911" longitude="-57.935772" latitude="-51.358017"/>
<marker id="375369860" label="Rich Silver Deposit" category="50" did="1879087938" parentZoneId="1879445911" longitude="-57.901512" latitude="-51.063206"/>
<marker id="375369861" label="Ash Branches" category="50" did="1879077508" parentZoneId="1879445911" longitude="-57.901512" latitude="-51.063206"/>
<marker id="375369862" label="Barrow-iron Deposit" category="50" did="1879077513" parentZoneId="1879445911" longitude="-57.901512" latitude="-51.063206"/>
<marker id="375369863" label="Silver Deposit" category="50" did="1879077514" parentZoneId="1879445911" longitude="-57.901512" latitude="-51.063206"/>
<marker id="375369864" label="Rich Barrow-iron Deposit" category="50" did="1879087932" parentZoneId="1879445911" longitude="-57.901512" latitude="-51.063206"/>
<marker id="375369865" label="Heavy Ash Branches" category="50" did="1879087935" parentZoneId="1879445911" longitude="-57.901512" latitude="-51.063206"/>
<marker id="375369866" label="Rich Silver Deposit" category="50" did="1879087938" parentZoneId="1879445911" longitude="-57.64045" latitude="-51.275528"/>
<marker id="375369867" label="Ash Branches" category="50" did="1879077508" parentZoneId="1879445911" longitude="-57.64045" latitude="-51.275528"/>
<marker id="375369868" label="Barrow-iron Deposit" category="50" did="1879077513" parentZoneId="1879445911" longitude="-57.64045" latitude="-51.275528"/>
<marker id="375369869" label="Silver Deposit" category="50" did="1879077514" parentZoneId="1879445911" longitude="-57.64045" latitude="-51.275528"/>
<marker id="375369870" label="Rich Barrow-iron Deposit" category="50" did="1879087932" parentZoneId="1879445911" longitude="-57.64045" latitude="-51.275528"/>
<marker id="375369871" label="Heavy Ash Branches" category="50" did="1879087935" parentZoneId="1879445911" longitude="-57.64045" latitude="-51.275528"/>
<marker id="375369872" label="Rich Silver Deposit" category="50" did="1879087938" parentZoneId="1879445911" longitude="-57.760517" latitude="-51.535923"/>
<marker id="375369873" label="Ash Branches" category="50" did="1879077508" parentZoneId="1879445911" longitude="-57.760517" latitude="-51.535923"/>
<marker id="375369874" label="Barrow-iron Deposit" category="50" did="1879077513" parentZoneId="1879445911" longitude="-57.760517" latitude="-51.535923"/>
<marker id="375369875" label="Silver Deposit" category="50" did="1879077514" parentZoneId="1879445911" longitude="-57.760517" latitude="-51.535923"/>
<marker id="375369876" label="Rich Barrow-iron Deposit" category="50" did="1879087932" parentZoneId="1879445911" longitude="-57.760517" latitude="-51.535923"/>
<marker id="375369877" label="Heavy Ash Branches" category="50" did="1879087935" parentZoneId="1879445911" longitude="-57.760517" latitude="-51.535923"/>
<marker id="375369878" label="Wandering Moor-wolf" category="71" did="1879448932" parentZoneId="1879445911" longitude="-57.378525" latitude="-51.497635"/>
<marker id="375369879" label="White Hand Orc-scout" category="71" did="1879448917" parentZoneId="1879445911" longitude="-57.378525" latitude="-51.497635"/>
<marker id="375369880" label="Ruddy-mantle Aurochs" category="71" did="1879448898" parentZoneId="1879445911" longitude="-57.378525" latitude="-51.497635"/>
<marker id="375369881" label="Ruddy-mantle Bull" category="71" did="1879448897" parentZoneId="1879445911" longitude="-57.378525" latitude="-51.497635"/>
<marker id="375369882" label="Moor Hendroval" category="71" did="1879448913" parentZoneId="1879445911" longitude="-57.378525" latitude="-51.497635"/>
<marker id="375369883" label="Hill Grouse" category="78" did="1879443697" parentZoneId="1879445911" longitude="-57.378525" latitude="-51.497635"/>
<marker id="375369884" label="Rolling Hills Goat" category="78" did="1879443706" parentZoneId="1879445911" longitude="-57.378525" latitude="-51.497635"/>
<marker id="375369885" label="Southern Thief" category="71" did="1879448907" parentZoneId="1879445911" longitude="-57.378525" latitude="-51.497635"/>
<marker id="375369886" label="Red-coat Fox" category="78" did="1879443707" parentZoneId="1879445911" longitude="-57.378525" latitude="-51.497635"/>
<marker id="375369887" label="Spotted Doe" category="78" did="1879443704" parentZoneId="1879445911" longitude="-57.378525" latitude="-51.497635"/>
<marker id="375369888" label="Wandering Moor-wolf" category="71" did="1879448932" parentZoneId="1879445911" longitude="-57.284843" latitude="-51.355453"/>
<marker id="375369889" label="White Hand Orc-scout" category="71" did="1879448917" parentZoneId="1879445911" longitude="-57.284843" latitude="-51.355453"/>
<marker id="375369890" label="Ruddy-mantle Aurochs" category="71" did="1879448898" parentZoneId="1879445911" longitude="-57.284843" latitude="-51.355453"/>
<marker id="375369891" label="Ruddy-mantle Bull" category="71" did="1879448897" parentZoneId="1879445911" longitude="-57.284843" latitude="-51.355453"/>
<marker id="375369892" label="Moor Hendroval" category="71" did="1879448913" parentZoneId="1879445911" longitude="-57.284843" latitude="-51.355453"/>
<marker id="375369893" label="Hill Grouse" category="78" did="1879443697" parentZoneId="1879445911" longitude="-57.284843" latitude="-51.355453"/>
<marker id="375369894" label="Rolling Hills Goat" category="78" did="1879443706" parentZoneId="1879445911" longitude="-57.284843" latitude="-51.355453"/>
<marker id="375369895" label="Southern Thief" category="71" did="1879448907" parentZoneId="1879445911" longitude="-57.284843" latitude="-51.355453"/>
<marker id="375369896" label="Red-coat Fox" category="78" did="1879443707" parentZoneId="1879445911" longitude="-57.284843" latitude="-51.355453"/>
<marker id="375369897" label="Spotted Doe" category="78" did="1879443704" parentZoneId="1879445911" longitude="-57.284843" latitude="-51.355453"/>
<marker id="375369898" label="Wandering Moor-wolf" category="71" did="1879448932" parentZoneId="1879445911" longitude="-57.43453" latitude="-51.25383"/>
<marker id="375369899" label="White Hand Orc-scout" category="71" did="1879448917" parentZoneId="1879445911" longitude="-57.43453" latitude="-51.25383"/>
<marker id="375369900" label="Ruddy-mantle Aurochs" category="71" did="1879448898" parentZoneId="1879445911" longitude="-57.43453" latitude="-51.25383"/>
<marker id="375369901" label="Ruddy-mantle Bull" category="71" did="1879448897" parentZoneId="1879445911" longitude="-57.43453" latitude="-51.25383"/>
<marker id="375369902" label="Moor Hendroval" category="71" did="1879448913" parentZoneId="1879445911" longitude="-57.43453" latitude="-51.25383"/>
<marker id="375369903" label="Hill Grouse" category="78" did="1879443697" parentZoneId="1879445911" longitude="-57.43453" latitude="-51.25383"/>
<marker id="375369904" label="Rolling Hills Goat" category="78" did="1879443706" parentZoneId="1879445911" longitude="-57.43453" latitude="-51.25383"/>
<marker id="375369905" label="Southern Thief" category="71" did="1879448907" parentZoneId="1879445911" longitude="-57.43453" latitude="-51.25383"/>
<marker id="375369906" label="Red-coat Fox" category="78" did="1879443707" parentZoneId="1879445911" longitude="-57.43453" latitude="-51.25383"/>
<marker id="375369907" label="Spotted Doe" category="78" did="1879443704" parentZoneId="1879445911" longitude="-57.43453" latitude="-51.25383"/>
<marker id="375369908" label="Wandering Moor-wolf" category="71" did="1879448932" parentZoneId="1879445911" longitude="-57.668514" latitude="-51.267998"/>
<marker id="375369909" label="White Hand Orc-scout" category="71" did="1879448917" parentZoneId="1879445911" longitude="-57.668514" latitude="-51.267998"/>
<marker id="375369910" label="Ruddy-mantle Aurochs" category="71" did="1879448898" parentZoneId="1879445911" longitude="-57.668514" latitude="-51.267998"/>
<marker id="375369911" label="Ruddy-mantle Bull" category="71" did="1879448897" parentZoneId="1879445911" longitude="-57.668514" latitude="-51.267998"/>
<marker id="375369912" label="Moor Hendroval" category="71" did="1879448913" parentZoneId="1879445911" longitude="-57.668514" latitude="-51.267998"/>
<marker id="375369913" label="Hill Grouse" category="78" did="1879443697" parentZoneId="1879445911" longitude="-57.668514" latitude="-51.267998"/>
<marker id="375369914" label="Rolling Hills Goat" category="78" did="1879443706" parentZoneId="1879445911" longitude="-57.668514" latitude="-51.267998"/>
<marker id="375369915" label="Southern Thief" category="71" did="1879448907" parentZoneId="1879445911" longitude="-57.668514" latitude="-51.267998"/>
<marker id="375369916" label="Red-coat Fox" category="78" did="1879443707" parentZoneId="1879445911" longitude="-57.668514" latitude="-51.267998"/>
<marker id="375369917" label="Spotted Doe" category="78" did="1879443704" parentZoneId="1879445911" longitude="-57.668514" latitude="-51.267998"/>
<marker id="375369918" label="Wandering Moor-wolf" category="71" did="1879448932" parentZoneId="1879445911" longitude="-57.47952" latitude="-51.118042"/>
<marker id="375369919" label="White Hand Orc-scout" category="71" did="1879448917" parentZoneId="1879445911" longitude="-57.47952" latitude="-51.118042"/>
<marker id="375369920" label="Ruddy-mantle Aurochs" category="71" did="1879448898" parentZoneId="1879445911" longitude="-57.47952" latitude="-51.118042"/>
<marker id="375369921" label="Ruddy-mantle Bull" category="71" did="1879448897" parentZoneId="1879445911" longitude="-57.47952" latitude="-51.118042"/>
<marker id="375369922" label="Moor Hendroval" category="71" did="1879448913" parentZoneId="1879445911" longitude="-57.47952" latitude="-51.118042"/>
<marker id="375369923" label="Hill Grouse" category="78" did="1879443697" parentZoneId="1879445911" longitude="-57.47952" latitude="-51.118042"/>
<marker id="375369924" label="Rolling Hills Goat" category="78" did="1879443706" parentZoneId="1879445911" longitude="-57.47952" latitude="-51.118042"/>
<marker id="375369925" label="Southern Thief" category="71" did="1879448907" parentZoneId="1879445911" longitude="-57.47952" latitude="-51.118042"/>
<marker id="375369926" label="Red-coat Fox" category="78" did="1879443707" parentZoneId="1879445911" longitude="-57.47952" latitude="-51.118042"/>
<marker id="375369927" label="Spotted Doe" category="78" did="1879443704" parentZoneId="1879445911" longitude="-57.47952" latitude="-51.118042"/>
<marker id="375369928" label="Wandering Moor-wolf" category="71" did="1879448932" parentZoneId="1879445911" longitude="-57.286026" latitude="-51.05236"/>
<marker id="375369929" label="White Hand Orc-scout" category="71" did="1879448917" parentZoneId="1879445911" longitude="-57.286026" latitude="-51.05236"/>
<marker id="375369930" label="Ruddy-mantle Aurochs" category="71" did="1879448898" parentZoneId="1879445911" longitude="-57.286026" latitude="-51.05236"/>
<marker id="375369931" label="Ruddy-mantle Bull" category="71" did="1879448897" parentZoneId="1879445911" longitude="-57.286026" latitude="-51.05236"/>
<marker id="375369932" label="Moor Hendroval" category="71" did="1879448913" parentZoneId="1879445911" longitude="-57.286026" latitude="-51.05236"/>
<marker id="375369933" label="Hill Grouse" category="78" did="1879443697" parentZoneId="1879445911" longitude="-57.286026" latitude="-51.05236"/>
<marker id="375369934" label="Rolling Hills Goat" category="78" did="1879443706" parentZoneId="1879445911" longitude="-57.286026" latitude="-51.05236"/>
<marker id="375369935" label="Southern Thief" category="71" did="1879448907" parentZoneId="1879445911" longitude="-57.286026" latitude="-51.05236"/>
<marker id="375369936" label="Red-coat Fox" category="78" did="1879443707" parentZoneId="1879445911" longitude="-57.286026" latitude="-51.05236"/>
<marker id="375369937" label="Spotted Doe" category="78" did="1879443704" parentZoneId="1879445911" longitude="-57.286026" latitude="-51.05236"/>
<marker id="375369938" label="Wandering Moor-wolf" category="71" did="1879448932" parentZoneId="1879445911" longitude="-57.606377" latitude="-51.35886"/>
<marker id="375369939" label="White Hand Orc-scout" category="71" did="1879448917" parentZoneId="1879445911" longitude="-57.606377" latitude="-51.35886"/>
<marker id="375369940" label="Ruddy-mantle Aurochs" category="71" did="1879448898" parentZoneId="1879445911" longitude="-57.606377" latitude="-51.35886"/>
<marker id="375369941" label="Ruddy-mantle Bull" category="71" did="1879448897" parentZoneId="1879445911" longitude="-57.606377" latitude="-51.35886"/>
<marker id="375369942" label="Moor Hendroval" category="71" did="1879448913" parentZoneId="1879445911" longitude="-57.606377" latitude="-51.35886"/>
<marker id="375369943" label="Hill Grouse" category="78" did="1879443697" parentZoneId="1879445911" longitude="-57.606377" latitude="-51.35886"/>
<marker id="375369944" label="Rolling Hills Goat" category="78" did="1879443706" parentZoneId="1879445911" longitude="-57.606377" latitude="-51.35886"/>
<marker id="375369945" label="Southern Thief" category="71" did="1879448907" parentZoneId="1879445911" longitude="-57.606377" latitude="-51.35886"/>
<marker id="375369946" label="Red-coat Fox" category="78" did="1879443707" parentZoneId="1879445911" longitude="-57.606377" latitude="-51.35886"/>
<marker id="375369947" label="Spotted Doe" category="78" did="1879443704" parentZoneId="1879445911" longitude="-57.606377" latitude="-51.35886"/>
<marker id="375369948" label="Wandering Moor-wolf" category="71" did="1879448932" parentZoneId="1879445911" longitude="-57.418858" latitude="-50.883842"/>
<marker id="375369949" label="White Hand Orc-scout" category="71" did="1879448917" parentZoneId="1879445911" longitude="-57.418858" latitude="-50.883842"/>
<marker id="375369950" label="Ruddy-mantle Aurochs" category="71" did="1879448898" parentZoneId="1879445911" longitude="-57.418858" latitude="-50.883842"/>
<marker id="375369951" label="Ruddy-mantle Bull" category="71" did="1879448897" parentZoneId="1879445911" longitude="-57.418858" latitude="-50.883842"/>
<marker id="375369952" label="Moor Hendroval" category="71" did="1879448913" parentZoneId="1879445911" longitude="-57.418858" latitude="-50.883842"/>
<marker id="375369953" label="Hill Grouse" category="78" did="1879443697" parentZoneId="1879445911" longitude="-57.418858" latitude="-50.883842"/>
<marker id="375369954" label="Rolling Hills Goat" category="78" did="1879443706" parentZoneId="1879445911" longitude="-57.418858" latitude="-50.883842"/>
<marker id="375369955" label="Southern Thief" category="71" did="1879448907" parentZoneId="1879445911" longitude="-57.418858" latitude="-50.883842"/>
<marker id="375369956" label="Red-coat Fox" category="78" did="1879443707" parentZoneId="1879445911" longitude="-57.418858" latitude="-50.883842"/>
<marker id="375369957" label="Spotted Doe" category="78" did="1879443704" parentZoneId="1879445911" longitude="-57.418858" latitude="-50.883842"/>
<marker id="375369958" label="Wandering Moor-wolf" category="71" did="1879448932" parentZoneId="1879445911" longitude="-57.630947" latitude="-50.980495"/>
<marker id="375369959" label="White Hand Orc-scout" category="71" did="1879448917" parentZoneId="1879445911" longitude="-57.630947" latitude="-50.980495"/>
<marker id="375369960" label="Ruddy-mantle Aurochs" category="71" did="1879448898" parentZoneId="1879445911" longitude="-57.630947" latitude="-50.980495"/>
<marker id="375369961" label="Ruddy-mantle Bull" category="71" did="1879448897" parentZoneId="1879445911" longitude="-57.630947" latitude="-50.980495"/>
<marker id="375369962" label="Moor Hendroval" category="71" did="1879448913" parentZoneId="1879445911" longitude="-57.630947" latitude="-50.980495"/>
<marker id="375369963" label="Hill Grouse" category="78" did="1879443697" parentZoneId="1879445911" longitude="-57.630947" latitude="-50.980495"/>
<marker id="375369964" label="Rolling Hills Goat" category="78" did="1879443706" parentZoneId="1879445911" longitude="-57.630947" latitude="-50.980495"/>
<marker id="375369965" label="Southern Thief" category="71" did="1879448907" parentZoneId="1879445911" longitude="-57.630947" latitude="-50.980495"/>
<marker id="375369966" label="Red-coat Fox" category="78" did="1879443707" parentZoneId="1879445911" longitude="-57.630947" latitude="-50.980495"/>
<marker id="375369967" label="Spotted Doe" category="78" did="1879443704" parentZoneId="1879445911" longitude="-57.630947" latitude="-50.980495"/>
<marker id="375369968" label="Wandering Moor-wolf" category="71" did="1879448932" parentZoneId="1879445911" longitude="-57.60201" latitude="-51.23731"/>
<marker id="375369969" label="White Hand Orc-scout" category="71" did="1879448917" parentZoneId="1879445911" longitude="-57.60201" latitude="-51.23731"/>
<marker id="375369970" label="Ruddy-mantle Aurochs" category="71" did="1879448898" parentZoneId="1879445911" longitude="-57.60201" latitude="-51.23731"/>
<marker id="375369971" label="Ruddy-mantle Bull" category="71" did="1879448897" parentZoneId="1879445911" longitude="-57.60201" latitude="-51.23731"/>
<marker id="375369972" label="Moor Hendroval" category="71" did="1879448913" parentZoneId="1879445911" longitude="-57.60201" latitude="-51.23731"/>
<marker id="375369973" label="Hill Grouse" category="78" did="1879443697" parentZoneId="1879445911" longitude="-57.60201" latitude="-51.23731"/>
<marker id="375369974" label="Rolling Hills Goat" category="78" did="1879443706" parentZoneId="1879445911" longitude="-57.60201" latitude="-51.23731"/>
<marker id="375369975" label="Southern Thief" category="71" did="1879448907" parentZoneId="1879445911" longitude="-57.60201" latitude="-51.23731"/>
<marker id="375369976" label="Red-coat Fox" category="78" did="1879443707" parentZoneId="1879445911" longitude="-57.60201" latitude="-51.23731"/>
<marker id="375369977" label="Spotted Doe" category="78" did="1879443704" parentZoneId="1879445911" longitude="-57.60201" latitude="-51.23731"/>
<marker id="375369978" label="Wandering Moor-wolf" category="71" did="1879448932" parentZoneId="1879445911" longitude="-57.777145" latitude="-51.30079"/>
<marker id="375369979" label="White Hand Orc-scout" category="71" did="1879448917" parentZoneId="1879445911" longitude="-57.777145" latitude="-51.30079"/>
<marker id="375369980" label="Ruddy-mantle Aurochs" category="71" did="1879448898" parentZoneId="1879445911" longitude="-57.777145" latitude="-51.30079"/>
<marker id="375369981" label="Ruddy-mantle Bull" category="71" did="1879448897" parentZoneId="1879445911" longitude="-57.777145" latitude="-51.30079"/>
<marker id="375369982" label="Moor Hendroval" category="71" did="1879448913" parentZoneId="1879445911" longitude="-57.777145" latitude="-51.30079"/>
<marker id="375369983" label="Hill Grouse" category="78" did="1879443697" parentZoneId="1879445911" longitude="-57.777145" latitude="-51.30079"/>
<marker id="375369984" label="Rolling Hills Goat" category="78" did="1879443706" parentZoneId="1879445911" longitude="-57.777145" latitude="-51.30079"/>
<marker id="375369985" label="Southern Thief" category="71" did="1879448907" parentZoneId="1879445911" longitude="-57.777145" latitude="-51.30079"/>
<marker id="375369986" label="Red-coat Fox" category="78" did="1879443707" parentZoneId="1879445911" longitude="-57.777145" latitude="-51.30079"/>
<marker id="375369987" label="Spotted Doe" category="78" did="1879443704" parentZoneId="1879445911" longitude="-57.777145" latitude="-51.30079"/>
<marker id="375369988" label="Wandering Moor-wolf" category="71" did="1879448932" parentZoneId="1879445911" longitude="-57.306953" latitude="-51.518032"/>
<marker id="375369989" label="White Hand Orc-scout" category="71" did="1879448917" parentZoneId="1879445911" longitude="-57.306953" latitude="-51.518032"/>
<marker id="375369990" label="Ruddy-mantle Aurochs" category="71" did="1879448898" parentZoneId="1879445911" longitude="-57.306953" latitude="-51.518032"/>
<marker id="375369991" label="Ruddy-mantle Bull" category="71" did="1879448897" parentZoneId="1879445911" longitude="-57.306953" latitude="-51.518032"/>
<marker id="375369992" label="Moor Hendroval" category="71" did="1879448913" parentZoneId="1879445911" longitude="-57.306953" latitude="-51.518032"/>
<marker id="375369993" label="Hill Grouse" category="78" did="1879443697" parentZoneId="1879445911" longitude="-57.306953" latitude="-51.518032"/>
<marker id="375369994" label="Rolling Hills Goat" category="78" did="1879443706" parentZoneId="1879445911" longitude="-57.306953" latitude="-51.518032"/>
<marker id="375369995" label="Southern Thief" category="71" did="1879448907" parentZoneId="1879445911" longitude="-57.306953" latitude="-51.518032"/>
<marker id="375369996" label="Red-coat Fox" category="78" did="1879443707" parentZoneId="1879445911" longitude="-57.306953" latitude="-51.518032"/>
<marker id="375369997" label="Spotted Doe" category="78" did="1879443704" parentZoneId="1879445911" longitude="-57.306953" latitude="-51.518032"/>
<marker id="375369998" label="Wandering Moor-wolf" category="71" did="1879448932" parentZoneId="1879445911" longitude="-57.296524" latitude="-51.29712"/>
<marker id="375369999" label="White Hand Orc-scout" category="71" did="1879448917" parentZoneId="1879445911" longitude="-57.296524" latitude="-51.29712"/>
<marker id="375370000" label="Ruddy-mantle Aurochs" category="71" did="1879448898" parentZoneId="1879445911" longitude="-57.296524" latitude="-51.29712"/>
<marker id="375370001" label="Ruddy-mantle Bull" category="71" did="1879448897" parentZoneId="1879445911" longitude="-57.296524" latitude="-51.29712"/>
<marker id="375370002" label="Moor Hendroval" category="71" did="1879448913" parentZoneId="1879445911" longitude="-57.296524" latitude="-51.29712"/>
<marker id="375370003" label="Hill Grouse" category="78" did="1879443697" parentZoneId="1879445911" longitude="-57.296524" latitude="-51.29712"/>
<marker id="375370004" label="Rolling Hills Goat" category="78" did="1879443706" parentZoneId="1879445911" longitude="-57.296524" latitude="-51.29712"/>
<marker id="375370005" label="Southern Thief" category="71" did="1879448907" parentZoneId="1879445911" longitude="-57.296524" latitude="-51.29712"/>
<marker id="375370006" label="Red-coat Fox" category="78" did="1879443707" parentZoneId="1879445911" longitude="-57.296524" latitude="-51.29712"/>
<marker id="375370007" label="Spotted Doe" category="78" did="1879443704" parentZoneId="1879445911" longitude="-57.296524" latitude="-51.29712"/>
<marker id="375370008" label="Wandering Moor-wolf" category="71" did="1879448932" parentZoneId="1879445911" longitude="-57.29024" latitude="-51.2119"/>
<marker id="375370009" label="White Hand Orc-scout" category="71" did="1879448917" parentZoneId="1879445911" longitude="-57.29024" latitude="-51.2119"/>
<marker id="375370010" label="Ruddy-mantle Aurochs" category="71" did="1879448898" parentZoneId="1879445911" longitude="-57.29024" latitude="-51.2119"/>
<marker id="375370011" label="Ruddy-mantle Bull" category="71" did="1879448897" parentZoneId="1879445911" longitude="-57.29024" latitude="-51.2119"/>
<marker id="375370012" label="Moor Hendroval" category="71" did="1879448913" parentZoneId="1879445911" longitude="-57.29024" latitude="-51.2119"/>
<marker id="375370013" label="Hill Grouse" category="78" did="1879443697" parentZoneId="1879445911" longitude="-57.29024" latitude="-51.2119"/>
<marker id="375370014" label="Rolling Hills Goat" category="78" did="1879443706" parentZoneId="1879445911" longitude="-57.29024" latitude="-51.2119"/>
<marker id="375370015" label="Southern Thief" category="71" did="1879448907" parentZoneId="1879445911" longitude="-57.29024" latitude="-51.2119"/>
<marker id="375370016" label="Red-coat Fox" category="78" did="1879443707" parentZoneId="1879445911" longitude="-57.29024" latitude="-51.2119"/>
<marker id="375370017" label="Spotted Doe" category="78" did="1879443704" parentZoneId="1879445911" longitude="-57.29024" latitude="-51.2119"/>
<marker id="375370018" label="Wandering Moor-wolf" category="71" did="1879448932" parentZoneId="1879445911" longitude="-57.398045" latitude="-50.940742"/>
<marker id="375370019" label="White Hand Orc-scout" category="71" did="1879448917" parentZoneId="1879445911" longitude="-57.398045" latitude="-50.940742"/>
<marker id="375370020" label="Ruddy-mantle Aurochs" category="71" did="1879448898" parentZoneId="1879445911" longitude="-57.398045" latitude="-50.940742"/>
<marker id="375370021" label="Ruddy-mantle Bull" category="71" did="1879448897" parentZoneId="1879445911" longitude="-57.398045" latitude="-50.940742"/>
<marker id="375370022" label="Moor Hendroval" category="71" did="1879448913" parentZoneId="1879445911" longitude="-57.398045" latitude="-50.940742"/>
<marker id="375370023" label="Hill Grouse" category="78" did="1879443697" parentZoneId="1879445911" longitude="-57.398045" latitude="-50.940742"/>
<marker id="375370024" label="Rolling Hills Goat" category="78" did="1879443706" parentZoneId="1879445911" longitude="-57.398045" latitude="-50.940742"/>
<marker id="375370025" label="Southern Thief" category="71" did="1879448907" parentZoneId="1879445911" longitude="-57.398045" latitude="-50.940742"/>
<marker id="375370026" label="Red-coat Fox" category="78" did="1879443707" parentZoneId="1879445911" longitude="-57.398045" latitude="-50.940742"/>
<marker id="375370027" label="Spotted Doe" category="78" did="1879443704" parentZoneId="1879445911" longitude="-57.398045" latitude="-50.940742"/>
<marker id="375370028" label="Wandering Moor-wolf" category="71" did="1879448932" parentZoneId="1879445911" longitude="-57.309483" latitude="-51.05936"/>
<marker id="375370029" label="White Hand Orc-scout" category="71" did="1879448917" parentZoneId="1879445911" longitude="-57.309483" latitude="-51.05936"/>
<marker id="375370030" label="Ruddy-mantle Aurochs" category="71" did="1879448898" parentZoneId="1879445911" longitude="-57.309483" latitude="-51.05936"/>
<marker id="375370031" label="Ruddy-mantle Bull" category="71" did="1879448897" parentZoneId="1879445911" longitude="-57.309483" latitude="-51.05936"/>
<marker id="375370032" label="Moor Hendroval" category="71" did="1879448913" parentZoneId="1879445911" longitude="-57.309483" latitude="-51.05936"/>
<marker id="375370033" label="Hill Grouse" category="78" did="1879443697" parentZoneId="1879445911" longitude="-57.309483" latitude="-51.05936"/>
<marker id="375370034" label="Rolling Hills Goat" category="78" did="1879443706" parentZoneId="1879445911" longitude="-57.309483" latitude="-51.05936"/>
<marker id="375370035" label="Southern Thief" category="71" did="1879448907" parentZoneId="1879445911" longitude="-57.309483" latitude="-51.05936"/>
<marker id="375370036" label="Red-coat Fox" category="78" did="1879443707" parentZoneId="1879445911" longitude="-57.309483" latitude="-51.05936"/>
<marker id="375370037" label="Spotted Doe" category="78" did="1879443704" parentZoneId="1879445911" longitude="-57.309483" latitude="-51.05936"/>
<marker id="375370038" label="Wandering Moor-wolf" category="71" did="1879448932" parentZoneId="1879445911" longitude="-57.47912" latitude="-51.468533"/>
<marker id="375370039" label="White Hand Orc-scout" category="71" did="1879448917" parentZoneId="1879445911" longitude="-57.47912" latitude="-51.468533"/>
<marker id="375370040" label="Ruddy-mantle Aurochs" category="71" did="1879448898" parentZoneId="1879445911" longitude="-57.47912" latitude="-51.468533"/>
<marker id="375370041" label="Ruddy-mantle Bull" category="71" did="1879448897" parentZoneId="1879445911" longitude="-57.47912" latitude="-51.468533"/>
<marker id="375370042" label="Moor Hendroval" category="71" did="1879448913" parentZoneId="1879445911" longitude="-57.47912" latitude="-51.468533"/>
<marker id="375370043" label="Hill Grouse" category="78" did="1879443697" parentZoneId="1879445911" longitude="-57.47912" latitude="-51.468533"/>
<marker id="375370044" label="Rolling Hills Goat" category="78" did="1879443706" parentZoneId="1879445911" longitude="-57.47912" latitude="-51.468533"/>
<marker id="375370045" label="Southern Thief" category="71" did="1879448907" parentZoneId="1879445911" longitude="-57.47912" latitude="-51.468533"/>
<marker id="375370046" label="Red-coat Fox" category="78" did="1879443707" parentZoneId="1879445911" longitude="-57.47912" latitude="-51.468533"/>
<marker id="375370047" label="Spotted Doe" category="78" did="1879443704" parentZoneId="1879445911" longitude="-57.47912" latitude="-51.468533"/>
<marker id="375370048" label="Wandering Moor-wolf" category="71" did="1879448932" parentZoneId="1879445911" longitude="-57.78372" latitude="-51.49062"/>
<marker id="375370049" label="White Hand Orc-scout" category="71" did="1879448917" parentZoneId="1879445911" longitude="-57.78372" latitude="-51.49062"/>
<marker id="375370050" label="Ruddy-mantle Aurochs" category="71" did="1879448898" parentZoneId="1879445911" longitude="-57.78372" latitude="-51.49062"/>
<marker id="375370051" label="Ruddy-mantle Bull" category="71" did="1879448897" parentZoneId="1879445911" longitude="-57.78372" latitude="-51.49062"/>
<marker id="375370052" label="Moor Hendroval" category="71" did="1879448913" parentZoneId="1879445911" longitude="-57.78372" latitude="-51.49062"/>
<marker id="375370053" label="Hill Grouse" category="78" did="1879443697" parentZoneId="1879445911" longitude="-57.78372" latitude="-51.49062"/>
<marker id="375370054" label="Rolling Hills Goat" category="78" did="1879443706" parentZoneId="1879445911" longitude="-57.78372" latitude="-51.49062"/>
<marker id="375370055" label="Southern Thief" category="71" did="1879448907" parentZoneId="1879445911" longitude="-57.78372" latitude="-51.49062"/>
<marker id="375370056" label="Red-coat Fox" category="78" did="1879443707" parentZoneId="1879445911" longitude="-57.78372" latitude="-51.49062"/>
<marker id="375370057" label="Spotted Doe" category="78" did="1879443704" parentZoneId="1879445911" longitude="-57.78372" latitude="-51.49062"/>
<marker id="375370058" label="Wandering Moor-wolf" category="71" did="1879448932" parentZoneId="1879445911" longitude="-57.886124" latitude="-51.482006"/>
<marker id="375370059" label="White Hand Orc-scout" category="71" did="1879448917" parentZoneId="1879445911" longitude="-57.886124" latitude="-51.482006"/>
<marker id="375370060" label="Ruddy-mantle Aurochs" category="71" did="1879448898" parentZoneId="1879445911" longitude="-57.886124" latitude="-51.482006"/>
<marker id="375370061" label="Ruddy-mantle Bull" category="71" did="1879448897" parentZoneId="1879445911" longitude="-57.886124" latitude="-51.482006"/>
<marker id="375370062" label="Moor Hendroval" category="71" did="1879448913" parentZoneId="1879445911" longitude="-57.886124" latitude="-51.482006"/>
<marker id="375370063" label="Hill Grouse" category="78" did="1879443697" parentZoneId="1879445911" longitude="-57.886124" latitude="-51.482006"/>
<marker id="375370064" label="Rolling Hills Goat" category="78" did="1879443706" parentZoneId="1879445911" longitude="-57.886124" latitude="-51.482006"/>
<marker id="375370065" label="Southern Thief" category="71" did="1879448907" parentZoneId="1879445911" longitude="-57.886124" latitude="-51.482006"/>
<marker id="375370066" label="Red-coat Fox" category="78" did="1879443707" parentZoneId="1879445911" longitude="-57.886124" latitude="-51.482006"/>
<marker id="375370067" label="Spotted Doe" category="78" did="1879443704" parentZoneId="1879445911" longitude="-57.886124" latitude="-51.482006"/>
<marker id="375370068" label="Wandering Moor-wolf" category="71" did="1879448932" parentZoneId="1879445911" longitude="-57.821384" latitude="-51.2883"/>
<marker id="375370069" label="White Hand Orc-scout" category="71" did="1879448917" parentZoneId="1879445911" longitude="-57.821384" latitude="-51.2883"/>
<marker id="375370070" label="Ruddy-mantle Aurochs" category="71" did="1879448898" parentZoneId="1879445911" longitude="-57.821384" latitude="-51.2883"/>
<marker id="375370071" label="Ruddy-mantle Bull" category="71" did="1879448897" parentZoneId="1879445911" longitude="-57.821384" latitude="-51.2883"/>
<marker id="375370072" label="Moor Hendroval" category="71" did="1879448913" parentZoneId="1879445911" longitude="-57.821384" latitude="-51.2883"/>
<marker id="375370073" label="Hill Grouse" category="78" did="1879443697" parentZoneId="1879445911" longitude="-57.821384" latitude="-51.2883"/>
<marker id="375370074" label="Rolling Hills Goat" category="78" did="1879443706" parentZoneId="1879445911" longitude="-57.821384" latitude="-51.2883"/>
<marker id="375370075" label="Southern Thief" category="71" did="1879448907" parentZoneId="1879445911" longitude="-57.821384" latitude="-51.2883"/>
<marker id="375370076" label="Red-coat Fox" category="78" did="1879443707" parentZoneId="1879445911" longitude="-57.821384" latitude="-51.2883"/>
<marker id="375370077" label="Spotted Doe" category="78" did="1879443704" parentZoneId="1879445911" longitude="-57.821384" latitude="-51.2883"/>
<marker id="375370078" label="Wandering Moor-wolf" category="71" did="1879448932" parentZoneId="1879445911" longitude="-57.7841" latitude="-51.338623"/>
<marker id="375370079" label="White Hand Orc-scout" category="71" did="1879448917" parentZoneId="1879445911" longitude="-57.7841" latitude="-51.338623"/>
<marker id="375370080" label="Ruddy-mantle Aurochs" category="71" did="1879448898" parentZoneId="1879445911" longitude="-57.7841" latitude="-51.338623"/>
<marker id="375370081" label="Ruddy-mantle Bull" category="71" did="1879448897" parentZoneId="1879445911" longitude="-57.7841" latitude="-51.338623"/>
<marker id="375370082" label="Moor Hendroval" category="71" did="1879448913" parentZoneId="1879445911" longitude="-57.7841" latitude="-51.338623"/>
<marker id="375370083" label="Hill Grouse" category="78" did="1879443697" parentZoneId="1879445911" longitude="-57.7841" latitude="-51.338623"/>
<marker id="375370084" label="Rolling Hills Goat" category="78" did="1879443706" parentZoneId="1879445911" longitude="-57.7841" latitude="-51.338623"/>
<marker id="375370085" label="Southern Thief" category="71" did="1879448907" parentZoneId="1879445911" longitude="-57.7841" latitude="-51.338623"/>
<marker id="375370086" label="Red-coat Fox" category="78" did="1879443707" parentZoneId="1879445911" longitude="-57.7841" latitude="-51.338623"/>
<marker id="375370087" label="Spotted Doe" category="78" did="1879443704" parentZoneId="1879445911" longitude="-57.7841" latitude="-51.338623"/>
<marker id="375370088" label="Wandering Moor-wolf" category="71" did="1879448932" parentZoneId="1879445911" longitude="-57.571747" latitude="-51.240635"/>
<marker id="375370089" label="White Hand Orc-scout" category="71" did="1879448917" parentZoneId="1879445911" longitude="-57.571747" latitude="-51.240635"/>
<marker id="375370090" label="Ruddy-mantle Aurochs" category="71" did="1879448898" parentZoneId="1879445911" longitude="-57.571747" latitude="-51.240635"/>
<marker id="375370091" label="Ruddy-mantle Bull" category="71" did="1879448897" parentZoneId="1879445911" longitude="-57.571747" latitude="-51.240635"/>
<marker id="375370092" label="Moor Hendroval" category="71" did="1879448913" parentZoneId="1879445911" longitude="-57.571747" latitude="-51.240635"/>
<marker id="375370093" label="Hill Grouse" category="78" did="1879443697" parentZoneId="1879445911" longitude="-57.571747" latitude="-51.240635"/>
<marker id="375370094" label="Rolling Hills Goat" category="78" did="1879443706" parentZoneId="1879445911" longitude="-57.571747" latitude="-51.240635"/>
<marker id="375370095" label="Southern Thief" category="71" did="1879448907" parentZoneId="1879445911" longitude="-57.571747" latitude="-51.240635"/>
<marker id="375370096" label="Red-coat Fox" category="78" did="1879443707" parentZoneId="1879445911" longitude="-57.571747" latitude="-51.240635"/>
<marker id="375370097" label="Spotted Doe" category="78" did="1879443704" parentZoneId="1879445911" longitude="-57.571747" latitude="-51.240635"/>
<marker id="375370098" label="Wandering Moor-wolf" category="71" did="1879448932" parentZoneId="1879445911" longitude="-57.589363" latitude="-51.032032"/>
<marker id="375370099" label="White Hand Orc-scout" category="71" did="1879448917" parentZoneId="1879445911" longitude="-57.589363" latitude="-51.032032"/>
<marker id="375370100" label="Ruddy-mantle Aurochs" category="71" did="1879448898" parentZoneId="1879445911" longitude="-57.589363" latitude="-51.032032"/>
<marker id="375370101" label="Ruddy-mantle Bull" category="71" did="1879448897" parentZoneId="1879445911" longitude="-57.589363" latitude="-51.032032"/>
<marker id="375370102" label="Moor Hendroval" category="71" did="1879448913" parentZoneId="1879445911" longitude="-57.589363" latitude="-51.032032"/>
<marker id="375370103" label="Hill Grouse" category="78" did="1879443697" parentZoneId="1879445911" longitude="-57.589363" latitude="-51.032032"/>
<marker id="375370104" label="Rolling Hills Goat" category="78" did="1879443706" parentZoneId="1879445911" longitude="-57.589363" latitude="-51.032032"/>
<marker id="375370105" label="Southern Thief" category="71" did="1879448907" parentZoneId="1879445911" longitude="-57.589363" latitude="-51.032032"/>
<marker id="375370106" label="Red-coat Fox" category="78" did="1879443707" parentZoneId="1879445911" longitude="-57.589363" latitude="-51.032032"/>
<marker id="375370107" label="Spotted Doe" category="78" did="1879443704" parentZoneId="1879445911" longitude="-57.589363" latitude="-51.032032"/>
<marker id="375370108" label="Wandering Moor-wolf" category="71" did="1879448932" parentZoneId="1879445911" longitude="-57.86992" latitude="-51.49109"/>
<marker id="375370109" label="White Hand Orc-scout" category="71" did="1879448917" parentZoneId="1879445911" longitude="-57.86992" latitude="-51.49109"/>
<marker id="375370110" label="Ruddy-mantle Aurochs" category="71" did="1879448898" parentZoneId="1879445911" longitude="-57.86992" latitude="-51.49109"/>
<marker id="375370111" label="Ruddy-mantle Bull" category="71" did="1879448897" parentZoneId="1879445911" longitude="-57.86992" latitude="-51.49109"/>
<marker id="375370112" label="Moor Hendroval" category="71" did="1879448913" parentZoneId="1879445911" longitude="-57.86992" latitude="-51.49109"/>
<marker id="375370113" label="Hill Grouse" category="78" did="1879443697" parentZoneId="1879445911" longitude="-57.86992" latitude="-51.49109"/>
<marker id="375370114" label="Rolling Hills Goat" category="78" did="1879443706" parentZoneId="1879445911" longitude="-57.86992" latitude="-51.49109"/>
<marker id="375370115" label="Southern Thief" category="71" did="1879448907" parentZoneId="1879445911" longitude="-57.86992" latitude="-51.49109"/>
<marker id="375370116" label="Red-coat Fox" category="78" did="1879443707" parentZoneId="1879445911" longitude="-57.86992" latitude="-51.49109"/>
<marker id="375370117" label="Spotted Doe" category="78" did="1879443704" parentZoneId="1879445911" longitude="-57.86992" latitude="-51.49109"/>
<marker id="375370118" label="Wandering Moor-wolf" category="71" did="1879448932" parentZoneId="1879445911" longitude="-57.53738" latitude="-51.353806"/>
<marker id="375370119" label="White Hand Orc-scout" category="71" did="1879448917" parentZoneId="1879445911" longitude="-57.53738" latitude="-51.353806"/>
<marker id="375370120" label="Ruddy-mantle Aurochs" category="71" did="1879448898" parentZoneId="1879445911" longitude="-57.53738" latitude="-51.353806"/>
<marker id="375370121" label="Ruddy-mantle Bull" category="71" did="1879448897" parentZoneId="1879445911" longitude="-57.53738" latitude="-51.353806"/>
<marker id="375370122" label="Moor Hendroval" category="71" did="1879448913" parentZoneId="1879445911" longitude="-57.53738" latitude="-51.353806"/>
<marker id="375370123" label="Hill Grouse" category="78" did="1879443697" parentZoneId="1879445911" longitude="-57.53738" latitude="-51.353806"/>
<marker id="375370124" label="Rolling Hills Goat" category="78" did="1879443706" parentZoneId="1879445911" longitude="-57.53738" latitude="-51.353806"/>
<marker id="375370125" label="Southern Thief" category="71" did="1879448907" parentZoneId="1879445911" longitude="-57.53738" latitude="-51.353806"/>
<marker id="375370126" label="Red-coat Fox" category="78" did="1879443707" parentZoneId="1879445911" longitude="-57.53738" latitude="-51.353806"/>
<marker id="375370127" label="Spotted Doe" category="78" did="1879443704" parentZoneId="1879445911" longitude="-57.53738" latitude="-51.353806"/>
<marker id="375370128" label="Wandering Moor-wolf" category="71" did="1879448932" parentZoneId="1879445911" longitude="-57.70903" latitude="-51.459667"/>
<marker id="375370129" label="White Hand Orc-scout" category="71" did="1879448917" parentZoneId="1879445911" longitude="-57.70903" latitude="-51.459667"/>
<marker id="375370130" label="Ruddy-mantle Aurochs" category="71" did="1879448898" parentZoneId="1879445911" longitude="-57.70903" latitude="-51.459667"/>
<marker id="375370131" label="Ruddy-mantle Bull" category="71" did="1879448897" parentZoneId="1879445911" longitude="-57.70903" latitude="-51.459667"/>
<marker id="375370132" label="Moor Hendroval" category="71" did="1879448913" parentZoneId="1879445911" longitude="-57.70903" latitude="-51.459667"/>
<marker id="375370133" label="Hill Grouse" category="78" did="1879443697" parentZoneId="1879445911" longitude="-57.70903" latitude="-51.459667"/>
<marker id="375370134" label="Rolling Hills Goat" category="78" did="1879443706" parentZoneId="1879445911" longitude="-57.70903" latitude="-51.459667"/>
<marker id="375370135" label="Southern Thief" category="71" did="1879448907" parentZoneId="1879445911" longitude="-57.70903" latitude="-51.459667"/>
<marker id="375370136" label="Red-coat Fox" category="78" did="1879443707" parentZoneId="1879445911" longitude="-57.70903" latitude="-51.459667"/>
<marker id="375370137" label="Spotted Doe" category="78" did="1879443704" parentZoneId="1879445911" longitude="-57.70903" latitude="-51.459667"/>
<marker id="375370138" label="Wandering Moor-wolf" category="71" did="1879448932" parentZoneId="1879445911" longitude="-57.63165" latitude="-51.519222"/>
<marker id="375370139" label="White Hand Orc-scout" category="71" did="1879448917" parentZoneId="1879445911" longitude="-57.63165" latitude="-51.519222"/>
<marker id="375370140" label="Ruddy-mantle Aurochs" category="71" did="1879448898" parentZoneId="1879445911" longitude="-57.63165" latitude="-51.519222"/>
<marker id="375370141" label="Ruddy-mantle Bull" category="71" did="1879448897" parentZoneId="1879445911" longitude="-57.63165" latitude="-51.519222"/>
<marker id="375370142" label="Moor Hendroval" category="71" did="1879448913" parentZoneId="1879445911" longitude="-57.63165" latitude="-51.519222"/>
<marker id="375370143" label="Hill Grouse" category="78" did="1879443697" parentZoneId="1879445911" longitude="-57.63165" latitude="-51.519222"/>
<marker id="375370144" label="Rolling Hills Goat" category="78" did="1879443706" parentZoneId="1879445911" longitude="-57.63165" latitude="-51.519222"/>
<marker id="375370145" label="Southern Thief" category="71" did="1879448907" parentZoneId="1879445911" longitude="-57.63165" latitude="-51.519222"/>
<marker id="375370146" label="Red-coat Fox" category="78" did="1879443707" parentZoneId="1879445911" longitude="-57.63165" latitude="-51.519222"/>
<marker id="375370147" label="Spotted Doe" category="78" did="1879443704" parentZoneId="1879445911" longitude="-57.63165" latitude="-51.519222"/>
</markers>
