<?xml version="1.0" encoding="UTF-8"?><markers>
<marker id="1297088512" label="Fire-drakeling" category="71" did="1879346429" parentZoneId="1879342005" longitude="20.28162" latitude="-60.17038"/>
<marker id="1297088513" label="Fumarole" category="71" did="1879346444" parentZoneId="1879342005" longitude="20.28162" latitude="-60.17038"/>
<marker id="1297088514" label="Fire Grim" category="71" did="1879346443" parentZoneId="1879342005" longitude="20.28162" latitude="-60.17038"/>
<marker id="1297088515" label="Young Fire-drake" category="71" did="1879346452" parentZoneId="1879342005" longitude="20.28162" latitude="-60.17038"/>
<marker id="1297088516" label="Fire-drake" category="71" did="1879346459" parentZoneId="1879342005" longitude="20.28162" latitude="-60.17038"/>
<marker id="1297088517" label="Lesser Caerog" category="71" did="1879346467" parentZoneId="1879342005" longitude="20.28162" latitude="-60.17038"/>
<marker id="1297088518" label="Lesser Rogmul" category="71" did="1879346474" parentZoneId="1879342005" longitude="20.28162" latitude="-60.17038"/>
<marker id="1297088519" label="Flame-worm" category="71" did="1879346542" parentZoneId="1879342005" longitude="20.28162" latitude="-60.17038"/>
<marker id="1297088520" label="Nakhtsúm the Scorcher" category="71" did="1879346434" parentZoneId="1879342005" longitude="20.37746" latitude="-60.115864"/>
<marker id="1297088521" label="Lesser Caerog" category="71" did="1879346467" parentZoneId="1879342005" longitude="20.37746" latitude="-60.115864"/>
<marker id="1297088522" label="Fumarole" category="71" did="1879346444" parentZoneId="1879342005" longitude="20.37746" latitude="-60.115864"/>
<marker id="1297088523" label="Flame-worm" category="71" did="1879346542" parentZoneId="1879342005" longitude="20.37746" latitude="-60.115864"/>
<marker id="1297088524" label="Zághar Shâr, the Raging Blaze" category="71" did="1879346440" parentZoneId="1879342005" longitude="20.37746" latitude="-60.115864"/>
<marker id="1297088525" label="Blighted Marsh-lurker" category="71" did="1879342409" parentZoneId="1879342005" longitude="20.37746" latitude="-60.115864"/>
<marker id="1297088526" label="Lesser Rogmul" category="71" did="1879346474" parentZoneId="1879342005" longitude="20.37746" latitude="-60.115864"/>
<marker id="1297088527" label="Rock-worm" category="71" did="1879346539" parentZoneId="1879342005" longitude="20.37746" latitude="-60.115864"/>
<marker id="1297088528" label="Fire Grim" category="71" did="1879346443" parentZoneId="1879342005" longitude="20.37746" latitude="-60.115864"/>
<marker id="1297088529" label="Young Fire-drake" category="71" did="1879346452" parentZoneId="1879342005" longitude="20.37746" latitude="-60.115864"/>
<marker id="1297088530" label="Flame-tongue Salamander" category="71" did="1879346519" parentZoneId="1879342005" longitude="20.37746" latitude="-60.115864"/>
<marker id="1297088531" label="Fire-crawler" category="71" did="1879351443" parentZoneId="1879342005" longitude="20.37746" latitude="-60.115864"/>
<marker id="1297088532" label="Fire-drakeling" category="71" did="1879346429" parentZoneId="1879342005" longitude="20.37746" latitude="-60.115864"/>
<marker id="1297088533" label="Mordor Salamander" category="71" did="1879346521" parentZoneId="1879342005" longitude="20.37746" latitude="-60.115864"/>
<marker id="1297088534" label="Fire-drake" category="71" did="1879346459" parentZoneId="1879342005" longitude="20.37746" latitude="-60.115864"/>
<marker id="1297088535" label="Nakhtsúm the Scorcher" category="71" did="1879346434" parentZoneId="1879342005" longitude="20.384531" latitude="-60.262554"/>
<marker id="1297088536" label="Lesser Caerog" category="71" did="1879346467" parentZoneId="1879342005" longitude="20.384531" latitude="-60.262554"/>
<marker id="1297088537" label="Fumarole" category="71" did="1879346444" parentZoneId="1879342005" longitude="20.384531" latitude="-60.262554"/>
<marker id="1297088538" label="Flame-worm" category="71" did="1879346542" parentZoneId="1879342005" longitude="20.384531" latitude="-60.262554"/>
<marker id="1297088539" label="Zághar Shâr, the Raging Blaze" category="71" did="1879346440" parentZoneId="1879342005" longitude="20.384531" latitude="-60.262554"/>
<marker id="1297088540" label="Blighted Marsh-lurker" category="71" did="1879342409" parentZoneId="1879342005" longitude="20.384531" latitude="-60.262554"/>
<marker id="1297088541" label="Lesser Rogmul" category="71" did="1879346474" parentZoneId="1879342005" longitude="20.384531" latitude="-60.262554"/>
<marker id="1297088542" label="Rock-worm" category="71" did="1879346539" parentZoneId="1879342005" longitude="20.384531" latitude="-60.262554"/>
<marker id="1297088543" label="Fire Grim" category="71" did="1879346443" parentZoneId="1879342005" longitude="20.384531" latitude="-60.262554"/>
<marker id="1297088544" label="Young Fire-drake" category="71" did="1879346452" parentZoneId="1879342005" longitude="20.384531" latitude="-60.262554"/>
<marker id="1297088545" label="Flame-tongue Salamander" category="71" did="1879346519" parentZoneId="1879342005" longitude="20.384531" latitude="-60.262554"/>
<marker id="1297088546" label="Fire-crawler" category="71" did="1879351443" parentZoneId="1879342005" longitude="20.384531" latitude="-60.262554"/>
<marker id="1297088547" label="Fire-drakeling" category="71" did="1879346429" parentZoneId="1879342005" longitude="20.384531" latitude="-60.262554"/>
<marker id="1297088548" label="Mordor Salamander" category="71" did="1879346521" parentZoneId="1879342005" longitude="20.384531" latitude="-60.262554"/>
<marker id="1297088549" label="Fire-drake" category="71" did="1879346459" parentZoneId="1879342005" longitude="20.384531" latitude="-60.262554"/>
<marker id="1297088550" label="Nakhtsúm the Scorcher" category="71" did="1879346434" parentZoneId="1879342005" longitude="20.230957" latitude="-60.168133"/>
<marker id="1297088551" label="Lesser Caerog" category="71" did="1879346467" parentZoneId="1879342005" longitude="20.230957" latitude="-60.168133"/>
<marker id="1297088552" label="Fumarole" category="71" did="1879346444" parentZoneId="1879342005" longitude="20.230957" latitude="-60.168133"/>
<marker id="1297088553" label="Flame-worm" category="71" did="1879346542" parentZoneId="1879342005" longitude="20.230957" latitude="-60.168133"/>
<marker id="1297088554" label="Zághar Shâr, the Raging Blaze" category="71" did="1879346440" parentZoneId="1879342005" longitude="20.230957" latitude="-60.168133"/>
<marker id="1297088555" label="Blighted Marsh-lurker" category="71" did="1879342409" parentZoneId="1879342005" longitude="20.230957" latitude="-60.168133"/>
<marker id="1297088556" label="Lesser Rogmul" category="71" did="1879346474" parentZoneId="1879342005" longitude="20.230957" latitude="-60.168133"/>
<marker id="1297088557" label="Rock-worm" category="71" did="1879346539" parentZoneId="1879342005" longitude="20.230957" latitude="-60.168133"/>
<marker id="1297088558" label="Fire Grim" category="71" did="1879346443" parentZoneId="1879342005" longitude="20.230957" latitude="-60.168133"/>
<marker id="1297088559" label="Young Fire-drake" category="71" did="1879346452" parentZoneId="1879342005" longitude="20.230957" latitude="-60.168133"/>
<marker id="1297088560" label="Flame-tongue Salamander" category="71" did="1879346519" parentZoneId="1879342005" longitude="20.230957" latitude="-60.168133"/>
<marker id="1297088561" label="Fire-crawler" category="71" did="1879351443" parentZoneId="1879342005" longitude="20.230957" latitude="-60.168133"/>
<marker id="1297088562" label="Fire-drakeling" category="71" did="1879346429" parentZoneId="1879342005" longitude="20.230957" latitude="-60.168133"/>
<marker id="1297088563" label="Mordor Salamander" category="71" did="1879346521" parentZoneId="1879342005" longitude="20.230957" latitude="-60.168133"/>
<marker id="1297088564" label="Fire-drake" category="71" did="1879346459" parentZoneId="1879342005" longitude="20.230957" latitude="-60.168133"/>
<marker id="1297088565" label="Nakhtsúm the Scorcher" category="71" did="1879346434" parentZoneId="1879342005" longitude="20.23041" latitude="-60.360497"/>
<marker id="1297088566" label="Lesser Caerog" category="71" did="1879346467" parentZoneId="1879342005" longitude="20.23041" latitude="-60.360497"/>
<marker id="1297088567" label="Fumarole" category="71" did="1879346444" parentZoneId="1879342005" longitude="20.23041" latitude="-60.360497"/>
<marker id="1297088568" label="Flame-worm" category="71" did="1879346542" parentZoneId="1879342005" longitude="20.23041" latitude="-60.360497"/>
<marker id="1297088569" label="Zághar Shâr, the Raging Blaze" category="71" did="1879346440" parentZoneId="1879342005" longitude="20.23041" latitude="-60.360497"/>
<marker id="1297088570" label="Blighted Marsh-lurker" category="71" did="1879342409" parentZoneId="1879342005" longitude="20.23041" latitude="-60.360497"/>
<marker id="1297088571" label="Lesser Rogmul" category="71" did="1879346474" parentZoneId="1879342005" longitude="20.23041" latitude="-60.360497"/>
<marker id="1297088572" label="Rock-worm" category="71" did="1879346539" parentZoneId="1879342005" longitude="20.23041" latitude="-60.360497"/>
<marker id="1297088573" label="Fire Grim" category="71" did="1879346443" parentZoneId="1879342005" longitude="20.23041" latitude="-60.360497"/>
<marker id="1297088574" label="Young Fire-drake" category="71" did="1879346452" parentZoneId="1879342005" longitude="20.23041" latitude="-60.360497"/>
<marker id="1297088575" label="Flame-tongue Salamander" category="71" did="1879346519" parentZoneId="1879342005" longitude="20.23041" latitude="-60.360497"/>
<marker id="1297088576" label="Fire-crawler" category="71" did="1879351443" parentZoneId="1879342005" longitude="20.23041" latitude="-60.360497"/>
<marker id="1297088577" label="Fire-drakeling" category="71" did="1879346429" parentZoneId="1879342005" longitude="20.23041" latitude="-60.360497"/>
<marker id="1297088578" label="Mordor Salamander" category="71" did="1879346521" parentZoneId="1879342005" longitude="20.23041" latitude="-60.360497"/>
<marker id="1297088579" label="Fire-drake" category="71" did="1879346459" parentZoneId="1879342005" longitude="20.23041" latitude="-60.360497"/>
<marker id="1297088580" label="Nakhtsúm the Scorcher" category="71" did="1879346434" parentZoneId="1879342005" longitude="20.074863" latitude="-60.228786"/>
<marker id="1297088581" label="Lesser Caerog" category="71" did="1879346467" parentZoneId="1879342005" longitude="20.074863" latitude="-60.228786"/>
<marker id="1297088582" label="Fumarole" category="71" did="1879346444" parentZoneId="1879342005" longitude="20.074863" latitude="-60.228786"/>
<marker id="1297088583" label="Flame-worm" category="71" did="1879346542" parentZoneId="1879342005" longitude="20.074863" latitude="-60.228786"/>
<marker id="1297088584" label="Zághar Shâr, the Raging Blaze" category="71" did="1879346440" parentZoneId="1879342005" longitude="20.074863" latitude="-60.228786"/>
<marker id="1297088585" label="Blighted Marsh-lurker" category="71" did="1879342409" parentZoneId="1879342005" longitude="20.074863" latitude="-60.228786"/>
<marker id="1297088586" label="Lesser Rogmul" category="71" did="1879346474" parentZoneId="1879342005" longitude="20.074863" latitude="-60.228786"/>
<marker id="1297088587" label="Rock-worm" category="71" did="1879346539" parentZoneId="1879342005" longitude="20.074863" latitude="-60.228786"/>
<marker id="1297088588" label="Fire Grim" category="71" did="1879346443" parentZoneId="1879342005" longitude="20.074863" latitude="-60.228786"/>
<marker id="1297088589" label="Young Fire-drake" category="71" did="1879346452" parentZoneId="1879342005" longitude="20.074863" latitude="-60.228786"/>
<marker id="1297088590" label="Flame-tongue Salamander" category="71" did="1879346519" parentZoneId="1879342005" longitude="20.074863" latitude="-60.228786"/>
<marker id="1297088591" label="Fire-crawler" category="71" did="1879351443" parentZoneId="1879342005" longitude="20.074863" latitude="-60.228786"/>
<marker id="1297088592" label="Fire-drakeling" category="71" did="1879346429" parentZoneId="1879342005" longitude="20.074863" latitude="-60.228786"/>
<marker id="1297088593" label="Mordor Salamander" category="71" did="1879346521" parentZoneId="1879342005" longitude="20.074863" latitude="-60.228786"/>
<marker id="1297088594" label="Fire-drake" category="71" did="1879346459" parentZoneId="1879342005" longitude="20.074863" latitude="-60.228786"/>
<marker id="1297088595" label="Nakhtsúm the Scorcher" category="71" did="1879346434" parentZoneId="1879342005" longitude="19.944023" latitude="-60.38338"/>
<marker id="1297088596" label="Lesser Caerog" category="71" did="1879346467" parentZoneId="1879342005" longitude="19.944023" latitude="-60.38338"/>
<marker id="1297088597" label="Fumarole" category="71" did="1879346444" parentZoneId="1879342005" longitude="19.944023" latitude="-60.38338"/>
<marker id="1297088598" label="Flame-worm" category="71" did="1879346542" parentZoneId="1879342005" longitude="19.944023" latitude="-60.38338"/>
<marker id="1297088599" label="Zághar Shâr, the Raging Blaze" category="71" did="1879346440" parentZoneId="1879342005" longitude="19.944023" latitude="-60.38338"/>
<marker id="1297088600" label="Blighted Marsh-lurker" category="71" did="1879342409" parentZoneId="1879342005" longitude="19.944023" latitude="-60.38338"/>
<marker id="1297088601" label="Lesser Rogmul" category="71" did="1879346474" parentZoneId="1879342005" longitude="19.944023" latitude="-60.38338"/>
<marker id="1297088602" label="Rock-worm" category="71" did="1879346539" parentZoneId="1879342005" longitude="19.944023" latitude="-60.38338"/>
<marker id="1297088603" label="Fire Grim" category="71" did="1879346443" parentZoneId="1879342005" longitude="19.944023" latitude="-60.38338"/>
<marker id="1297088604" label="Young Fire-drake" category="71" did="1879346452" parentZoneId="1879342005" longitude="19.944023" latitude="-60.38338"/>
<marker id="1297088605" label="Flame-tongue Salamander" category="71" did="1879346519" parentZoneId="1879342005" longitude="19.944023" latitude="-60.38338"/>
<marker id="1297088606" label="Fire-crawler" category="71" did="1879351443" parentZoneId="1879342005" longitude="19.944023" latitude="-60.38338"/>
<marker id="1297088607" label="Fire-drakeling" category="71" did="1879346429" parentZoneId="1879342005" longitude="19.944023" latitude="-60.38338"/>
<marker id="1297088608" label="Mordor Salamander" category="71" did="1879346521" parentZoneId="1879342005" longitude="19.944023" latitude="-60.38338"/>
<marker id="1297088609" label="Fire-drake" category="71" did="1879346459" parentZoneId="1879342005" longitude="19.944023" latitude="-60.38338"/>
<marker id="1297088610" label="Nakhtsúm the Scorcher" category="71" did="1879346434" parentZoneId="1879342005" longitude="20.089804" latitude="-60.388"/>
<marker id="1297088611" label="Lesser Caerog" category="71" did="1879346467" parentZoneId="1879342005" longitude="20.089804" latitude="-60.388"/>
<marker id="1297088612" label="Fumarole" category="71" did="1879346444" parentZoneId="1879342005" longitude="20.089804" latitude="-60.388"/>
<marker id="1297088613" label="Flame-worm" category="71" did="1879346542" parentZoneId="1879342005" longitude="20.089804" latitude="-60.388"/>
<marker id="1297088614" label="Zághar Shâr, the Raging Blaze" category="71" did="1879346440" parentZoneId="1879342005" longitude="20.089804" latitude="-60.388"/>
<marker id="1297088615" label="Blighted Marsh-lurker" category="71" did="1879342409" parentZoneId="1879342005" longitude="20.089804" latitude="-60.388"/>
<marker id="1297088616" label="Lesser Rogmul" category="71" did="1879346474" parentZoneId="1879342005" longitude="20.089804" latitude="-60.388"/>
<marker id="1297088617" label="Rock-worm" category="71" did="1879346539" parentZoneId="1879342005" longitude="20.089804" latitude="-60.388"/>
<marker id="1297088618" label="Fire Grim" category="71" did="1879346443" parentZoneId="1879342005" longitude="20.089804" latitude="-60.388"/>
<marker id="1297088619" label="Young Fire-drake" category="71" did="1879346452" parentZoneId="1879342005" longitude="20.089804" latitude="-60.388"/>
<marker id="1297088620" label="Flame-tongue Salamander" category="71" did="1879346519" parentZoneId="1879342005" longitude="20.089804" latitude="-60.388"/>
<marker id="1297088621" label="Fire-crawler" category="71" did="1879351443" parentZoneId="1879342005" longitude="20.089804" latitude="-60.388"/>
<marker id="1297088622" label="Fire-drakeling" category="71" did="1879346429" parentZoneId="1879342005" longitude="20.089804" latitude="-60.388"/>
<marker id="1297088623" label="Mordor Salamander" category="71" did="1879346521" parentZoneId="1879342005" longitude="20.089804" latitude="-60.388"/>
<marker id="1297088624" label="Fire-drake" category="71" did="1879346459" parentZoneId="1879342005" longitude="20.089804" latitude="-60.388"/>
<marker id="1297088625" label="Nakhtsúm the Scorcher" category="71" did="1879346434" parentZoneId="1879342005" longitude="19.925938" latitude="-60.206142"/>
<marker id="1297088626" label="Lesser Caerog" category="71" did="1879346467" parentZoneId="1879342005" longitude="19.925938" latitude="-60.206142"/>
<marker id="1297088627" label="Fumarole" category="71" did="1879346444" parentZoneId="1879342005" longitude="19.925938" latitude="-60.206142"/>
<marker id="1297088628" label="Flame-worm" category="71" did="1879346542" parentZoneId="1879342005" longitude="19.925938" latitude="-60.206142"/>
<marker id="1297088629" label="Zághar Shâr, the Raging Blaze" category="71" did="1879346440" parentZoneId="1879342005" longitude="19.925938" latitude="-60.206142"/>
<marker id="1297088630" label="Blighted Marsh-lurker" category="71" did="1879342409" parentZoneId="1879342005" longitude="19.925938" latitude="-60.206142"/>
<marker id="1297088631" label="Lesser Rogmul" category="71" did="1879346474" parentZoneId="1879342005" longitude="19.925938" latitude="-60.206142"/>
<marker id="1297088632" label="Rock-worm" category="71" did="1879346539" parentZoneId="1879342005" longitude="19.925938" latitude="-60.206142"/>
<marker id="1297088633" label="Fire Grim" category="71" did="1879346443" parentZoneId="1879342005" longitude="19.925938" latitude="-60.206142"/>
<marker id="1297088634" label="Young Fire-drake" category="71" did="1879346452" parentZoneId="1879342005" longitude="19.925938" latitude="-60.206142"/>
<marker id="1297088635" label="Flame-tongue Salamander" category="71" did="1879346519" parentZoneId="1879342005" longitude="19.925938" latitude="-60.206142"/>
<marker id="1297088636" label="Fire-crawler" category="71" did="1879351443" parentZoneId="1879342005" longitude="19.925938" latitude="-60.206142"/>
<marker id="1297088637" label="Fire-drakeling" category="71" did="1879346429" parentZoneId="1879342005" longitude="19.925938" latitude="-60.206142"/>
<marker id="1297088638" label="Mordor Salamander" category="71" did="1879346521" parentZoneId="1879342005" longitude="19.925938" latitude="-60.206142"/>
<marker id="1297088639" label="Fire-drake" category="71" did="1879346459" parentZoneId="1879342005" longitude="19.925938" latitude="-60.206142"/>
<marker id="1297092608" label="Fumarole" category="71" did="1879346444" parentZoneId="1879342005" longitude="20.161581" latitude="-58.971634"/>
<marker id="1297092609" label="Fire Grim" category="71" did="1879346443" parentZoneId="1879342005" longitude="20.315702" latitude="-58.998554"/>
<marker id="1297092611" label="Fumarole" category="71" did="1879346444" parentZoneId="1879342005" longitude="19.99914" latitude="-59.081623"/>
<marker id="1297092612" label="Fumarole" category="71" did="1879346444" parentZoneId="1879342005" longitude="19.990917" latitude="-58.83751"/>
<marker id="1297096704" label="Fumarole" category="71" did="1879346444" parentZoneId="1879342005" longitude="19.836426" latitude="-58.750996"/>
<marker id="1297096706" label="Fumarole" category="71" did="1879346444" parentZoneId="1879342005" longitude="19.959179" latitude="-58.646416"/>
<marker id="1297096707" label="Fumarole" category="71" did="1879346444" parentZoneId="1879342005" longitude="19.867657" latitude="-58.130962"/>
<marker id="1297096708" label="Fumarole" category="71" did="1879346444" parentZoneId="1879342005" longitude="19.836855" latitude="-58.283394"/>
<marker id="1297096709" label="Fumarole" category="71" did="1879346444" parentZoneId="1879342005" longitude="19.689941" latitude="-58.21893"/>
<marker id="1297096710" label="Fumarole" category="71" did="1879346444" parentZoneId="1879342005" longitude="19.711817" latitude="-58.34514"/>
<marker id="1297100800" label="Fumarole" category="71" did="1879346444" parentZoneId="1879342005" longitude="19.619707" latitude="-57.81329"/>
<marker id="1297100801" label="Fire Grim" category="71" did="1879346443" parentZoneId="1879342005" longitude="19.614258" latitude="-57.679214"/>
<marker id="1297100803" label="Fumarole" category="71" did="1879346444" parentZoneId="1879342005" longitude="19.948456" latitude="-57.26858"/>
<marker id="1297104896" label="Treasure Cache" category="73" did="1879354437" parentZoneId="1879342005" longitude="19.935078" latitude="-57.140434"/>
<marker id="1297104897" label="Fumarole" category="71" did="1879346444" parentZoneId="1879342005" longitude="20.09703" latitude="-56.934853"/>
<marker id="1297104899" label="Fumarole" category="71" did="1879346444" parentZoneId="1879342005" longitude="20.071424" latitude="-57.099808"/>
<marker id="1297104900" label="Fumarole" category="71" did="1879346444" parentZoneId="1879342005" longitude="19.996523" latitude="-57.15926"/>
<marker id="1297141760" label="Shadowed Page" category="73" did="1879357572" parentZoneId="1879342007" longitude="20.214237" latitude="-49.886673"/>
<marker id="1297149952" label="Treasure Cache" category="73" did="1879354441" parentZoneId="1879338150" longitude="20.131113" latitude="-48.32831"/>
<marker id="1297149953" label="Rotwing" category="71" did="1879346642" parentZoneId="1879338150" longitude="19.848145" latitude="-47.795692"/>
<marker id="1297158144" label="Treasure Cache" category="73" did="1879354437" parentZoneId="1879342005" longitude="20.58959" latitude="-58.826565"/>
<marker id="1297158145" label="Fumarole" category="71" did="1879346444" parentZoneId="1879342005" longitude="20.549746" latitude="-59.13409"/>
<marker id="1297158146" label="Fire Grim" category="71" did="1879346443" parentZoneId="1879342005" longitude="20.570448" latitude="-58.80961"/>
<marker id="1297158147" label="Fumarole" category="71" did="1879346444" parentZoneId="1879342005" longitude="21.070644" latitude="-59.214447"/>
<marker id="1297158148" label="Fumarole" category="71" did="1879346444" parentZoneId="1879342005" longitude="20.963242" latitude="-59.560616"/>
<marker id="1297158149" label="Fumarole" category="71" did="1879346444" parentZoneId="1879342005" longitude="20.789433" latitude="-58.816032"/>
<marker id="1297162240" label="Greater Fire Grim" category="71" did="1879354259" parentZoneId="1879342005" longitude="20.501621" latitude="-58.495316"/>
<marker id="1297162241" label="Greater Fumarole" category="71" did="1879346645" parentZoneId="1879342005" longitude="20.502148" latitude="-58.49629"/>
<marker id="1297162242" label="Volcanic Vent" category="73" did="1879347074" parentZoneId="1879342005" longitude="20.695566" latitude="-58.55933"/>
<marker id="1297162243" label="Uiliúr" category="71" did="1879346639" parentZoneId="1879342005" longitude="20.693495" latitude="-58.441032"/>
<marker id="1297162247" label="Greater Fire Grim" category="71" did="1879354259" parentZoneId="1879342005" longitude="20.533184" latitude="-58.691917"/>
<marker id="1297162248" label="Greater Fire Grim" category="71" did="1879354259" parentZoneId="1879342005" longitude="20.716679" latitude="-58.746517"/>
<marker id="1297162249" label="Greater Fire Grim" category="71" did="1879354259" parentZoneId="1879342005" longitude="20.931309" latitude="-58.60011"/>
<marker id="1297162250" label="Greater Fire Grim" category="71" did="1879354259" parentZoneId="1879342005" longitude="20.8633" latitude="-58.359295"/>
<marker id="1297162251" label="Greater Fire Grim" category="71" did="1879354259" parentZoneId="1879342005" longitude="20.646093" latitude="-58.30015"/>
<marker id="1297215489" label="Treasure Cache" category="73" did="1879354441" parentZoneId="1879338150" longitude="20.788067" latitude="-47.74842"/>
<marker id="1297219584" label="Watching Stone" category="70" did="1879346967" parentZoneId="1879341996" longitude="21.825762" latitude="-60.23584"/>
<marker id="1297219585" label="Gorgoroth Wormling" category="78" did="1879354678" parentZoneId="1879341996" longitude="21.501465" latitude="-60.117664"/>
<marker id="1297219586" label="Gorgoroth Crawler" category="78" did="1879354675" parentZoneId="1879341996" longitude="21.501465" latitude="-60.117664"/>
<marker id="1297219587" label="Rich Gorgoroth Skarn Deposit" category="50" did="1879351068" parentZoneId="1879341996" longitude="21.498613" latitude="-59.923347"/>
<marker id="1297219588" label="Gorgoroth Skarn Deposit" category="50" did="1879351067" parentZoneId="1879341996" longitude="21.498613" latitude="-59.923347"/>
<marker id="1297219589" label="Gorgoroth Artifact Chest" category="50" did="1879351072" parentZoneId="1879341996" longitude="21.498613" latitude="-59.923347"/>
<marker id="1297219590" label="Fire-drakeling" category="71" did="1879346429" parentZoneId="1879341996" longitude="21.428984" latitude="-59.914307"/>
<marker id="1297219591" label="Fumarole" category="71" did="1879346444" parentZoneId="1879341996" longitude="21.428984" latitude="-59.914307"/>
<marker id="1297219592" label="Fire Grim" category="71" did="1879346443" parentZoneId="1879341996" longitude="21.428984" latitude="-59.914307"/>
<marker id="1297219593" label="Young Fire-drake" category="71" did="1879346452" parentZoneId="1879341996" longitude="21.428984" latitude="-59.914307"/>
<marker id="1297219594" label="Fire-drake" category="71" did="1879346459" parentZoneId="1879341996" longitude="21.428984" latitude="-59.914307"/>
<marker id="1297219595" label="Lesser Caerog" category="71" did="1879346467" parentZoneId="1879341996" longitude="21.428984" latitude="-59.914307"/>
<marker id="1297219596" label="Lesser Rogmul" category="71" did="1879346474" parentZoneId="1879341996" longitude="21.428984" latitude="-59.914307"/>
<marker id="1297219597" label="Flame-worm" category="71" did="1879346542" parentZoneId="1879341996" longitude="21.428984" latitude="-59.914307"/>
<marker id="1297219599" label="Nakhtsúm the Scorcher" category="71" did="1879346434" parentZoneId="1879341996" longitude="21.95869" latitude="-59.694374"/>
<marker id="1297219600" label="Lesser Caerog" category="71" did="1879346467" parentZoneId="1879341996" longitude="21.95869" latitude="-59.694374"/>
<marker id="1297219601" label="Fumarole" category="71" did="1879346444" parentZoneId="1879341996" longitude="21.95869" latitude="-59.694374"/>
<marker id="1297219602" label="Flame-worm" category="71" did="1879346542" parentZoneId="1879341996" longitude="21.95869" latitude="-59.694374"/>
<marker id="1297219603" label="Zághar Shâr, the Raging Blaze" category="71" did="1879346440" parentZoneId="1879341996" longitude="21.95869" latitude="-59.694374"/>
<marker id="1297219604" label="Blighted Marsh-lurker" category="71" did="1879342409" parentZoneId="1879341996" longitude="21.95869" latitude="-59.694374"/>
<marker id="1297219605" label="Lesser Rogmul" category="71" did="1879346474" parentZoneId="1879341996" longitude="21.95869" latitude="-59.694374"/>
<marker id="1297219606" label="Rock-worm" category="71" did="1879346539" parentZoneId="1879341996" longitude="21.95869" latitude="-59.694374"/>
<marker id="1297219607" label="Fire Grim" category="71" did="1879346443" parentZoneId="1879341996" longitude="21.95869" latitude="-59.694374"/>
<marker id="1297219608" label="Young Fire-drake" category="71" did="1879346452" parentZoneId="1879341996" longitude="21.95869" latitude="-59.694374"/>
<marker id="1297219609" label="Flame-tongue Salamander" category="71" did="1879346519" parentZoneId="1879341996" longitude="21.95869" latitude="-59.694374"/>
<marker id="1297219610" label="Fire-crawler" category="71" did="1879351443" parentZoneId="1879341996" longitude="21.95869" latitude="-59.694374"/>
<marker id="1297219611" label="Fire-drakeling" category="71" did="1879346429" parentZoneId="1879341996" longitude="21.95869" latitude="-59.694374"/>
<marker id="1297219612" label="Mordor Salamander" category="71" did="1879346521" parentZoneId="1879341996" longitude="21.95869" latitude="-59.694374"/>
<marker id="1297219613" label="Fire-drake" category="71" did="1879346459" parentZoneId="1879341996" longitude="21.95869" latitude="-59.694374"/>
<marker id="1297219614" label="Nakhtsúm the Scorcher" category="71" did="1879346434" parentZoneId="1879341996" longitude="21.862734" latitude="-59.841274"/>
<marker id="1297219615" label="Lesser Caerog" category="71" did="1879346467" parentZoneId="1879341996" longitude="21.862734" latitude="-59.841274"/>
<marker id="1297219616" label="Fumarole" category="71" did="1879346444" parentZoneId="1879341996" longitude="21.862734" latitude="-59.841274"/>
<marker id="1297219617" label="Flame-worm" category="71" did="1879346542" parentZoneId="1879341996" longitude="21.862734" latitude="-59.841274"/>
<marker id="1297219618" label="Zághar Shâr, the Raging Blaze" category="71" did="1879346440" parentZoneId="1879341996" longitude="21.862734" latitude="-59.841274"/>
<marker id="1297219619" label="Blighted Marsh-lurker" category="71" did="1879342409" parentZoneId="1879341996" longitude="21.862734" latitude="-59.841274"/>
<marker id="1297219620" label="Lesser Rogmul" category="71" did="1879346474" parentZoneId="1879341996" longitude="21.862734" latitude="-59.841274"/>
<marker id="1297219621" label="Rock-worm" category="71" did="1879346539" parentZoneId="1879341996" longitude="21.862734" latitude="-59.841274"/>
<marker id="1297219622" label="Fire Grim" category="71" did="1879346443" parentZoneId="1879341996" longitude="21.862734" latitude="-59.841274"/>
<marker id="1297219623" label="Young Fire-drake" category="71" did="1879346452" parentZoneId="1879341996" longitude="21.862734" latitude="-59.841274"/>
<marker id="1297219624" label="Flame-tongue Salamander" category="71" did="1879346519" parentZoneId="1879341996" longitude="21.862734" latitude="-59.841274"/>
<marker id="1297219625" label="Fire-crawler" category="71" did="1879351443" parentZoneId="1879341996" longitude="21.862734" latitude="-59.841274"/>
<marker id="1297219626" label="Fire-drakeling" category="71" did="1879346429" parentZoneId="1879341996" longitude="21.862734" latitude="-59.841274"/>
<marker id="1297219627" label="Mordor Salamander" category="71" did="1879346521" parentZoneId="1879341996" longitude="21.862734" latitude="-59.841274"/>
<marker id="1297219628" label="Fire-drake" category="71" did="1879346459" parentZoneId="1879341996" longitude="21.862734" latitude="-59.841274"/>
<marker id="1297219629" label="Nakhtsúm the Scorcher" category="71" did="1879346434" parentZoneId="1879341996" longitude="21.934687" latitude="-59.943665"/>
<marker id="1297219630" label="Lesser Caerog" category="71" did="1879346467" parentZoneId="1879341996" longitude="21.934687" latitude="-59.943665"/>
<marker id="1297219631" label="Fumarole" category="71" did="1879346444" parentZoneId="1879341996" longitude="21.934687" latitude="-59.943665"/>
<marker id="1297219632" label="Flame-worm" category="71" did="1879346542" parentZoneId="1879341996" longitude="21.934687" latitude="-59.943665"/>
<marker id="1297219633" label="Zághar Shâr, the Raging Blaze" category="71" did="1879346440" parentZoneId="1879341996" longitude="21.934687" latitude="-59.943665"/>
<marker id="1297219634" label="Blighted Marsh-lurker" category="71" did="1879342409" parentZoneId="1879341996" longitude="21.934687" latitude="-59.943665"/>
<marker id="1297219635" label="Lesser Rogmul" category="71" did="1879346474" parentZoneId="1879341996" longitude="21.934687" latitude="-59.943665"/>
<marker id="1297219636" label="Rock-worm" category="71" did="1879346539" parentZoneId="1879341996" longitude="21.934687" latitude="-59.943665"/>
<marker id="1297219637" label="Fire Grim" category="71" did="1879346443" parentZoneId="1879341996" longitude="21.934687" latitude="-59.943665"/>
<marker id="1297219638" label="Young Fire-drake" category="71" did="1879346452" parentZoneId="1879341996" longitude="21.934687" latitude="-59.943665"/>
<marker id="1297219639" label="Flame-tongue Salamander" category="71" did="1879346519" parentZoneId="1879341996" longitude="21.934687" latitude="-59.943665"/>
<marker id="1297219640" label="Fire-crawler" category="71" did="1879351443" parentZoneId="1879341996" longitude="21.934687" latitude="-59.943665"/>
<marker id="1297219641" label="Fire-drakeling" category="71" did="1879346429" parentZoneId="1879341996" longitude="21.934687" latitude="-59.943665"/>
<marker id="1297219642" label="Mordor Salamander" category="71" did="1879346521" parentZoneId="1879341996" longitude="21.934687" latitude="-59.943665"/>
<marker id="1297219643" label="Fire-drake" category="71" did="1879346459" parentZoneId="1879341996" longitude="21.934687" latitude="-59.943665"/>
<marker id="1297219644" label="Nakhtsúm the Scorcher" category="71" did="1879346434" parentZoneId="1879341996" longitude="21.707285" latitude="-59.994926"/>
<marker id="1297219645" label="Lesser Caerog" category="71" did="1879346467" parentZoneId="1879341996" longitude="21.707285" latitude="-59.994926"/>
<marker id="1297219646" label="Fumarole" category="71" did="1879346444" parentZoneId="1879341996" longitude="21.707285" latitude="-59.994926"/>
<marker id="1297219647" label="Flame-worm" category="71" did="1879346542" parentZoneId="1879341996" longitude="21.707285" latitude="-59.994926"/>
<marker id="1297219648" label="Zághar Shâr, the Raging Blaze" category="71" did="1879346440" parentZoneId="1879341996" longitude="21.707285" latitude="-59.994926"/>
<marker id="1297219649" label="Blighted Marsh-lurker" category="71" did="1879342409" parentZoneId="1879341996" longitude="21.707285" latitude="-59.994926"/>
<marker id="1297219650" label="Lesser Rogmul" category="71" did="1879346474" parentZoneId="1879341996" longitude="21.707285" latitude="-59.994926"/>
<marker id="1297219651" label="Rock-worm" category="71" did="1879346539" parentZoneId="1879341996" longitude="21.707285" latitude="-59.994926"/>
<marker id="1297219652" label="Fire Grim" category="71" did="1879346443" parentZoneId="1879341996" longitude="21.707285" latitude="-59.994926"/>
<marker id="1297219653" label="Young Fire-drake" category="71" did="1879346452" parentZoneId="1879341996" longitude="21.707285" latitude="-59.994926"/>
<marker id="1297219654" label="Flame-tongue Salamander" category="71" did="1879346519" parentZoneId="1879341996" longitude="21.707285" latitude="-59.994926"/>
<marker id="1297219655" label="Fire-crawler" category="71" did="1879351443" parentZoneId="1879341996" longitude="21.707285" latitude="-59.994926"/>
<marker id="1297219656" label="Fire-drakeling" category="71" did="1879346429" parentZoneId="1879341996" longitude="21.707285" latitude="-59.994926"/>
<marker id="1297219657" label="Mordor Salamander" category="71" did="1879346521" parentZoneId="1879341996" longitude="21.707285" latitude="-59.994926"/>
<marker id="1297219658" label="Fire-drake" category="71" did="1879346459" parentZoneId="1879341996" longitude="21.707285" latitude="-59.994926"/>
<marker id="1297219659" label="Nakhtsúm the Scorcher" category="71" did="1879346434" parentZoneId="1879341996" longitude="21.680292" latitude="-59.81229"/>
<marker id="1297219660" label="Lesser Caerog" category="71" did="1879346467" parentZoneId="1879341996" longitude="21.680292" latitude="-59.81229"/>
<marker id="1297219661" label="Fumarole" category="71" did="1879346444" parentZoneId="1879341996" longitude="21.680292" latitude="-59.81229"/>
<marker id="1297219662" label="Flame-worm" category="71" did="1879346542" parentZoneId="1879341996" longitude="21.680292" latitude="-59.81229"/>
<marker id="1297219663" label="Zághar Shâr, the Raging Blaze" category="71" did="1879346440" parentZoneId="1879341996" longitude="21.680292" latitude="-59.81229"/>
<marker id="1297219664" label="Blighted Marsh-lurker" category="71" did="1879342409" parentZoneId="1879341996" longitude="21.680292" latitude="-59.81229"/>
<marker id="1297219665" label="Lesser Rogmul" category="71" did="1879346474" parentZoneId="1879341996" longitude="21.680292" latitude="-59.81229"/>
<marker id="1297219666" label="Rock-worm" category="71" did="1879346539" parentZoneId="1879341996" longitude="21.680292" latitude="-59.81229"/>
<marker id="1297219667" label="Fire Grim" category="71" did="1879346443" parentZoneId="1879341996" longitude="21.680292" latitude="-59.81229"/>
<marker id="1297219668" label="Young Fire-drake" category="71" did="1879346452" parentZoneId="1879341996" longitude="21.680292" latitude="-59.81229"/>
<marker id="1297219669" label="Flame-tongue Salamander" category="71" did="1879346519" parentZoneId="1879341996" longitude="21.680292" latitude="-59.81229"/>
<marker id="1297219670" label="Fire-crawler" category="71" did="1879351443" parentZoneId="1879341996" longitude="21.680292" latitude="-59.81229"/>
<marker id="1297219671" label="Fire-drakeling" category="71" did="1879346429" parentZoneId="1879341996" longitude="21.680292" latitude="-59.81229"/>
<marker id="1297219672" label="Mordor Salamander" category="71" did="1879346521" parentZoneId="1879341996" longitude="21.680292" latitude="-59.81229"/>
<marker id="1297219673" label="Fire-drake" category="71" did="1879346459" parentZoneId="1879341996" longitude="21.680292" latitude="-59.81229"/>
<marker id="1297219674" label="Nakhtsúm the Scorcher" category="71" did="1879346434" parentZoneId="1879341996" longitude="21.585155" latitude="-59.69868"/>
<marker id="1297219675" label="Lesser Caerog" category="71" did="1879346467" parentZoneId="1879341996" longitude="21.585155" latitude="-59.69868"/>
<marker id="1297219676" label="Fumarole" category="71" did="1879346444" parentZoneId="1879341996" longitude="21.585155" latitude="-59.69868"/>
<marker id="1297219677" label="Flame-worm" category="71" did="1879346542" parentZoneId="1879341996" longitude="21.585155" latitude="-59.69868"/>
<marker id="1297219678" label="Zághar Shâr, the Raging Blaze" category="71" did="1879346440" parentZoneId="1879341996" longitude="21.585155" latitude="-59.69868"/>
<marker id="1297219679" label="Blighted Marsh-lurker" category="71" did="1879342409" parentZoneId="1879341996" longitude="21.585155" latitude="-59.69868"/>
<marker id="1297219680" label="Lesser Rogmul" category="71" did="1879346474" parentZoneId="1879341996" longitude="21.585155" latitude="-59.69868"/>
<marker id="1297219681" label="Rock-worm" category="71" did="1879346539" parentZoneId="1879341996" longitude="21.585155" latitude="-59.69868"/>
<marker id="1297219682" label="Fire Grim" category="71" did="1879346443" parentZoneId="1879341996" longitude="21.585155" latitude="-59.69868"/>
<marker id="1297219683" label="Young Fire-drake" category="71" did="1879346452" parentZoneId="1879341996" longitude="21.585155" latitude="-59.69868"/>
<marker id="1297219684" label="Flame-tongue Salamander" category="71" did="1879346519" parentZoneId="1879341996" longitude="21.585155" latitude="-59.69868"/>
<marker id="1297219685" label="Fire-crawler" category="71" did="1879351443" parentZoneId="1879341996" longitude="21.585155" latitude="-59.69868"/>
<marker id="1297219686" label="Fire-drakeling" category="71" did="1879346429" parentZoneId="1879341996" longitude="21.585155" latitude="-59.69868"/>
<marker id="1297219687" label="Mordor Salamander" category="71" did="1879346521" parentZoneId="1879341996" longitude="21.585155" latitude="-59.69868"/>
<marker id="1297219688" label="Fire-drake" category="71" did="1879346459" parentZoneId="1879341996" longitude="21.585155" latitude="-59.69868"/>
<marker id="1297219689" label="Nakhtsúm the Scorcher" category="71" did="1879346434" parentZoneId="1879341996" longitude="21.420546" latitude="-59.653233"/>
<marker id="1297219690" label="Lesser Caerog" category="71" did="1879346467" parentZoneId="1879341996" longitude="21.420546" latitude="-59.653233"/>
<marker id="1297219691" label="Fumarole" category="71" did="1879346444" parentZoneId="1879341996" longitude="21.420546" latitude="-59.653233"/>
<marker id="1297219692" label="Flame-worm" category="71" did="1879346542" parentZoneId="1879341996" longitude="21.420546" latitude="-59.653233"/>
<marker id="1297219693" label="Zághar Shâr, the Raging Blaze" category="71" did="1879346440" parentZoneId="1879341996" longitude="21.420546" latitude="-59.653233"/>
<marker id="1297219694" label="Blighted Marsh-lurker" category="71" did="1879342409" parentZoneId="1879341996" longitude="21.420546" latitude="-59.653233"/>
<marker id="1297219695" label="Lesser Rogmul" category="71" did="1879346474" parentZoneId="1879341996" longitude="21.420546" latitude="-59.653233"/>
<marker id="1297219696" label="Rock-worm" category="71" did="1879346539" parentZoneId="1879341996" longitude="21.420546" latitude="-59.653233"/>
<marker id="1297219697" label="Fire Grim" category="71" did="1879346443" parentZoneId="1879341996" longitude="21.420546" latitude="-59.653233"/>
<marker id="1297219698" label="Young Fire-drake" category="71" did="1879346452" parentZoneId="1879341996" longitude="21.420546" latitude="-59.653233"/>
<marker id="1297219699" label="Flame-tongue Salamander" category="71" did="1879346519" parentZoneId="1879341996" longitude="21.420546" latitude="-59.653233"/>
<marker id="1297219700" label="Fire-crawler" category="71" did="1879351443" parentZoneId="1879341996" longitude="21.420546" latitude="-59.653233"/>
<marker id="1297219701" label="Fire-drakeling" category="71" did="1879346429" parentZoneId="1879341996" longitude="21.420546" latitude="-59.653233"/>
<marker id="1297219702" label="Mordor Salamander" category="71" did="1879346521" parentZoneId="1879341996" longitude="21.420546" latitude="-59.653233"/>
<marker id="1297219703" label="Fire-drake" category="71" did="1879346459" parentZoneId="1879341996" longitude="21.420546" latitude="-59.653233"/>
<marker id="1297219704" label="Nakhtsúm the Scorcher" category="71" did="1879346434" parentZoneId="1879341996" longitude="21.248281" latitude="-59.766777"/>
<marker id="1297219705" label="Lesser Caerog" category="71" did="1879346467" parentZoneId="1879341996" longitude="21.248281" latitude="-59.766777"/>
<marker id="1297219706" label="Fumarole" category="71" did="1879346444" parentZoneId="1879341996" longitude="21.248281" latitude="-59.766777"/>
<marker id="1297219707" label="Flame-worm" category="71" did="1879346542" parentZoneId="1879341996" longitude="21.248281" latitude="-59.766777"/>
<marker id="1297219708" label="Zághar Shâr, the Raging Blaze" category="71" did="1879346440" parentZoneId="1879341996" longitude="21.248281" latitude="-59.766777"/>
<marker id="1297219709" label="Blighted Marsh-lurker" category="71" did="1879342409" parentZoneId="1879341996" longitude="21.248281" latitude="-59.766777"/>
<marker id="1297219710" label="Lesser Rogmul" category="71" did="1879346474" parentZoneId="1879341996" longitude="21.248281" latitude="-59.766777"/>
<marker id="1297219711" label="Rock-worm" category="71" did="1879346539" parentZoneId="1879341996" longitude="21.248281" latitude="-59.766777"/>
<marker id="1297219712" label="Fire Grim" category="71" did="1879346443" parentZoneId="1879341996" longitude="21.248281" latitude="-59.766777"/>
<marker id="1297219713" label="Young Fire-drake" category="71" did="1879346452" parentZoneId="1879341996" longitude="21.248281" latitude="-59.766777"/>
<marker id="1297219714" label="Flame-tongue Salamander" category="71" did="1879346519" parentZoneId="1879341996" longitude="21.248281" latitude="-59.766777"/>
<marker id="1297219715" label="Fire-crawler" category="71" did="1879351443" parentZoneId="1879341996" longitude="21.248281" latitude="-59.766777"/>
<marker id="1297219716" label="Fire-drakeling" category="71" did="1879346429" parentZoneId="1879341996" longitude="21.248281" latitude="-59.766777"/>
<marker id="1297219717" label="Mordor Salamander" category="71" did="1879346521" parentZoneId="1879341996" longitude="21.248281" latitude="-59.766777"/>
<marker id="1297219718" label="Fire-drake" category="71" did="1879346459" parentZoneId="1879341996" longitude="21.248281" latitude="-59.766777"/>
<marker id="1297219719" label="Nakhtsúm the Scorcher" category="71" did="1879346434" parentZoneId="1879341996" longitude="21.298613" latitude="-59.941746"/>
<marker id="1297219720" label="Lesser Caerog" category="71" did="1879346467" parentZoneId="1879341996" longitude="21.298613" latitude="-59.941746"/>
<marker id="1297219721" label="Fumarole" category="71" did="1879346444" parentZoneId="1879341996" longitude="21.298613" latitude="-59.941746"/>
<marker id="1297219722" label="Flame-worm" category="71" did="1879346542" parentZoneId="1879341996" longitude="21.298613" latitude="-59.941746"/>
<marker id="1297219723" label="Zághar Shâr, the Raging Blaze" category="71" did="1879346440" parentZoneId="1879341996" longitude="21.298613" latitude="-59.941746"/>
<marker id="1297219724" label="Blighted Marsh-lurker" category="71" did="1879342409" parentZoneId="1879341996" longitude="21.298613" latitude="-59.941746"/>
<marker id="1297219725" label="Lesser Rogmul" category="71" did="1879346474" parentZoneId="1879341996" longitude="21.298613" latitude="-59.941746"/>
<marker id="1297219726" label="Rock-worm" category="71" did="1879346539" parentZoneId="1879341996" longitude="21.298613" latitude="-59.941746"/>
<marker id="1297219727" label="Fire Grim" category="71" did="1879346443" parentZoneId="1879341996" longitude="21.298613" latitude="-59.941746"/>
<marker id="1297219728" label="Young Fire-drake" category="71" did="1879346452" parentZoneId="1879341996" longitude="21.298613" latitude="-59.941746"/>
<marker id="1297219729" label="Flame-tongue Salamander" category="71" did="1879346519" parentZoneId="1879341996" longitude="21.298613" latitude="-59.941746"/>
<marker id="1297219730" label="Fire-crawler" category="71" did="1879351443" parentZoneId="1879341996" longitude="21.298613" latitude="-59.941746"/>
<marker id="1297219731" label="Fire-drakeling" category="71" did="1879346429" parentZoneId="1879341996" longitude="21.298613" latitude="-59.941746"/>
<marker id="1297219732" label="Mordor Salamander" category="71" did="1879346521" parentZoneId="1879341996" longitude="21.298613" latitude="-59.941746"/>
<marker id="1297219733" label="Fire-drake" category="71" did="1879346459" parentZoneId="1879341996" longitude="21.298613" latitude="-59.941746"/>
<marker id="1297219734" label="Nakhtsúm the Scorcher" category="71" did="1879346434" parentZoneId="1879341996" longitude="21.250175" latitude="-60.12134"/>
<marker id="1297219735" label="Lesser Caerog" category="71" did="1879346467" parentZoneId="1879341996" longitude="21.250175" latitude="-60.12134"/>
<marker id="1297219736" label="Fumarole" category="71" did="1879346444" parentZoneId="1879341996" longitude="21.250175" latitude="-60.12134"/>
<marker id="1297219737" label="Flame-worm" category="71" did="1879346542" parentZoneId="1879341996" longitude="21.250175" latitude="-60.12134"/>
<marker id="1297219738" label="Zághar Shâr, the Raging Blaze" category="71" did="1879346440" parentZoneId="1879341996" longitude="21.250175" latitude="-60.12134"/>
<marker id="1297219739" label="Blighted Marsh-lurker" category="71" did="1879342409" parentZoneId="1879341996" longitude="21.250175" latitude="-60.12134"/>
<marker id="1297219740" label="Lesser Rogmul" category="71" did="1879346474" parentZoneId="1879341996" longitude="21.250175" latitude="-60.12134"/>
<marker id="1297219741" label="Rock-worm" category="71" did="1879346539" parentZoneId="1879341996" longitude="21.250175" latitude="-60.12134"/>
<marker id="1297219742" label="Fire Grim" category="71" did="1879346443" parentZoneId="1879341996" longitude="21.250175" latitude="-60.12134"/>
<marker id="1297219743" label="Young Fire-drake" category="71" did="1879346452" parentZoneId="1879341996" longitude="21.250175" latitude="-60.12134"/>
<marker id="1297219744" label="Flame-tongue Salamander" category="71" did="1879346519" parentZoneId="1879341996" longitude="21.250175" latitude="-60.12134"/>
<marker id="1297219745" label="Fire-crawler" category="71" did="1879351443" parentZoneId="1879341996" longitude="21.250175" latitude="-60.12134"/>
<marker id="1297219746" label="Fire-drakeling" category="71" did="1879346429" parentZoneId="1879341996" longitude="21.250175" latitude="-60.12134"/>
<marker id="1297219747" label="Mordor Salamander" category="71" did="1879346521" parentZoneId="1879341996" longitude="21.250175" latitude="-60.12134"/>
<marker id="1297219748" label="Fire-drake" category="71" did="1879346459" parentZoneId="1879341996" longitude="21.250175" latitude="-60.12134"/>
<marker id="1297219749" label="Nakhtsúm the Scorcher" category="71" did="1879346434" parentZoneId="1879341996" longitude="21.316797" latitude="-60.25562"/>
<marker id="1297219750" label="Lesser Caerog" category="71" did="1879346467" parentZoneId="1879341996" longitude="21.316797" latitude="-60.25562"/>
<marker id="1297219751" label="Fumarole" category="71" did="1879346444" parentZoneId="1879341996" longitude="21.316797" latitude="-60.25562"/>
<marker id="1297219752" label="Flame-worm" category="71" did="1879346542" parentZoneId="1879341996" longitude="21.316797" latitude="-60.25562"/>
<marker id="1297219753" label="Zághar Shâr, the Raging Blaze" category="71" did="1879346440" parentZoneId="1879341996" longitude="21.316797" latitude="-60.25562"/>
<marker id="1297219754" label="Blighted Marsh-lurker" category="71" did="1879342409" parentZoneId="1879341996" longitude="21.316797" latitude="-60.25562"/>
<marker id="1297219755" label="Lesser Rogmul" category="71" did="1879346474" parentZoneId="1879341996" longitude="21.316797" latitude="-60.25562"/>
<marker id="1297219756" label="Rock-worm" category="71" did="1879346539" parentZoneId="1879341996" longitude="21.316797" latitude="-60.25562"/>
<marker id="1297219757" label="Fire Grim" category="71" did="1879346443" parentZoneId="1879341996" longitude="21.316797" latitude="-60.25562"/>
<marker id="1297219758" label="Young Fire-drake" category="71" did="1879346452" parentZoneId="1879341996" longitude="21.316797" latitude="-60.25562"/>
<marker id="1297219759" label="Flame-tongue Salamander" category="71" did="1879346519" parentZoneId="1879341996" longitude="21.316797" latitude="-60.25562"/>
<marker id="1297219760" label="Fire-crawler" category="71" did="1879351443" parentZoneId="1879341996" longitude="21.316797" latitude="-60.25562"/>
<marker id="1297219761" label="Fire-drakeling" category="71" did="1879346429" parentZoneId="1879341996" longitude="21.316797" latitude="-60.25562"/>
<marker id="1297219762" label="Mordor Salamander" category="71" did="1879346521" parentZoneId="1879341996" longitude="21.316797" latitude="-60.25562"/>
<marker id="1297219763" label="Fire-drake" category="71" did="1879346459" parentZoneId="1879341996" longitude="21.316797" latitude="-60.25562"/>
<marker id="1297219764" label="Nakhtsúm the Scorcher" category="71" did="1879346434" parentZoneId="1879341996" longitude="21.376268" latitude="-60.36599"/>
<marker id="1297219765" label="Lesser Caerog" category="71" did="1879346467" parentZoneId="1879341996" longitude="21.376268" latitude="-60.36599"/>
<marker id="1297219766" label="Fumarole" category="71" did="1879346444" parentZoneId="1879341996" longitude="21.376268" latitude="-60.36599"/>
<marker id="1297219767" label="Flame-worm" category="71" did="1879346542" parentZoneId="1879341996" longitude="21.376268" latitude="-60.36599"/>
<marker id="1297219768" label="Zághar Shâr, the Raging Blaze" category="71" did="1879346440" parentZoneId="1879341996" longitude="21.376268" latitude="-60.36599"/>
<marker id="1297219769" label="Blighted Marsh-lurker" category="71" did="1879342409" parentZoneId="1879341996" longitude="21.376268" latitude="-60.36599"/>
<marker id="1297219770" label="Lesser Rogmul" category="71" did="1879346474" parentZoneId="1879341996" longitude="21.376268" latitude="-60.36599"/>
<marker id="1297219771" label="Rock-worm" category="71" did="1879346539" parentZoneId="1879341996" longitude="21.376268" latitude="-60.36599"/>
<marker id="1297219772" label="Fire Grim" category="71" did="1879346443" parentZoneId="1879341996" longitude="21.376268" latitude="-60.36599"/>
<marker id="1297219773" label="Young Fire-drake" category="71" did="1879346452" parentZoneId="1879341996" longitude="21.376268" latitude="-60.36599"/>
<marker id="1297219774" label="Flame-tongue Salamander" category="71" did="1879346519" parentZoneId="1879341996" longitude="21.376268" latitude="-60.36599"/>
<marker id="1297219775" label="Fire-crawler" category="71" did="1879351443" parentZoneId="1879341996" longitude="21.376268" latitude="-60.36599"/>
<marker id="1297219776" label="Fire-drakeling" category="71" did="1879346429" parentZoneId="1879341996" longitude="21.376268" latitude="-60.36599"/>
<marker id="1297219777" label="Mordor Salamander" category="71" did="1879346521" parentZoneId="1879341996" longitude="21.376268" latitude="-60.36599"/>
<marker id="1297219778" label="Fire-drake" category="71" did="1879346459" parentZoneId="1879341996" longitude="21.376268" latitude="-60.36599"/>
<marker id="1297219779" label="Nakhtsúm the Scorcher" category="71" did="1879346434" parentZoneId="1879341996" longitude="21.45459" latitude="-60.23387"/>
<marker id="1297219780" label="Lesser Caerog" category="71" did="1879346467" parentZoneId="1879341996" longitude="21.45459" latitude="-60.23387"/>
<marker id="1297219781" label="Fumarole" category="71" did="1879346444" parentZoneId="1879341996" longitude="21.45459" latitude="-60.23387"/>
<marker id="1297219782" label="Flame-worm" category="71" did="1879346542" parentZoneId="1879341996" longitude="21.45459" latitude="-60.23387"/>
<marker id="1297219783" label="Zághar Shâr, the Raging Blaze" category="71" did="1879346440" parentZoneId="1879341996" longitude="21.45459" latitude="-60.23387"/>
<marker id="1297219784" label="Blighted Marsh-lurker" category="71" did="1879342409" parentZoneId="1879341996" longitude="21.45459" latitude="-60.23387"/>
<marker id="1297219785" label="Lesser Rogmul" category="71" did="1879346474" parentZoneId="1879341996" longitude="21.45459" latitude="-60.23387"/>
<marker id="1297219786" label="Rock-worm" category="71" did="1879346539" parentZoneId="1879341996" longitude="21.45459" latitude="-60.23387"/>
<marker id="1297219787" label="Fire Grim" category="71" did="1879346443" parentZoneId="1879341996" longitude="21.45459" latitude="-60.23387"/>
<marker id="1297219788" label="Young Fire-drake" category="71" did="1879346452" parentZoneId="1879341996" longitude="21.45459" latitude="-60.23387"/>
<marker id="1297219789" label="Flame-tongue Salamander" category="71" did="1879346519" parentZoneId="1879341996" longitude="21.45459" latitude="-60.23387"/>
<marker id="1297219790" label="Fire-crawler" category="71" did="1879351443" parentZoneId="1879341996" longitude="21.45459" latitude="-60.23387"/>
<marker id="1297219791" label="Fire-drakeling" category="71" did="1879346429" parentZoneId="1879341996" longitude="21.45459" latitude="-60.23387"/>
<marker id="1297219792" label="Mordor Salamander" category="71" did="1879346521" parentZoneId="1879341996" longitude="21.45459" latitude="-60.23387"/>
<marker id="1297219793" label="Fire-drake" category="71" did="1879346459" parentZoneId="1879341996" longitude="21.45459" latitude="-60.23387"/>
<marker id="1297219794" label="Nakhtsúm the Scorcher" category="71" did="1879346434" parentZoneId="1879341996" longitude="21.398964" latitude="-60.022495"/>
<marker id="1297219795" label="Lesser Caerog" category="71" did="1879346467" parentZoneId="1879341996" longitude="21.398964" latitude="-60.022495"/>
<marker id="1297219796" label="Fumarole" category="71" did="1879346444" parentZoneId="1879341996" longitude="21.398964" latitude="-60.022495"/>
<marker id="1297219797" label="Flame-worm" category="71" did="1879346542" parentZoneId="1879341996" longitude="21.398964" latitude="-60.022495"/>
<marker id="1297219798" label="Zághar Shâr, the Raging Blaze" category="71" did="1879346440" parentZoneId="1879341996" longitude="21.398964" latitude="-60.022495"/>
<marker id="1297219799" label="Blighted Marsh-lurker" category="71" did="1879342409" parentZoneId="1879341996" longitude="21.398964" latitude="-60.022495"/>
<marker id="1297219800" label="Lesser Rogmul" category="71" did="1879346474" parentZoneId="1879341996" longitude="21.398964" latitude="-60.022495"/>
<marker id="1297219801" label="Rock-worm" category="71" did="1879346539" parentZoneId="1879341996" longitude="21.398964" latitude="-60.022495"/>
<marker id="1297219802" label="Fire Grim" category="71" did="1879346443" parentZoneId="1879341996" longitude="21.398964" latitude="-60.022495"/>
<marker id="1297219803" label="Young Fire-drake" category="71" did="1879346452" parentZoneId="1879341996" longitude="21.398964" latitude="-60.022495"/>
<marker id="1297219804" label="Flame-tongue Salamander" category="71" did="1879346519" parentZoneId="1879341996" longitude="21.398964" latitude="-60.022495"/>
<marker id="1297219805" label="Fire-crawler" category="71" did="1879351443" parentZoneId="1879341996" longitude="21.398964" latitude="-60.022495"/>
<marker id="1297219806" label="Fire-drakeling" category="71" did="1879346429" parentZoneId="1879341996" longitude="21.398964" latitude="-60.022495"/>
<marker id="1297219807" label="Mordor Salamander" category="71" did="1879346521" parentZoneId="1879341996" longitude="21.398964" latitude="-60.022495"/>
<marker id="1297219808" label="Fire-drake" category="71" did="1879346459" parentZoneId="1879341996" longitude="21.398964" latitude="-60.022495"/>
<marker id="1297219809" label="Nakhtsúm the Scorcher" category="71" did="1879346434" parentZoneId="1879341996" longitude="21.566523" latitude="-60.01405"/>
<marker id="1297219810" label="Lesser Caerog" category="71" did="1879346467" parentZoneId="1879341996" longitude="21.566523" latitude="-60.01405"/>
<marker id="1297219811" label="Fumarole" category="71" did="1879346444" parentZoneId="1879341996" longitude="21.566523" latitude="-60.01405"/>
<marker id="1297219812" label="Flame-worm" category="71" did="1879346542" parentZoneId="1879341996" longitude="21.566523" latitude="-60.01405"/>
<marker id="1297219813" label="Zághar Shâr, the Raging Blaze" category="71" did="1879346440" parentZoneId="1879341996" longitude="21.566523" latitude="-60.01405"/>
<marker id="1297219814" label="Blighted Marsh-lurker" category="71" did="1879342409" parentZoneId="1879341996" longitude="21.566523" latitude="-60.01405"/>
<marker id="1297219815" label="Lesser Rogmul" category="71" did="1879346474" parentZoneId="1879341996" longitude="21.566523" latitude="-60.01405"/>
<marker id="1297219816" label="Rock-worm" category="71" did="1879346539" parentZoneId="1879341996" longitude="21.566523" latitude="-60.01405"/>
<marker id="1297219817" label="Fire Grim" category="71" did="1879346443" parentZoneId="1879341996" longitude="21.566523" latitude="-60.01405"/>
<marker id="1297219818" label="Young Fire-drake" category="71" did="1879346452" parentZoneId="1879341996" longitude="21.566523" latitude="-60.01405"/>
<marker id="1297219819" label="Flame-tongue Salamander" category="71" did="1879346519" parentZoneId="1879341996" longitude="21.566523" latitude="-60.01405"/>
<marker id="1297219820" label="Fire-crawler" category="71" did="1879351443" parentZoneId="1879341996" longitude="21.566523" latitude="-60.01405"/>
<marker id="1297219821" label="Fire-drakeling" category="71" did="1879346429" parentZoneId="1879341996" longitude="21.566523" latitude="-60.01405"/>
<marker id="1297219822" label="Mordor Salamander" category="71" did="1879346521" parentZoneId="1879341996" longitude="21.566523" latitude="-60.01405"/>
<marker id="1297219823" label="Fire-drake" category="71" did="1879346459" parentZoneId="1879341996" longitude="21.566523" latitude="-60.01405"/>
<marker id="1297219824" label="Nakhtsúm the Scorcher" category="71" did="1879346434" parentZoneId="1879341996" longitude="21.471327" latitude="-59.848167"/>
<marker id="1297219825" label="Lesser Caerog" category="71" did="1879346467" parentZoneId="1879341996" longitude="21.471327" latitude="-59.848167"/>
<marker id="1297219826" label="Fumarole" category="71" did="1879346444" parentZoneId="1879341996" longitude="21.471327" latitude="-59.848167"/>
<marker id="1297219827" label="Flame-worm" category="71" did="1879346542" parentZoneId="1879341996" longitude="21.471327" latitude="-59.848167"/>
<marker id="1297219828" label="Zághar Shâr, the Raging Blaze" category="71" did="1879346440" parentZoneId="1879341996" longitude="21.471327" latitude="-59.848167"/>
<marker id="1297219829" label="Blighted Marsh-lurker" category="71" did="1879342409" parentZoneId="1879341996" longitude="21.471327" latitude="-59.848167"/>
<marker id="1297219830" label="Lesser Rogmul" category="71" did="1879346474" parentZoneId="1879341996" longitude="21.471327" latitude="-59.848167"/>
<marker id="1297219831" label="Rock-worm" category="71" did="1879346539" parentZoneId="1879341996" longitude="21.471327" latitude="-59.848167"/>
<marker id="1297219832" label="Fire Grim" category="71" did="1879346443" parentZoneId="1879341996" longitude="21.471327" latitude="-59.848167"/>
<marker id="1297219833" label="Young Fire-drake" category="71" did="1879346452" parentZoneId="1879341996" longitude="21.471327" latitude="-59.848167"/>
<marker id="1297219834" label="Flame-tongue Salamander" category="71" did="1879346519" parentZoneId="1879341996" longitude="21.471327" latitude="-59.848167"/>
<marker id="1297219835" label="Fire-crawler" category="71" did="1879351443" parentZoneId="1879341996" longitude="21.471327" latitude="-59.848167"/>
<marker id="1297219836" label="Fire-drakeling" category="71" did="1879346429" parentZoneId="1879341996" longitude="21.471327" latitude="-59.848167"/>
<marker id="1297219837" label="Mordor Salamander" category="71" did="1879346521" parentZoneId="1879341996" longitude="21.471327" latitude="-59.848167"/>
<marker id="1297219838" label="Fire-drake" category="71" did="1879346459" parentZoneId="1879341996" longitude="21.471327" latitude="-59.848167"/>
<marker id="1297219839" label="Gorgoroth Wormling" category="78" did="1879354678" parentZoneId="1879341996" longitude="21.407831" latitude="-60.36972"/>
<marker id="1297219840" label="Gorgoroth Crawler" category="78" did="1879354675" parentZoneId="1879341996" longitude="21.407831" latitude="-60.36972"/>
<marker id="1297219841" label="Gorgoroth Wormling" category="78" did="1879354678" parentZoneId="1879341996" longitude="21.268301" latitude="-60.168514"/>
<marker id="1297219842" label="Gorgoroth Crawler" category="78" did="1879354675" parentZoneId="1879341996" longitude="21.268301" latitude="-60.168514"/>
<marker id="1297219843" label="Gorgoroth Wormling" category="78" did="1879354678" parentZoneId="1879341996" longitude="21.66668" latitude="-60.37317"/>
<marker id="1297219844" label="Gorgoroth Crawler" category="78" did="1879354675" parentZoneId="1879341996" longitude="21.66668" latitude="-60.37317"/>
<marker id="1297219845" label="Gorgoroth Wormling" category="78" did="1879354678" parentZoneId="1879341996" longitude="21.59744" latitude="-60.341667"/>
<marker id="1297219846" label="Gorgoroth Crawler" category="78" did="1879354675" parentZoneId="1879341996" longitude="21.59744" latitude="-60.341667"/>
<marker id="1297219847" label="Gorgoroth Wormling" category="78" did="1879354678" parentZoneId="1879341996" longitude="21.650116" latitude="-60.0406"/>
<marker id="1297219848" label="Gorgoroth Crawler" category="78" did="1879354675" parentZoneId="1879341996" longitude="21.650116" latitude="-60.0406"/>
<marker id="1297219849" label="Gorgoroth Wormling" category="78" did="1879354678" parentZoneId="1879341996" longitude="21.663105" latitude="-59.886738"/>
<marker id="1297219850" label="Gorgoroth Crawler" category="78" did="1879354675" parentZoneId="1879341996" longitude="21.663105" latitude="-59.886738"/>
<marker id="1297219851" label="Gorgoroth Wormling" category="78" did="1879354678" parentZoneId="1879341996" longitude="21.861563" latitude="-59.958733"/>
<marker id="1297219852" label="Gorgoroth Crawler" category="78" did="1879354675" parentZoneId="1879341996" longitude="21.861563" latitude="-59.958733"/>
<marker id="1297219853" label="Gorgoroth Wormling" category="78" did="1879354678" parentZoneId="1879341996" longitude="21.44459" latitude="-59.910244"/>
<marker id="1297219854" label="Gorgoroth Crawler" category="78" did="1879354675" parentZoneId="1879341996" longitude="21.44459" latitude="-59.910244"/>
<marker id="1297219855" label="Gorgoroth Wormling" category="78" did="1879354678" parentZoneId="1879341996" longitude="21.250175" latitude="-59.927498"/>
<marker id="1297219856" label="Gorgoroth Crawler" category="78" did="1879354675" parentZoneId="1879341996" longitude="21.250175" latitude="-59.927498"/>
<marker id="1297219857" label="Gorgoroth Wormling" category="78" did="1879354678" parentZoneId="1879341996" longitude="21.413555" latitude="-59.724052"/>
<marker id="1297219858" label="Gorgoroth Crawler" category="78" did="1879354675" parentZoneId="1879341996" longitude="21.413555" latitude="-59.724052"/>
<marker id="1297219859" label="Gorgoroth Artifact Chest" category="50" did="1879351072" parentZoneId="1879341996" longitude="21.58412" latitude="-59.967224"/>
<marker id="1297219860" label="Rich Gorgoroth Skarn Deposit" category="50" did="1879351068" parentZoneId="1879341996" longitude="21.58412" latitude="-59.967224"/>
<marker id="1297219861" label="Gorgoroth Skarn Deposit" category="50" did="1879351067" parentZoneId="1879341996" longitude="21.58412" latitude="-59.967224"/>
<marker id="1297219862" label="Gorgoroth Artifact Chest" category="50" did="1879351072" parentZoneId="1879341996" longitude="21.938417" latitude="-59.867455"/>
<marker id="1297219863" label="Rich Gorgoroth Skarn Deposit" category="50" did="1879351068" parentZoneId="1879341996" longitude="21.938417" latitude="-59.867455"/>
<marker id="1297219864" label="Gorgoroth Skarn Deposit" category="50" did="1879351067" parentZoneId="1879341996" longitude="21.938417" latitude="-59.867455"/>
<marker id="1297219865" label="Gorgoroth Artifact Chest" category="50" did="1879351072" parentZoneId="1879341996" longitude="21.446875" latitude="-59.609592"/>
<marker id="1297219866" label="Rich Gorgoroth Skarn Deposit" category="50" did="1879351068" parentZoneId="1879341996" longitude="21.446875" latitude="-59.609592"/>
<marker id="1297219867" label="Gorgoroth Skarn Deposit" category="50" did="1879351067" parentZoneId="1879341996" longitude="21.446875" latitude="-59.609592"/>
<marker id="1297219868" label="Gorgoroth Artifact Chest" category="50" did="1879351072" parentZoneId="1879341996" longitude="21.293535" latitude="-60.2854"/>
<marker id="1297219869" label="Rich Gorgoroth Skarn Deposit" category="50" did="1879351068" parentZoneId="1879341996" longitude="21.293535" latitude="-60.2854"/>
<marker id="1297219870" label="Gorgoroth Skarn Deposit" category="50" did="1879351067" parentZoneId="1879341996" longitude="21.293535" latitude="-60.2854"/>
<marker id="1297219871" label="Gorgoroth Artifact Chest" category="50" did="1879351072" parentZoneId="1879341996" longitude="21.448612" latitude="-60.38224"/>
<marker id="1297219872" label="Rich Gorgoroth Skarn Deposit" category="50" did="1879351068" parentZoneId="1879341996" longitude="21.448612" latitude="-60.38224"/>
<marker id="1297219873" label="Gorgoroth Skarn Deposit" category="50" did="1879351067" parentZoneId="1879341996" longitude="21.448612" latitude="-60.38224"/>
<marker id="1297219874" label="Gorgoroth Artifact Chest" category="50" did="1879351072" parentZoneId="1879341996" longitude="21.295527" latitude="-60.085976"/>
<marker id="1297219875" label="Rich Gorgoroth Skarn Deposit" category="50" did="1879351068" parentZoneId="1879341996" longitude="21.295527" latitude="-60.085976"/>
<marker id="1297219876" label="Gorgoroth Skarn Deposit" category="50" did="1879351067" parentZoneId="1879341996" longitude="21.295527" latitude="-60.085976"/>
<marker id="1297219877" label="Gorgoroth Artifact Chest" category="50" did="1879351072" parentZoneId="1879341996" longitude="21.217129" latitude="-59.899124"/>
<marker id="1297219878" label="Rich Gorgoroth Skarn Deposit" category="50" did="1879351068" parentZoneId="1879341996" longitude="21.217129" latitude="-59.899124"/>
<marker id="1297219879" label="Gorgoroth Skarn Deposit" category="50" did="1879351067" parentZoneId="1879341996" longitude="21.217129" latitude="-59.899124"/>
<marker id="1297285120" label="Ghâsh-hai Devoted" category="71" did="1879346585" parentZoneId="1879341996" longitude="22.73123" latitude="-59.866444"/>
<marker id="1297285121" label="Gorgoroth Wormling" category="78" did="1879354678" parentZoneId="1879341996" longitude="22.304277" latitude="-59.974365"/>
<marker id="1297285122" label="Gorgoroth Crawler" category="78" did="1879354675" parentZoneId="1879341996" longitude="22.304277" latitude="-59.974365"/>
<marker id="1297285123" label="Fire-drakeling" category="71" did="1879346429" parentZoneId="1879341996" longitude="22.349316" latitude="-60.056664"/>
<marker id="1297285124" label="Fumarole" category="71" did="1879346444" parentZoneId="1879341996" longitude="22.349316" latitude="-60.056664"/>
<marker id="1297285125" label="Fire Grim" category="71" did="1879346443" parentZoneId="1879341996" longitude="22.349316" latitude="-60.056664"/>
<marker id="1297285126" label="Young Fire-drake" category="71" did="1879346452" parentZoneId="1879341996" longitude="22.349316" latitude="-60.056664"/>
<marker id="1297285127" label="Fire-drake" category="71" did="1879346459" parentZoneId="1879341996" longitude="22.349316" latitude="-60.056664"/>
<marker id="1297285128" label="Lesser Caerog" category="71" did="1879346467" parentZoneId="1879341996" longitude="22.349316" latitude="-60.056664"/>
<marker id="1297285129" label="Lesser Rogmul" category="71" did="1879346474" parentZoneId="1879341996" longitude="22.349316" latitude="-60.056664"/>
<marker id="1297285130" label="Flame-worm" category="71" did="1879346542" parentZoneId="1879341996" longitude="22.349316" latitude="-60.056664"/>
<marker id="1297285132" label="Ghâsh-hai Devoted" category="71" did="1879346585" parentZoneId="1879341996" longitude="22.70869" latitude="-59.84628"/>
<marker id="1297285133" label="Ghâsh-hai Devoted" category="71" did="1879346585" parentZoneId="1879341996" longitude="22.635292" latitude="-59.847824"/>
<marker id="1297285134" label="Ghâsh-hai Devoted" category="71" did="1879346585" parentZoneId="1879341996" longitude="22.609823" latitude="-59.855297"/>
<marker id="1297285135" label="Nakhtsúm the Scorcher" category="71" did="1879346434" parentZoneId="1879341996" longitude="22.661367" latitude="-60.26806"/>
<marker id="1297285136" label="Lesser Caerog" category="71" did="1879346467" parentZoneId="1879341996" longitude="22.661367" latitude="-60.26806"/>
<marker id="1297285137" label="Fumarole" category="71" did="1879346444" parentZoneId="1879341996" longitude="22.661367" latitude="-60.26806"/>
<marker id="1297285138" label="Flame-worm" category="71" did="1879346542" parentZoneId="1879341996" longitude="22.661367" latitude="-60.26806"/>
<marker id="1297285139" label="Zághar Shâr, the Raging Blaze" category="71" did="1879346440" parentZoneId="1879341996" longitude="22.661367" latitude="-60.26806"/>
<marker id="1297285140" label="Blighted Marsh-lurker" category="71" did="1879342409" parentZoneId="1879341996" longitude="22.661367" latitude="-60.26806"/>
<marker id="1297285141" label="Lesser Rogmul" category="71" did="1879346474" parentZoneId="1879341996" longitude="22.661367" latitude="-60.26806"/>
<marker id="1297285142" label="Rock-worm" category="71" did="1879346539" parentZoneId="1879341996" longitude="22.661367" latitude="-60.26806"/>
<marker id="1297285143" label="Fire Grim" category="71" did="1879346443" parentZoneId="1879341996" longitude="22.661367" latitude="-60.26806"/>
<marker id="1297285144" label="Young Fire-drake" category="71" did="1879346452" parentZoneId="1879341996" longitude="22.661367" latitude="-60.26806"/>
<marker id="1297285145" label="Flame-tongue Salamander" category="71" did="1879346519" parentZoneId="1879341996" longitude="22.661367" latitude="-60.26806"/>
<marker id="1297285146" label="Fire-crawler" category="71" did="1879351443" parentZoneId="1879341996" longitude="22.661367" latitude="-60.26806"/>
<marker id="1297285147" label="Fire-drakeling" category="71" did="1879346429" parentZoneId="1879341996" longitude="22.661367" latitude="-60.26806"/>
<marker id="1297285148" label="Mordor Salamander" category="71" did="1879346521" parentZoneId="1879341996" longitude="22.661367" latitude="-60.26806"/>
<marker id="1297285149" label="Fire-drake" category="71" did="1879346459" parentZoneId="1879341996" longitude="22.661367" latitude="-60.26806"/>
<marker id="1297285150" label="Nakhtsúm the Scorcher" category="71" did="1879346434" parentZoneId="1879341996" longitude="22.70289" latitude="-60.111885"/>
<marker id="1297285151" label="Lesser Caerog" category="71" did="1879346467" parentZoneId="1879341996" longitude="22.70289" latitude="-60.111885"/>
<marker id="1297285152" label="Fumarole" category="71" did="1879346444" parentZoneId="1879341996" longitude="22.70289" latitude="-60.111885"/>
<marker id="1297285153" label="Flame-worm" category="71" did="1879346542" parentZoneId="1879341996" longitude="22.70289" latitude="-60.111885"/>
<marker id="1297285154" label="Zághar Shâr, the Raging Blaze" category="71" did="1879346440" parentZoneId="1879341996" longitude="22.70289" latitude="-60.111885"/>
<marker id="1297285155" label="Blighted Marsh-lurker" category="71" did="1879342409" parentZoneId="1879341996" longitude="22.70289" latitude="-60.111885"/>
<marker id="1297285156" label="Lesser Rogmul" category="71" did="1879346474" parentZoneId="1879341996" longitude="22.70289" latitude="-60.111885"/>
<marker id="1297285157" label="Rock-worm" category="71" did="1879346539" parentZoneId="1879341996" longitude="22.70289" latitude="-60.111885"/>
<marker id="1297285158" label="Fire Grim" category="71" did="1879346443" parentZoneId="1879341996" longitude="22.70289" latitude="-60.111885"/>
<marker id="1297285159" label="Young Fire-drake" category="71" did="1879346452" parentZoneId="1879341996" longitude="22.70289" latitude="-60.111885"/>
<marker id="1297285160" label="Flame-tongue Salamander" category="71" did="1879346519" parentZoneId="1879341996" longitude="22.70289" latitude="-60.111885"/>
<marker id="1297285161" label="Fire-crawler" category="71" did="1879351443" parentZoneId="1879341996" longitude="22.70289" latitude="-60.111885"/>
<marker id="1297285162" label="Fire-drakeling" category="71" did="1879346429" parentZoneId="1879341996" longitude="22.70289" latitude="-60.111885"/>
<marker id="1297285163" label="Mordor Salamander" category="71" did="1879346521" parentZoneId="1879341996" longitude="22.70289" latitude="-60.111885"/>
<marker id="1297285164" label="Fire-drake" category="71" did="1879346459" parentZoneId="1879341996" longitude="22.70289" latitude="-60.111885"/>
<marker id="1297285165" label="Nakhtsúm the Scorcher" category="71" did="1879346434" parentZoneId="1879341996" longitude="22.610624" latitude="-59.9575"/>
<marker id="1297285166" label="Lesser Caerog" category="71" did="1879346467" parentZoneId="1879341996" longitude="22.610624" latitude="-59.9575"/>
<marker id="1297285167" label="Fumarole" category="71" did="1879346444" parentZoneId="1879341996" longitude="22.610624" latitude="-59.9575"/>
<marker id="1297285168" label="Flame-worm" category="71" did="1879346542" parentZoneId="1879341996" longitude="22.610624" latitude="-59.9575"/>
<marker id="1297285169" label="Zághar Shâr, the Raging Blaze" category="71" did="1879346440" parentZoneId="1879341996" longitude="22.610624" latitude="-59.9575"/>
<marker id="1297285170" label="Blighted Marsh-lurker" category="71" did="1879342409" parentZoneId="1879341996" longitude="22.610624" latitude="-59.9575"/>
<marker id="1297285171" label="Lesser Rogmul" category="71" did="1879346474" parentZoneId="1879341996" longitude="22.610624" latitude="-59.9575"/>
<marker id="1297285172" label="Rock-worm" category="71" did="1879346539" parentZoneId="1879341996" longitude="22.610624" latitude="-59.9575"/>
<marker id="1297285173" label="Fire Grim" category="71" did="1879346443" parentZoneId="1879341996" longitude="22.610624" latitude="-59.9575"/>
<marker id="1297285174" label="Young Fire-drake" category="71" did="1879346452" parentZoneId="1879341996" longitude="22.610624" latitude="-59.9575"/>
<marker id="1297285175" label="Flame-tongue Salamander" category="71" did="1879346519" parentZoneId="1879341996" longitude="22.610624" latitude="-59.9575"/>
<marker id="1297285176" label="Fire-crawler" category="71" did="1879351443" parentZoneId="1879341996" longitude="22.610624" latitude="-59.9575"/>
<marker id="1297285177" label="Fire-drakeling" category="71" did="1879346429" parentZoneId="1879341996" longitude="22.610624" latitude="-59.9575"/>
<marker id="1297285178" label="Mordor Salamander" category="71" did="1879346521" parentZoneId="1879341996" longitude="22.610624" latitude="-59.9575"/>
<marker id="1297285179" label="Fire-drake" category="71" did="1879346459" parentZoneId="1879341996" longitude="22.610624" latitude="-59.9575"/>
<marker id="1297285180" label="Nakhtsúm the Scorcher" category="71" did="1879346434" parentZoneId="1879341996" longitude="22.531229" latitude="-59.84192"/>
<marker id="1297285181" label="Lesser Caerog" category="71" did="1879346467" parentZoneId="1879341996" longitude="22.531229" latitude="-59.84192"/>
<marker id="1297285182" label="Fumarole" category="71" did="1879346444" parentZoneId="1879341996" longitude="22.531229" latitude="-59.84192"/>
<marker id="1297285183" label="Flame-worm" category="71" did="1879346542" parentZoneId="1879341996" longitude="22.531229" latitude="-59.84192"/>
<marker id="1297285184" label="Zághar Shâr, the Raging Blaze" category="71" did="1879346440" parentZoneId="1879341996" longitude="22.531229" latitude="-59.84192"/>
<marker id="1297285185" label="Blighted Marsh-lurker" category="71" did="1879342409" parentZoneId="1879341996" longitude="22.531229" latitude="-59.84192"/>
<marker id="1297285186" label="Lesser Rogmul" category="71" did="1879346474" parentZoneId="1879341996" longitude="22.531229" latitude="-59.84192"/>
<marker id="1297285187" label="Rock-worm" category="71" did="1879346539" parentZoneId="1879341996" longitude="22.531229" latitude="-59.84192"/>
<marker id="1297285188" label="Fire Grim" category="71" did="1879346443" parentZoneId="1879341996" longitude="22.531229" latitude="-59.84192"/>
<marker id="1297285189" label="Young Fire-drake" category="71" did="1879346452" parentZoneId="1879341996" longitude="22.531229" latitude="-59.84192"/>
<marker id="1297285190" label="Flame-tongue Salamander" category="71" did="1879346519" parentZoneId="1879341996" longitude="22.531229" latitude="-59.84192"/>
<marker id="1297285191" label="Fire-crawler" category="71" did="1879351443" parentZoneId="1879341996" longitude="22.531229" latitude="-59.84192"/>
<marker id="1297285192" label="Fire-drakeling" category="71" did="1879346429" parentZoneId="1879341996" longitude="22.531229" latitude="-59.84192"/>
<marker id="1297285193" label="Mordor Salamander" category="71" did="1879346521" parentZoneId="1879341996" longitude="22.531229" latitude="-59.84192"/>
<marker id="1297285194" label="Fire-drake" category="71" did="1879346459" parentZoneId="1879341996" longitude="22.531229" latitude="-59.84192"/>
<marker id="1297285195" label="Nakhtsúm the Scorcher" category="71" did="1879346434" parentZoneId="1879341996" longitude="22.538027" latitude="-60.059116"/>
<marker id="1297285196" label="Lesser Caerog" category="71" did="1879346467" parentZoneId="1879341996" longitude="22.538027" latitude="-60.059116"/>
<marker id="1297285197" label="Fumarole" category="71" did="1879346444" parentZoneId="1879341996" longitude="22.538027" latitude="-60.059116"/>
<marker id="1297285198" label="Flame-worm" category="71" did="1879346542" parentZoneId="1879341996" longitude="22.538027" latitude="-60.059116"/>
<marker id="1297285199" label="Zághar Shâr, the Raging Blaze" category="71" did="1879346440" parentZoneId="1879341996" longitude="22.538027" latitude="-60.059116"/>
<marker id="1297285200" label="Blighted Marsh-lurker" category="71" did="1879342409" parentZoneId="1879341996" longitude="22.538027" latitude="-60.059116"/>
<marker id="1297285201" label="Lesser Rogmul" category="71" did="1879346474" parentZoneId="1879341996" longitude="22.538027" latitude="-60.059116"/>
<marker id="1297285202" label="Rock-worm" category="71" did="1879346539" parentZoneId="1879341996" longitude="22.538027" latitude="-60.059116"/>
<marker id="1297285203" label="Fire Grim" category="71" did="1879346443" parentZoneId="1879341996" longitude="22.538027" latitude="-60.059116"/>
<marker id="1297285204" label="Young Fire-drake" category="71" did="1879346452" parentZoneId="1879341996" longitude="22.538027" latitude="-60.059116"/>
<marker id="1297285205" label="Flame-tongue Salamander" category="71" did="1879346519" parentZoneId="1879341996" longitude="22.538027" latitude="-60.059116"/>
<marker id="1297285206" label="Fire-crawler" category="71" did="1879351443" parentZoneId="1879341996" longitude="22.538027" latitude="-60.059116"/>
<marker id="1297285207" label="Fire-drakeling" category="71" did="1879346429" parentZoneId="1879341996" longitude="22.538027" latitude="-60.059116"/>
<marker id="1297285208" label="Mordor Salamander" category="71" did="1879346521" parentZoneId="1879341996" longitude="22.538027" latitude="-60.059116"/>
<marker id="1297285209" label="Fire-drake" category="71" did="1879346459" parentZoneId="1879341996" longitude="22.538027" latitude="-60.059116"/>
<marker id="1297285210" label="Nakhtsúm the Scorcher" category="71" did="1879346434" parentZoneId="1879341996" longitude="22.524374" latitude="-60.207317"/>
<marker id="1297285211" label="Lesser Caerog" category="71" did="1879346467" parentZoneId="1879341996" longitude="22.524374" latitude="-60.207317"/>
<marker id="1297285212" label="Fumarole" category="71" did="1879346444" parentZoneId="1879341996" longitude="22.524374" latitude="-60.207317"/>
<marker id="1297285213" label="Flame-worm" category="71" did="1879346542" parentZoneId="1879341996" longitude="22.524374" latitude="-60.207317"/>
<marker id="1297285214" label="Zághar Shâr, the Raging Blaze" category="71" did="1879346440" parentZoneId="1879341996" longitude="22.524374" latitude="-60.207317"/>
<marker id="1297285215" label="Blighted Marsh-lurker" category="71" did="1879342409" parentZoneId="1879341996" longitude="22.524374" latitude="-60.207317"/>
<marker id="1297285216" label="Lesser Rogmul" category="71" did="1879346474" parentZoneId="1879341996" longitude="22.524374" latitude="-60.207317"/>
<marker id="1297285217" label="Rock-worm" category="71" did="1879346539" parentZoneId="1879341996" longitude="22.524374" latitude="-60.207317"/>
<marker id="1297285218" label="Fire Grim" category="71" did="1879346443" parentZoneId="1879341996" longitude="22.524374" latitude="-60.207317"/>
<marker id="1297285219" label="Young Fire-drake" category="71" did="1879346452" parentZoneId="1879341996" longitude="22.524374" latitude="-60.207317"/>
<marker id="1297285220" label="Flame-tongue Salamander" category="71" did="1879346519" parentZoneId="1879341996" longitude="22.524374" latitude="-60.207317"/>
<marker id="1297285221" label="Fire-crawler" category="71" did="1879351443" parentZoneId="1879341996" longitude="22.524374" latitude="-60.207317"/>
<marker id="1297285222" label="Fire-drakeling" category="71" did="1879346429" parentZoneId="1879341996" longitude="22.524374" latitude="-60.207317"/>
<marker id="1297285223" label="Mordor Salamander" category="71" did="1879346521" parentZoneId="1879341996" longitude="22.524374" latitude="-60.207317"/>
<marker id="1297285224" label="Fire-drake" category="71" did="1879346459" parentZoneId="1879341996" longitude="22.524374" latitude="-60.207317"/>
<marker id="1297285225" label="Nakhtsúm the Scorcher" category="71" did="1879346434" parentZoneId="1879341996" longitude="22.458008" latitude="-60.37609"/>
<marker id="1297285226" label="Lesser Caerog" category="71" did="1879346467" parentZoneId="1879341996" longitude="22.458008" latitude="-60.37609"/>
<marker id="1297285227" label="Fumarole" category="71" did="1879346444" parentZoneId="1879341996" longitude="22.458008" latitude="-60.37609"/>
<marker id="1297285228" label="Flame-worm" category="71" did="1879346542" parentZoneId="1879341996" longitude="22.458008" latitude="-60.37609"/>
<marker id="1297285229" label="Zághar Shâr, the Raging Blaze" category="71" did="1879346440" parentZoneId="1879341996" longitude="22.458008" latitude="-60.37609"/>
<marker id="1297285230" label="Blighted Marsh-lurker" category="71" did="1879342409" parentZoneId="1879341996" longitude="22.458008" latitude="-60.37609"/>
<marker id="1297285231" label="Lesser Rogmul" category="71" did="1879346474" parentZoneId="1879341996" longitude="22.458008" latitude="-60.37609"/>
<marker id="1297285232" label="Rock-worm" category="71" did="1879346539" parentZoneId="1879341996" longitude="22.458008" latitude="-60.37609"/>
<marker id="1297285233" label="Fire Grim" category="71" did="1879346443" parentZoneId="1879341996" longitude="22.458008" latitude="-60.37609"/>
<marker id="1297285234" label="Young Fire-drake" category="71" did="1879346452" parentZoneId="1879341996" longitude="22.458008" latitude="-60.37609"/>
<marker id="1297285235" label="Flame-tongue Salamander" category="71" did="1879346519" parentZoneId="1879341996" longitude="22.458008" latitude="-60.37609"/>
<marker id="1297285236" label="Fire-crawler" category="71" did="1879351443" parentZoneId="1879341996" longitude="22.458008" latitude="-60.37609"/>
<marker id="1297285237" label="Fire-drakeling" category="71" did="1879346429" parentZoneId="1879341996" longitude="22.458008" latitude="-60.37609"/>
<marker id="1297285238" label="Mordor Salamander" category="71" did="1879346521" parentZoneId="1879341996" longitude="22.458008" latitude="-60.37609"/>
<marker id="1297285239" label="Fire-drake" category="71" did="1879346459" parentZoneId="1879341996" longitude="22.458008" latitude="-60.37609"/>
<marker id="1297285240" label="Nakhtsúm the Scorcher" category="71" did="1879346434" parentZoneId="1879341996" longitude="22.278358" latitude="-60.340984"/>
<marker id="1297285241" label="Lesser Caerog" category="71" did="1879346467" parentZoneId="1879341996" longitude="22.278358" latitude="-60.340984"/>
<marker id="1297285242" label="Fumarole" category="71" did="1879346444" parentZoneId="1879341996" longitude="22.278358" latitude="-60.340984"/>
<marker id="1297285243" label="Flame-worm" category="71" did="1879346542" parentZoneId="1879341996" longitude="22.278358" latitude="-60.340984"/>
<marker id="1297285244" label="Zághar Shâr, the Raging Blaze" category="71" did="1879346440" parentZoneId="1879341996" longitude="22.278358" latitude="-60.340984"/>
<marker id="1297285245" label="Blighted Marsh-lurker" category="71" did="1879342409" parentZoneId="1879341996" longitude="22.278358" latitude="-60.340984"/>
<marker id="1297285246" label="Lesser Rogmul" category="71" did="1879346474" parentZoneId="1879341996" longitude="22.278358" latitude="-60.340984"/>
<marker id="1297285247" label="Rock-worm" category="71" did="1879346539" parentZoneId="1879341996" longitude="22.278358" latitude="-60.340984"/>
<marker id="1297285248" label="Fire Grim" category="71" did="1879346443" parentZoneId="1879341996" longitude="22.278358" latitude="-60.340984"/>
<marker id="1297285249" label="Young Fire-drake" category="71" did="1879346452" parentZoneId="1879341996" longitude="22.278358" latitude="-60.340984"/>
<marker id="1297285250" label="Flame-tongue Salamander" category="71" did="1879346519" parentZoneId="1879341996" longitude="22.278358" latitude="-60.340984"/>
<marker id="1297285251" label="Fire-crawler" category="71" did="1879351443" parentZoneId="1879341996" longitude="22.278358" latitude="-60.340984"/>
<marker id="1297285252" label="Fire-drakeling" category="71" did="1879346429" parentZoneId="1879341996" longitude="22.278358" latitude="-60.340984"/>
<marker id="1297285253" label="Mordor Salamander" category="71" did="1879346521" parentZoneId="1879341996" longitude="22.278358" latitude="-60.340984"/>
<marker id="1297285254" label="Fire-drake" category="71" did="1879346459" parentZoneId="1879341996" longitude="22.278358" latitude="-60.340984"/>
<marker id="1297285255" label="Nakhtsúm the Scorcher" category="71" did="1879346434" parentZoneId="1879341996" longitude="22.346893" latitude="-60.204716"/>
<marker id="1297285256" label="Lesser Caerog" category="71" did="1879346467" parentZoneId="1879341996" longitude="22.346893" latitude="-60.204716"/>
<marker id="1297285257" label="Fumarole" category="71" did="1879346444" parentZoneId="1879341996" longitude="22.346893" latitude="-60.204716"/>
<marker id="1297285258" label="Flame-worm" category="71" did="1879346542" parentZoneId="1879341996" longitude="22.346893" latitude="-60.204716"/>
<marker id="1297285259" label="Zághar Shâr, the Raging Blaze" category="71" did="1879346440" parentZoneId="1879341996" longitude="22.346893" latitude="-60.204716"/>
<marker id="1297285260" label="Blighted Marsh-lurker" category="71" did="1879342409" parentZoneId="1879341996" longitude="22.346893" latitude="-60.204716"/>
<marker id="1297285261" label="Lesser Rogmul" category="71" did="1879346474" parentZoneId="1879341996" longitude="22.346893" latitude="-60.204716"/>
<marker id="1297285262" label="Rock-worm" category="71" did="1879346539" parentZoneId="1879341996" longitude="22.346893" latitude="-60.204716"/>
<marker id="1297285263" label="Fire Grim" category="71" did="1879346443" parentZoneId="1879341996" longitude="22.346893" latitude="-60.204716"/>
<marker id="1297285264" label="Young Fire-drake" category="71" did="1879346452" parentZoneId="1879341996" longitude="22.346893" latitude="-60.204716"/>
<marker id="1297285265" label="Flame-tongue Salamander" category="71" did="1879346519" parentZoneId="1879341996" longitude="22.346893" latitude="-60.204716"/>
<marker id="1297285266" label="Fire-crawler" category="71" did="1879351443" parentZoneId="1879341996" longitude="22.346893" latitude="-60.204716"/>
<marker id="1297285267" label="Fire-drakeling" category="71" did="1879346429" parentZoneId="1879341996" longitude="22.346893" latitude="-60.204716"/>
<marker id="1297285268" label="Mordor Salamander" category="71" did="1879346521" parentZoneId="1879341996" longitude="22.346893" latitude="-60.204716"/>
<marker id="1297285269" label="Fire-drake" category="71" did="1879346459" parentZoneId="1879341996" longitude="22.346893" latitude="-60.204716"/>
<marker id="1297285270" label="Nakhtsúm the Scorcher" category="71" did="1879346434" parentZoneId="1879341996" longitude="22.355194" latitude="-60.002586"/>
<marker id="1297285271" label="Lesser Caerog" category="71" did="1879346467" parentZoneId="1879341996" longitude="22.355194" latitude="-60.002586"/>
<marker id="1297285272" label="Fumarole" category="71" did="1879346444" parentZoneId="1879341996" longitude="22.355194" latitude="-60.002586"/>
<marker id="1297285273" label="Flame-worm" category="71" did="1879346542" parentZoneId="1879341996" longitude="22.355194" latitude="-60.002586"/>
<marker id="1297285274" label="Zághar Shâr, the Raging Blaze" category="71" did="1879346440" parentZoneId="1879341996" longitude="22.355194" latitude="-60.002586"/>
<marker id="1297285275" label="Blighted Marsh-lurker" category="71" did="1879342409" parentZoneId="1879341996" longitude="22.355194" latitude="-60.002586"/>
<marker id="1297285276" label="Lesser Rogmul" category="71" did="1879346474" parentZoneId="1879341996" longitude="22.355194" latitude="-60.002586"/>
<marker id="1297285277" label="Rock-worm" category="71" did="1879346539" parentZoneId="1879341996" longitude="22.355194" latitude="-60.002586"/>
<marker id="1297285278" label="Fire Grim" category="71" did="1879346443" parentZoneId="1879341996" longitude="22.355194" latitude="-60.002586"/>
<marker id="1297285279" label="Young Fire-drake" category="71" did="1879346452" parentZoneId="1879341996" longitude="22.355194" latitude="-60.002586"/>
<marker id="1297285280" label="Flame-tongue Salamander" category="71" did="1879346519" parentZoneId="1879341996" longitude="22.355194" latitude="-60.002586"/>
<marker id="1297285281" label="Fire-crawler" category="71" did="1879351443" parentZoneId="1879341996" longitude="22.355194" latitude="-60.002586"/>
<marker id="1297285282" label="Fire-drakeling" category="71" did="1879346429" parentZoneId="1879341996" longitude="22.355194" latitude="-60.002586"/>
<marker id="1297285283" label="Mordor Salamander" category="71" did="1879346521" parentZoneId="1879341996" longitude="22.355194" latitude="-60.002586"/>
<marker id="1297285284" label="Fire-drake" category="71" did="1879346459" parentZoneId="1879341996" longitude="22.355194" latitude="-60.002586"/>
<marker id="1297285285" label="Nakhtsúm the Scorcher" category="71" did="1879346434" parentZoneId="1879341996" longitude="22.190683" latitude="-59.91213"/>
<marker id="1297285286" label="Lesser Caerog" category="71" did="1879346467" parentZoneId="1879341996" longitude="22.190683" latitude="-59.91213"/>
<marker id="1297285287" label="Fumarole" category="71" did="1879346444" parentZoneId="1879341996" longitude="22.190683" latitude="-59.91213"/>
<marker id="1297285288" label="Flame-worm" category="71" did="1879346542" parentZoneId="1879341996" longitude="22.190683" latitude="-59.91213"/>
<marker id="1297285289" label="Zághar Shâr, the Raging Blaze" category="71" did="1879346440" parentZoneId="1879341996" longitude="22.190683" latitude="-59.91213"/>
<marker id="1297285290" label="Blighted Marsh-lurker" category="71" did="1879342409" parentZoneId="1879341996" longitude="22.190683" latitude="-59.91213"/>
<marker id="1297285291" label="Lesser Rogmul" category="71" did="1879346474" parentZoneId="1879341996" longitude="22.190683" latitude="-59.91213"/>
<marker id="1297285292" label="Rock-worm" category="71" did="1879346539" parentZoneId="1879341996" longitude="22.190683" latitude="-59.91213"/>
<marker id="1297285293" label="Fire Grim" category="71" did="1879346443" parentZoneId="1879341996" longitude="22.190683" latitude="-59.91213"/>
<marker id="1297285294" label="Young Fire-drake" category="71" did="1879346452" parentZoneId="1879341996" longitude="22.190683" latitude="-59.91213"/>
<marker id="1297285295" label="Flame-tongue Salamander" category="71" did="1879346519" parentZoneId="1879341996" longitude="22.190683" latitude="-59.91213"/>
<marker id="1297285296" label="Fire-crawler" category="71" did="1879351443" parentZoneId="1879341996" longitude="22.190683" latitude="-59.91213"/>
<marker id="1297285297" label="Fire-drakeling" category="71" did="1879346429" parentZoneId="1879341996" longitude="22.190683" latitude="-59.91213"/>
<marker id="1297285298" label="Mordor Salamander" category="71" did="1879346521" parentZoneId="1879341996" longitude="22.190683" latitude="-59.91213"/>
<marker id="1297285299" label="Fire-drake" category="71" did="1879346459" parentZoneId="1879341996" longitude="22.190683" latitude="-59.91213"/>
<marker id="1297285300" label="Nakhtsúm the Scorcher" category="71" did="1879346434" parentZoneId="1879341996" longitude="22.051523" latitude="-59.852905"/>
<marker id="1297285301" label="Lesser Caerog" category="71" did="1879346467" parentZoneId="1879341996" longitude="22.051523" latitude="-59.852905"/>
<marker id="1297285302" label="Fumarole" category="71" did="1879346444" parentZoneId="1879341996" longitude="22.051523" latitude="-59.852905"/>
<marker id="1297285303" label="Flame-worm" category="71" did="1879346542" parentZoneId="1879341996" longitude="22.051523" latitude="-59.852905"/>
<marker id="1297285304" label="Zághar Shâr, the Raging Blaze" category="71" did="1879346440" parentZoneId="1879341996" longitude="22.051523" latitude="-59.852905"/>
<marker id="1297285305" label="Blighted Marsh-lurker" category="71" did="1879342409" parentZoneId="1879341996" longitude="22.051523" latitude="-59.852905"/>
<marker id="1297285306" label="Lesser Rogmul" category="71" did="1879346474" parentZoneId="1879341996" longitude="22.051523" latitude="-59.852905"/>
<marker id="1297285307" label="Rock-worm" category="71" did="1879346539" parentZoneId="1879341996" longitude="22.051523" latitude="-59.852905"/>
<marker id="1297285308" label="Fire Grim" category="71" did="1879346443" parentZoneId="1879341996" longitude="22.051523" latitude="-59.852905"/>
<marker id="1297285309" label="Young Fire-drake" category="71" did="1879346452" parentZoneId="1879341996" longitude="22.051523" latitude="-59.852905"/>
<marker id="1297285310" label="Flame-tongue Salamander" category="71" did="1879346519" parentZoneId="1879341996" longitude="22.051523" latitude="-59.852905"/>
<marker id="1297285311" label="Fire-crawler" category="71" did="1879351443" parentZoneId="1879341996" longitude="22.051523" latitude="-59.852905"/>
<marker id="1297285312" label="Fire-drakeling" category="71" did="1879346429" parentZoneId="1879341996" longitude="22.051523" latitude="-59.852905"/>
<marker id="1297285313" label="Mordor Salamander" category="71" did="1879346521" parentZoneId="1879341996" longitude="22.051523" latitude="-59.852905"/>
<marker id="1297285314" label="Fire-drake" category="71" did="1879346459" parentZoneId="1879341996" longitude="22.051523" latitude="-59.852905"/>
<marker id="1297285315" label="Nakhtsúm the Scorcher" category="71" did="1879346434" parentZoneId="1879341996" longitude="22.180624" latitude="-60.039783"/>
<marker id="1297285316" label="Lesser Caerog" category="71" did="1879346467" parentZoneId="1879341996" longitude="22.180624" latitude="-60.039783"/>
<marker id="1297285317" label="Fumarole" category="71" did="1879346444" parentZoneId="1879341996" longitude="22.180624" latitude="-60.039783"/>
<marker id="1297285318" label="Flame-worm" category="71" did="1879346542" parentZoneId="1879341996" longitude="22.180624" latitude="-60.039783"/>
<marker id="1297285319" label="Zághar Shâr, the Raging Blaze" category="71" did="1879346440" parentZoneId="1879341996" longitude="22.180624" latitude="-60.039783"/>
<marker id="1297285320" label="Blighted Marsh-lurker" category="71" did="1879342409" parentZoneId="1879341996" longitude="22.180624" latitude="-60.039783"/>
<marker id="1297285321" label="Lesser Rogmul" category="71" did="1879346474" parentZoneId="1879341996" longitude="22.180624" latitude="-60.039783"/>
<marker id="1297285322" label="Rock-worm" category="71" did="1879346539" parentZoneId="1879341996" longitude="22.180624" latitude="-60.039783"/>
<marker id="1297285323" label="Fire Grim" category="71" did="1879346443" parentZoneId="1879341996" longitude="22.180624" latitude="-60.039783"/>
<marker id="1297285324" label="Young Fire-drake" category="71" did="1879346452" parentZoneId="1879341996" longitude="22.180624" latitude="-60.039783"/>
<marker id="1297285325" label="Flame-tongue Salamander" category="71" did="1879346519" parentZoneId="1879341996" longitude="22.180624" latitude="-60.039783"/>
