<?xml version="1.0" encoding="UTF-8"?><markers>
<marker id="1253273600" label="Mithrandir" category="70" did="1879354213" parentZoneId="1879353393" longitude="-16.16369" latitude="22.41664"/>
<marker id="1253273601" label="Samwise Gamgee" category="70" did="1879354215" parentZoneId="1879353393" longitude="-16.155224" latitude="22.41294"/>
<marker id="1253273602" label="Ioreth" category="70" did="1879354208" parentZoneId="1879353393" longitude="-16.314882" latitude="22.459492"/>
<marker id="1253273603" label="Steward Faramir" category="70" did="1879354188" parentZoneId="1879353393" longitude="-16.387733" latitude="22.407871"/>
<marker id="1253273604" label="Meriadoc Brandybuck" category="70" did="1879354190" parentZoneId="1879353393" longitude="-16.155487" latitude="22.396484"/>
<marker id="1253273605" label="Aragorn" category="70" did="1879354216" parentZoneId="1879353393" longitude="-16.168955" latitude="22.409403"/>
<marker id="1253273606" label="Peregrin Took" category="70" did="1879354185" parentZoneId="1879353393" longitude="-16.155508" latitude="22.40206"/>
<marker id="1253273607" label="Éomer" category="70" did="1879354196" parentZoneId="1879353393" longitude="-16.16707" latitude="22.399853"/>
<marker id="1253273608" label="Éowyn" category="70" did="1879357652" parentZoneId="1879353393" longitude="-16.391905" latitude="22.372734"/>
<marker id="1253273609" label="Frodo Baggins" category="70" did="1879354197" parentZoneId="1879353393" longitude="-16.154785" latitude="22.407578"/>
<marker id="1253273610" label="Húrin of the Keys" category="70" did="1879354199" parentZoneId="1879353393" longitude="-16.391611" latitude="22.415741"/>
<marker id="1253273611" label="Prince Imrahil" category="70" did="1879354195" parentZoneId="1879353393" longitude="-16.18874" latitude="22.4533"/>
<marker id="1253273612" label="Elfhelm" category="70" did="1879357651" parentZoneId="1879353393" longitude="-16.389824" latitude="22.367401"/>
<marker id="1253273613" label="Ioreth's Kinswoman" category="70" did="1879354206" parentZoneId="1879353393" longitude="-16.322325" latitude="22.462284"/>
<marker id="1253273614" label="Gondorian Soldier" category="70" did="1879354207" parentZoneId="1879353393" longitude="-16.392002" latitude="22.44578"/>
<marker id="1253273615" label="Gondorian Soldier" category="70" did="1879354207" parentZoneId="1879353393" longitude="-16.389355" latitude="22.434101"/>
<marker id="1253273616" label="Gondorian Soldier" category="70" did="1879354207" parentZoneId="1879353393" longitude="-16.392529" latitude="22.436747"/>
<marker id="1253273617" label="Gondorian Soldier" category="70" did="1879354207" parentZoneId="1879353393" longitude="-16.388563" latitude="22.441366"/>
</markers>
