<?xml version="1.0" encoding="UTF-8"?><markers>
<marker id="544280576" label="Gísling" category="70" did="1879243368" parentZoneId="1879244895" longitude="-145.68411" latitude="-34.538467"/>
<marker id="544280577" label="Fastred" category="70" did="1879243367" parentZoneId="1879244895" longitude="-145.65634" latitude="-34.518574"/>
<marker id="544280581" label="Food-scraps" category="73" did="1879243869" parentZoneId="1879244895" longitude="-145.67609" latitude="-34.48951"/>
<marker id="544280583" label="Cell Door" category="73" did="1879243892" parentZoneId="1879244895" longitude="-145.68501" latitude="-34.534607"/>
<marker id="544280584" label="Jail Door" category="100" did="1879083679" parentZoneId="1879244895" longitude="-145.64925" latitude="-34.534607"/>
<marker id="544280585" label="Jail Door" category="100" did="1879083679" parentZoneId="1879244895" longitude="-145.68338" latitude="-34.360264"/>
<marker id="544280586" label="Jail Door" category="100" did="1879083679" parentZoneId="1879244895" longitude="-145.64761" latitude="-34.360264"/>
<marker id="544280593" label="Sigeric" category="70" did="1879253773" parentZoneId="1879244895" longitude="-145.64624" latitude="-34.536854"/>
<marker id="544288768" label="Mailbox" category="34" did="1879229155" parentZoneId="1879244897" longitude="-145.99472" latitude="-32.439716"/>
<marker id="544288769" label="Mailbox" category="34" did="1879229155" parentZoneId="1879244897" longitude="-145.96158" latitude="-32.408417"/>
<marker id="544288770" label="Auctioneer" category="53" did="1879230287" parentZoneId="1879244897" longitude="-146.03052" latitude="-32.43328"/>
<marker id="544288771" label="Auctioneer" category="53" did="1879230286" parentZoneId="1879244897" longitude="-146.03027" latitude="-32.399353"/>
<marker id="544288772" label="Vault-keeper" category="40" did="1879228271" parentZoneId="1879244897" longitude="-145.96806" latitude="-32.41956"/>
<marker id="544288773" label="Vault-keeper" category="40" did="1879228272" parentZoneId="1879244897" longitude="-145.97656" latitude="-32.425682"/>
<marker id="544288777" label="Door" category="100" did="1879230733" parentZoneId="1879244897" longitude="-145.99403" latitude="-32.393185"/>
<marker id="544296960" label="Bard of Rohan" category="54" did="1879228277" parentZoneId="1879244884" longitude="-146.02287" latitude="-30.585428"/>
<marker id="544296961" label="Barber" category="60" did="1879253129" parentZoneId="1879244884" longitude="-146.0355" latitude="-30.651102"/>
<marker id="544296966" label="Forge-master" category="29" did="1879221905" parentZoneId="1879244884" longitude="-146.02895" latitude="-30.578623"/>
<marker id="544296975" label="Relic-master" category="70" did="1879221910" parentZoneId="1879244884" longitude="-146.02437" latitude="-30.559345"/>
<marker id="544296976" label="Healer" category="38" did="1879222914" parentZoneId="1879244884" longitude="-145.97142" latitude="-30.603037"/>
<marker id="544296977" label="Provisioner" category="38" did="1879222929" parentZoneId="1879244884" longitude="-145.98325" latitude="-30.64713"/>
<marker id="544296978" label="Supplier" category="38" did="1879222938" parentZoneId="1879244884" longitude="-145.98106" latitude="-30.654297"/>
<marker id="544296980" label="Mailbox" category="34" did="1879229156" parentZoneId="1879244884" longitude="-146.01448" latitude="-30.656816"/>
<marker id="544296993" label="Tasks Bulletin Board" category="27" did="1879236812" parentZoneId="1879244884" longitude="-146.02524" latitude="-30.653242"/>
<marker id="544297002" label="Remembrance" category="73" did="1879342656" parentZoneId="1879244884" longitude="-146.04077" latitude="-30.624678"/>
<marker id="544297003" label="Remembrance" category="73" did="1879342656" parentZoneId="1879244884" longitude="-146.0085" latitude="-30.581944"/>
<marker id="544297004" label="Ale" category="73" did="1879343226" parentZoneId="1879244884" longitude="-145.97617" latitude="-30.57744"/>
<marker id="544321536" label="Fastred" category="70" did="1879253633" parentZoneId="1879244899" longitude="-146.02263" latitude="-26.009453"/>
<marker id="544321537" label="Théodhild" category="70" did="1879251070" parentZoneId="1879244899" longitude="-145.97137" latitude="-26.006592"/>
<marker id="544321538" label="Folcred" category="70" did="1879251063" parentZoneId="1879244899" longitude="-146.00497" latitude="-26.031141"/>
<marker id="544321539" label="Elflád" category="70" did="1879251068" parentZoneId="1879244899" longitude="-146.00977" latitude="-26.029541"/>
<marker id="544321540" label="Door" category="100" did="1879230733" parentZoneId="1879244899" longitude="-145.99683" latitude="-25.978212"/>
<marker id="544321543" label="Empty Bassinet" category="70" did="1879251071" parentZoneId="1879244899" longitude="-146.02333" latitude="-26.006044"/>
<marker id="544321545" label="Elflád" category="70" did="1879251068" parentZoneId="1879244899" longitude="-146.02446" latitude="-26.019238"/>
<marker id="544321546" label="Elflád" category="70" did="1879251068" parentZoneId="1879244899" longitude="-146.00362" latitude="-26.012733"/>
<marker id="544321547" label="Fastred's Pendant" category="73" did="1879253654" parentZoneId="1879244899" longitude="-146.0084" latitude="-26.000946"/>
<marker id="544329729" label="Léofhelm" category="70" did="1879243360" parentZoneId="1879244902" longitude="-145.97266" latitude="-24.060986"/>
<marker id="544329730" label="Sigeric" category="70" did="1879255313" parentZoneId="1879244902" longitude="-146.00485" latitude="-23.985058"/>
<marker id="544329736" label="Rohirrim Defender" category="71" did="1879253994" parentZoneId="1879244902" longitude="-146.02342" latitude="-23.984404"/>
<marker id="544329737" label="Rohirrim Defender" category="71" did="1879253994" parentZoneId="1879244902" longitude="-146.03941" latitude="-24.065498"/>
<marker id="544329738" label="Rohirrim Defender" category="71" did="1879253994" parentZoneId="1879244902" longitude="-146.03941" latitude="-24.166113"/>
<marker id="544329740" label="Door" category="100" did="1879230734" parentZoneId="1879244902" longitude="-146.00087" latitude="-24.28535"/>
<marker id="544329745" label="Flagon of Mead" category="73" did="1879243865" parentZoneId="1879244902" longitude="-146.00453" latitude="-23.969511"/>
<marker id="544329747" label="Prepared Ration" category="73" did="1879253655" parentZoneId="1879244902" longitude="-145.93658" latitude="-23.966444"/>
<marker id="544329748" label="Prepared Ration" category="73" did="1879253655" parentZoneId="1879244902" longitude="-145.97304" latitude="-23.962616"/>
<marker id="544329760" label="Fastred" category="70" did="1879243362" parentZoneId="1879244902" longitude="-146.00073" latitude="-23.977198"/>
<marker id="544329761" label="Pendant of the Sutcrofts" category="73" did="1879243863" parentZoneId="1879244902" longitude="-146.00114" latitude="-23.963818"/>
<marker id="544411679" label="Mailbox" category="34" did="1879229155" parentZoneId="1879255330" longitude="-144.05444" latitude="-34.410477"/>
<marker id="544411680" label="Expert Cook" category="33" did="1879228231" parentZoneId="1879255330" longitude="-144.0829" latitude="-34.52136"/>
<marker id="544411682" label="Study" category="45" did="1879063729" parentZoneId="1879255330" longitude="-144.08597" latitude="-34.421963"/>
<marker id="544411683" label="Expert Scholar" category="33" did="1879228230" parentZoneId="1879255330" longitude="-144.05064" latitude="-34.433445"/>
<marker id="544411684" label="Master of Crafting Guilds" category="70" did="1879206579" parentZoneId="1879255330" longitude="-144.0769" latitude="-34.397236"/>
<marker id="544411685" label="Oven" category="45" did="1879228570" parentZoneId="1879255330" longitude="-144.09584" latitude="-34.519325"/>
<marker id="544411686" label="Workbench" category="45" did="1879228571" parentZoneId="1879255330" longitude="-144.0649" latitude="-34.343964"/>
<marker id="544411687" label="Forge" category="45" did="1879228568" parentZoneId="1879255330" longitude="-144.04785" latitude="-34.542274"/>
<marker id="544411688" label="Study" category="45" did="1879228569" parentZoneId="1879255330" longitude="-144.09102" latitude="-34.42246"/>
<marker id="544411689" label="Workbench" category="45" did="1879228572" parentZoneId="1879255330" longitude="-144.10152" latitude="-34.349823"/>
<marker id="544411690" label="Mailbox" category="34" did="1879229155" parentZoneId="1879255330" longitude="-144.07938" latitude="-34.484188"/>
<marker id="544411691" label="Auctioneer" category="53" did="1879230286" parentZoneId="1879255330" longitude="-144.04578" latitude="-34.45993"/>
<marker id="544411695" label="Vault-keeper" category="40" did="1879228271" parentZoneId="1879255330" longitude="-144.05179" latitude="-34.478367"/>
<marker id="544411696" label="Legendary Recipes&#10;Cook's Guild" category="33" did="1879254339" parentZoneId="1879255330" longitude="-144.09062" latitude="-34.53751"/>
<marker id="544411697" label="Guild Leader&#10;Cook's Guild" category="58" did="1879254338" parentZoneId="1879255330" longitude="-144.07271" latitude="-34.508816"/>
<marker id="544411698" label="Improved Recipes&#10;Metalsmith's Guild" category="33" did="1879254343" parentZoneId="1879255330" longitude="-144.05971" latitude="-34.53041"/>
<marker id="544411699" label="Legendary Recipes&#10;Scholar's Guild" category="33" did="1879254342" parentZoneId="1879255330" longitude="-144.08757" latitude="-34.432842"/>
<marker id="544411700" label="Improved Recipes&#10;Scholar's Guild" category="33" did="1879254341" parentZoneId="1879255330" longitude="-144.05101" latitude="-34.419735"/>
<marker id="544411701" label="Improved Recipes&#10;Cook's Guild" category="33" did="1879254340" parentZoneId="1879255330" longitude="-144.08739" latitude="-34.543175"/>
<marker id="544411702" label="Guild Leader&#10;Jeweller's Guild" category="58" did="1879254347" parentZoneId="1879255330" longitude="-144.04013" latitude="-34.350048"/>
<marker id="544411703" label="Legendary Recipes&#10;Jeweller's Guild" category="33" did="1879254346" parentZoneId="1879255330" longitude="-144.04465" latitude="-34.344734"/>
<marker id="544411704" label="Improved Recipes&#10;Jeweller's Guild" category="33" did="1879254345" parentZoneId="1879255330" longitude="-144.03137" latitude="-34.35751"/>
<marker id="544411705" label="Legendary Recipes&#10;Metalsmith's Guild" category="33" did="1879254344" parentZoneId="1879255330" longitude="-144.07858" latitude="-34.54588"/>
<marker id="544411706" label="Guild Leader&#10;Woodworker's Guild" category="58" did="1879254351" parentZoneId="1879255330" longitude="-144.04707" latitude="-34.384373"/>
<marker id="544411707" label="Guild Leader&#10;Tailor's Guild" category="58" did="1879254350" parentZoneId="1879255330" longitude="-144.09326" latitude="-34.37132"/>
<marker id="544411708" label="Guild Leader&#10;Scholar's Guild" category="58" did="1879254349" parentZoneId="1879255330" longitude="-144.08643" latitude="-34.413975"/>
<marker id="544411709" label="Guild Leader&#10;Metalsmith's Guild" category="58" did="1879254348" parentZoneId="1879255330" longitude="-144.067" latitude="-34.54586"/>
<marker id="544411710" label="Legendary Recipes&#10;Weaponsmith's Guild" category="33" did="1879254355" parentZoneId="1879255330" longitude="-144.03305" latitude="-34.516514"/>
<marker id="544411711" label="Legendary Recipes&#10;Woodworker's Guild" category="33" did="1879254354" parentZoneId="1879255330" longitude="-144.043" latitude="-34.376846"/>
<marker id="544411712" label="Guild Leader&#10;Weaponsmith's Guild" category="58" did="1879254353" parentZoneId="1879255330" longitude="-144.04819" latitude="-34.537918"/>
<marker id="544411713" label="Improved Recipes&#10;Woodworker's Guild" category="33" did="1879254352" parentZoneId="1879255330" longitude="-144.04457" latitude="-34.369854"/>
<marker id="544411714" label="Improved Recipes&#10;Weaponsmith's Guild" category="33" did="1879254358" parentZoneId="1879255330" longitude="-144.0436" latitude="-34.515945"/>
<marker id="544411715" label="Improved Recipes&#10;Tailor's Guild" category="33" did="1879254357" parentZoneId="1879255330" longitude="-144.08337" latitude="-34.380196"/>
<marker id="544411716" label="Legendary Recipes&#10;Tailor's Guild" category="33" did="1879254356" parentZoneId="1879255330" longitude="-144.09186" latitude="-34.37873"/>
<marker id="544411717" label="Provisioner" category="38" did="1879222929" parentZoneId="1879255330" longitude="-144.08789" latitude="-34.46954"/>
<marker id="544411718" label="Supplier" category="38" did="1879222938" parentZoneId="1879255330" longitude="-144.05588" latitude="-34.501747"/>
<marker id="544411719" label="Master of Apprentices" category="42" did="1879048468" parentZoneId="1879255330" longitude="-144.05443" latitude="-34.396503"/>
<marker id="544419840" label="Vault-keeper" category="40" did="1879228271" parentZoneId="1879244888" longitude="-144.37367" latitude="-32.39869"/>
<marker id="544419841" label="Auctioneer" category="53" did="1879230286" parentZoneId="1879244888" longitude="-144.42542" latitude="-32.41626"/>
<marker id="544419842" label="Auctioneer" category="53" did="1879230287" parentZoneId="1879244888" longitude="-144.425" latitude="-32.40497"/>
<marker id="544419843" label="Mailbox" category="34" did="1879229155" parentZoneId="1879244888" longitude="-144.39551" latitude="-32.43957"/>
<marker id="544419844" label="Vault-keeper" category="40" did="1879228272" parentZoneId="1879244888" longitude="-144.37099" latitude="-32.410057"/>
<marker id="544419845" label="Auctioneer" category="53" did="1879230286" parentZoneId="1879244888" longitude="-144.42519" latitude="-32.429726"/>
<marker id="544419849" label="Door" category="100" did="1879230733" parentZoneId="1879244888" longitude="-144.3941" latitude="-32.393185"/>
<marker id="544428035" label="Guardian Trainer" category="42" did="1879228203" parentZoneId="1879244901" longitude="-144.3261" latitude="-30.63333"/>
<marker id="544428036" label="Hunter Trainer" category="42" did="1879228207" parentZoneId="1879244901" longitude="-144.3016" latitude="-30.614647"/>
<marker id="544428037" label="Lore-master Trainer" category="42" did="1879228204" parentZoneId="1879244901" longitude="-144.27306" latitude="-30.62793"/>
<marker id="544428038" label="Minstrel Trainer" category="42" did="1879228206" parentZoneId="1879244901" longitude="-144.28879" latitude="-30.635908"/>
<marker id="544428048" label="Captain Trainer" category="42" did="1879228210" parentZoneId="1879244901" longitude="-144.33252" latitude="-30.640184"/>
<marker id="544428049" label="Burglar Trainer" category="42" did="1879228214" parentZoneId="1879244901" longitude="-144.31412" latitude="-30.617304"/>
<marker id="544428050" label="Champion Trainer" category="42" did="1879228212" parentZoneId="1879244901" longitude="-144.32144" latitude="-30.641943"/>
<marker id="544428051" label="Rune-keeper Trainer" category="42" did="1879228218" parentZoneId="1879244901" longitude="-144.3083" latitude="-30.634043"/>
<marker id="544428052" label="Warden Trainer" category="42" did="1879228216" parentZoneId="1879244901" longitude="-144.3149" latitude="-30.604345"/>
<marker id="544428064" label="Militia Helm" category="73" did="1879253577" parentZoneId="1879244901" longitude="-144.47194" latitude="-30.598495"/>
<marker id="544428065" label="Militia Helm" category="73" did="1879253577" parentZoneId="1879244901" longitude="-144.47488" latitude="-30.598495"/>
<marker id="544428066" label="Dunstan" category="70" did="1879243329" parentZoneId="1879244901" longitude="-144.42857" latitude="-30.558828"/>
<marker id="544428067" label="Radwold" category="70" did="1879243335" parentZoneId="1879244901" longitude="-144.36736" latitude="-30.636337"/>
<marker id="544428068" label="Céolferth" category="70" did="1879243344" parentZoneId="1879244901" longitude="-144.36717" latitude="-30.598915"/>
<marker id="544428069" label="Militia Blade" category="73" did="1879253575" parentZoneId="1879244901" longitude="-144.3752" latitude="-30.552412"/>
<marker id="544428070" label="Militia Blade" category="73" did="1879253575" parentZoneId="1879244901" longitude="-144.43848" latitude="-30.596542"/>
<marker id="544428071" label="Militia Blade" category="73" did="1879253575" parentZoneId="1879244901" longitude="-144.43883" latitude="-30.611729"/>
<marker id="544428072" label="Militia Helm" category="73" did="1879253577" parentZoneId="1879244901" longitude="-144.37413" latitude="-30.577402"/>
<marker id="544428073" label="Militia Helm" category="73" did="1879253577" parentZoneId="1879244901" longitude="-144.37582" latitude="-30.65203"/>
<marker id="544428074" label="Militia Helm" category="73" did="1879253577" parentZoneId="1879244901" longitude="-144.46962" latitude="-30.598495"/>
<marker id="544452609" label="Alwyn" category="70" did="1879243342" parentZoneId="1879244894" longitude="-144.3723" latitude="-26.00328"/>
<marker id="544452611" label="Door" category="100" did="1879230733" parentZoneId="1879244894" longitude="-144.39684" latitude="-25.978212"/>
<marker id="544452612" label="Prepared Ration" category="73" did="1879253655" parentZoneId="1879244894" longitude="-144.3728" latitude="-26.016493"/>
<marker id="544452619" label="Prepared Ration" category="73" did="1879253655" parentZoneId="1879244894" longitude="-144.4243" latitude="-26.009638"/>
<marker id="544452625" label="Rations" category="73" did="1879253634" parentZoneId="1879244894" longitude="-144.43004" latitude="-26.030663"/>
<marker id="544452626" label="Rations" category="73" did="1879253634" parentZoneId="1879244894" longitude="-144.41908" latitude="-25.998075"/>
<marker id="544452627" label="Rations" category="73" did="1879253634" parentZoneId="1879244894" longitude="-144.36697" latitude="-26.00956"/>
<marker id="544452629" label="Almond Bucket" category="73" did="1879261220" parentZoneId="1879244894" longitude="-144.37917" latitude="-26.017792"/>
<marker id="544460800" label="Shempf" category="70" did="1879270274" parentZoneId="1879231079" longitude="-144.4082" latitude="-24.429384"/>
<marker id="544460801" label="Javatar" category="70" did="1879272095" parentZoneId="1879231079" longitude="-144.42513" latitude="-24.41745"/>
<marker id="544460802" label="White Wolf Trophy" category="73" did="1879098746" parentZoneId="1879231079" longitude="-144.36615" latitude="-24.402782"/>
<marker id="544460803" label="Door" category="100" did="1879230733" parentZoneId="1879231079" longitude="-144.39684" latitude="-24.378212"/>
<marker id="544460804" label="Sleepy" category="70" did="1879252159" parentZoneId="1879231079" longitude="-144.3709" latitude="-24.407158"/>
</markers>
